sourceCode,sourceName,sourceGrouping,sourceRegion,sourceLat,sourceLong,destCode,destName,destGrouping,destRegion,destLat,destLong,distance,year,totalTons,cereals,roots,sugarCrops,pulses,nuts,oilCrops,vegetables,fruits,fibers,spices,fodderCrops,coffeeTea,tobaccoRubber,oilsFats,beverages,livestock,animalMeats,animalProducts,animalHides,nimalOther,pesticides,fertilizers,machinery
AR,Argentina,country,Latin America and the Caribbean,-38.416097,-63.616672,BH,Bahrain,country,Middle East and North Africa,25.930414,50.637772,13818.8362922589,2000,230,18,0,16,0,0,0,0,102,0,0,0,0,0,69,0,0,25,0,0,0,0,0,0
AU,Australia,country,East Asia and Pacific,-25.274398,133.775136,BH,Bahrain,country,Middle East and North Africa,25.930414,50.637772,10590.5218068193,2000,18250,14350,0,0,280,0,0,373,45,0,0,786,19,6,0,1360,0,413,618,0,0,0,0,0
AT,Austria,country,Europe and Central Asia,47.516231,14.550072,BH,Bahrain,country,Middle East and North Africa,25.930414,50.637772,3960.57342845212,2000,119,12,0,0,0,0,0,0,0,0,0,0,0,0,0,50,0,0,57,0,0,0,0,0
BE,Belgium,country,Europe and Central Asia,50.503887,4.469936,BH,Bahrain,country,Middle East and North Africa,25.930414,50.637772,4765.99314985988,2000,713,42,274,10,0,0,0,103,22,0,0,0,0,0,210,37,0,0,15,0,0,0,0,0
BR,Brazil,country,Latin America and the Caribbean,-14.235004,-51.92528,BH,Bahrain,country,Middle East and North Africa,25.930414,50.637772,11942.9876181603,2000,4355,0,0,0,0,0,0,0,83,0,0,0,27,0,0,0,0,4245,0,0,0,0,0,0
CA,Canada,country,North America,56.130366,-106.346771,BH,Bahrain,country,Middle East and North Africa,25.930414,50.637772,10646.2700877435,2000,436,0,0,0,82,0,0,0,0,0,0,0,0,15,0,309,0,0,30,0,0,0,0,0
CL,Chile,country,Latin America and the Caribbean,-35.675147,-71.542969,BH,Bahrain,country,Middle East and North Africa,25.930414,50.637772,14482.5031461214,2000,520,0,0,0,0,0,0,0,520,0,0,0,0,0,0,0,0,0,0,0,0,0,0,0
HK,Hong Kong,country,East Asia and Pacific,22.396428,114.109497,BH,Bahrain,country,Middle East and North Africa,25.930414,50.637772,6395.68679765839,2000,53,0,0,53,0,0,0,0,0,0,0,0,0,0,0,0,0,0,0,0,0,0,0,0
CN,China,country,East Asia and Pacific,35.86166,104.195397,BH,Bahrain,country,Middle East and North Africa,25.930414,50.637772,5169.6671302361,2000,1522,0,0,34,0,0,38,632,54,0,215,0,0,0,0,0,0,549,0,0,0,0,0,0
TW,Taiwan,country,East Asia and Pacific,23.69781,120.960515,BH,Bahrain,country,Middle East and North Africa,25.930414,50.637772,7019.95968944302,2000,71,0,0,0,0,0,0,71,0,0,0,0,0,0,0,0,0,0,0,0,0,0,0,0
CU,Cuba,country,Latin America and the Caribbean,21.521757,-77.781167,BH,Bahrain,country,Middle East and North Africa,25.930414,50.637772,12363.9638009838,2000,1,0,0,0,0,0,0,0,0,0,0,0,0,1,0,0,0,0,0,0,0,0,0,0
CY,Cyprus,country,Europe and Central Asia,35.126413,33.429859,BH,Bahrain,country,Middle East and North Africa,25.930414,50.637772,1937.33683044744,2000,30,23,0,0,0,0,0,0,0,0,0,0,0,0,0,0,0,0,7,0,0,0,0,0
DK,Denmark,country,Europe and Central Asia,56.26392,9.501785,BH,Bahrain,country,Middle East and North Africa,25.930414,50.637772,4707.12264620205,2000,2122,35,0,0,0,0,0,0,69,0,0,0,0,4,42,874,0,667,431,0,0,0,0,0
EC,Ecuador,country,Latin America and the Caribbean,-1.831239,-78.183406,BH,Bahrain,country,Middle East and North Africa,25.930414,50.637772,13945.2692528572,2000,0,0,0,0,0,0,0,0,0,0,0,0,0,0,0,0,0,0,0,0,0,0,0,0
EG,Egypt,country,Middle East and North Africa,26.820553,30.802498,BH,Bahrain,country,Middle East and North Africa,25.930414,50.637772,1978.67867275917,2000,2511,61,97,0,0,0,0,1121,1010,0,0,0,0,212,0,0,0,10,0,0,0,0,0,0
FI,Finland,country,Europe and Central Asia,61.92411,25.748151,BH,Bahrain,country,Middle East and North Africa,25.930414,50.637772,4415.68902887708,2000,14,0,0,0,0,0,0,0,0,0,0,0,0,0,0,0,0,0,14,0,0,0,0,0
FR,France,country,Europe and Central Asia,46.227638,2.213749,BH,Bahrain,country,Middle East and North Africa,25.930414,50.637772,4812.22461506338,2000,3205,70,0,1158,0,0,0,0,261,0,0,0,20,54,94,800,0,521,227,0,0,0,0,0
DE,Germany,country,Europe and Central Asia,51.165691,10.451526,BH,Bahrain,country,Middle East and North Africa,25.930414,50.637772,4398.89929336211,2000,4264,107,0,3220,0,0,0,0,0,0,0,0,6,9,55,427,0,47,393,0,0,0,0,0
GT,Guatemala,country,Latin America and the Caribbean,15.783471,-90.230759,BH,Bahrain,country,Middle East and North Africa,25.930414,50.637772,13751.2206424968,2000,22,0,0,0,0,0,0,0,0,0,22,0,0,0,0,0,0,0,0,0,0,0,0,0
IS,Iceland,country,Europe and Central Asia,64.963051,-19.020835,BH,Bahrain,country,Middle East and North Africa,25.930414,50.637772,6467.26788957495,2000,58,0,0,0,0,0,0,0,0,0,0,0,0,0,0,0,0,0,58,0,0,0,0,0
IN,India,country,South Asia,20.593684,78.96288,BH,Bahrain,country,Middle East and North Africa,25.930414,50.637772,2950.89653763373,2000,17393,3944,0,0,648,192,486,8347,1120,0,392,0,166,0,51,294,0,1170,583,0,0,0,0,0
ID,Indonesia,country,East Asia and Pacific,-0.789275,113.921327,BH,Bahrain,country,Middle East and North Africa,25.930414,50.637772,7406.19687015959,2000,132,65,0,28,0,0,0,0,0,0,0,0,39,0,0,0,0,0,0,0,0,0,0,0
IR,Iran,country,Middle East and North Africa,32.427908,53.688046,BH,Bahrain,country,Middle East and North Africa,25.930414,50.637772,781.577810878677,2000,3946,0,0,18,104,135,0,1457,1991,0,41,0,0,81,0,0,0,0,119,0,0,0,0,0
IE,Ireland,country,Europe and Central Asia,53.41291,-8.24389,BH,Bahrain,country,Middle East and North Africa,25.930414,50.637772,5686.95619860809,2000,328,33,0,0,0,0,0,0,0,0,0,0,18,22,0,107,0,148,0,0,0,0,0,0
IT,Italy,country,Europe and Central Asia,41.87194,12.56738,BH,Bahrain,country,Middle East and North Africa,25.930414,50.637772,3897.07020063266,2000,765,519,0,10,0,0,0,0,89,0,0,0,82,13,0,33,0,0,19,0,0,0,0,0
JP,Japan,country,East Asia and Pacific,36.204824,138.252924,BH,Bahrain,country,Middle East and North Africa,25.930414,50.637772,8152.2247876635,2000,29,13,0,0,0,0,13,0,0,0,0,0,0,3,0,0,0,0,0,0,0,0,0,0
JO,Jordan,country,Middle East and North Africa,30.585164,36.238414,BH,Bahrain,country,Middle East and North Africa,25.930414,50.637772,1502.51476516878,2000,5434,0,702,0,0,0,0,2544,2188,0,0,0,0,0,0,0,0,0,0,0,0,0,0,0
KE,Kenya,country,Sub-Saharan Africa,-0.023559,37.906193,BH,Bahrain,country,Middle East and North Africa,25.930414,50.637772,3196.35358244929,2000,26,0,0,0,0,0,0,0,26,0,0,0,0,0,0,0,0,0,0,0,0,0,0,0
KW,Kuwait,country,Middle East and North Africa,29.31166,47.481766,BH,Bahrain,country,Middle East and North Africa,25.930414,50.637772,488.38321363643,2000,900,23,0,0,0,0,0,0,674,0,0,0,0,0,0,84,0,36,83,0,0,0,0,0
LB,Lebanon,country,Middle East and North Africa,33.854721,35.862285,BH,Bahrain,country,Middle East and North Africa,25.930414,50.637772,1674.00311081791,2000,4876,0,157,11,0,0,0,302,4368,0,0,0,2,0,36,0,0,0,0,0,0,0,0,0
MY,Malaysia,country,East Asia and Pacific,4.210484,101.975766,BH,Bahrain,country,Middle East and North Africa,25.930414,50.637772,5974.63414122088,2000,1224,181,0,22,0,0,0,113,27,0,0,0,50,116,503,158,0,54,0,0,0,0,0,0
MX,Mexico,country,Latin America and the Caribbean,23.634501,-102.552784,BH,Bahrain,country,Middle East and North Africa,25.930414,50.637772,13810.0377612059,2000,97,0,0,0,97,0,0,0,0,0,0,0,0,0,0,0,0,0,0,0,0,0,0,0
MA,Morocco,country,Middle East and North Africa,31.791702,-7.09262,BH,Bahrain,country,Middle East and North Africa,25.930414,50.637772,5601.68435293998,2000,20,0,0,0,0,0,0,0,0,0,0,0,0,0,0,0,0,0,20,0,0,0,0,0
NL,Netherlands,country,Europe and Central Asia,52.132633,5.291266,BH,Bahrain,country,Middle East and North Africa,25.930414,50.637772,4769.58515039393,2000,6157,63,787,0,0,0,0,195,75,0,0,400,83,149,154,2732,0,60,1459,0,0,0,0,0
NZ,New Zealand,country,East Asia and Pacific,-40.900557,174.885971,BH,Bahrain,country,Middle East and North Africa,25.930414,50.637772,14691.83635407,2000,975,0,0,0,0,0,0,0,191,0,0,0,0,0,0,160,0,173,451,0,0,0,0,0
NO,Norway,country,Europe and Central Asia,60.472024,8.468946,BH,Bahrain,country,Middle East and North Africa,25.930414,50.637772,4992.34012453848,2000,11,0,0,0,0,0,0,0,0,0,0,0,0,0,0,0,0,0,11,0,0,0,0,0
OM,Oman,country,Middle East and North Africa,21.512583,55.923255,BH,Bahrain,country,Middle East and North Africa,25.930414,50.637772,729.218079260173,2000,744,376,0,0,0,0,0,0,0,0,0,0,0,86,272,0,0,0,10,0,0,0,0,0
PK,Pakistan,country,South Asia,30.375321,69.345116,BH,Bahrain,country,Middle East and North Africa,25.930414,50.637772,1899.02253268179,2000,9282,7561,0,0,0,0,0,601,1096,0,24,0,0,0,0,0,0,0,0,0,0,0,0,0
PH,Philippines,country,East Asia and Pacific,12.879721,121.774017,BH,Bahrain,country,Middle East and North Africa,25.930414,50.637772,7526.20003805579,2000,3749,20,0,0,0,0,0,0,3699,0,0,0,0,0,0,30,0,0,0,0,0,0,0,0
PL,Poland,country,Europe and Central Asia,51.919438,19.145136,BH,Bahrain,country,Middle East and North Africa,25.930414,50.637772,3918.07684320946,2000,81,0,48,0,0,0,0,0,0,0,0,0,17,0,0,0,0,0,16,0,0,0,0,0
RO,Romania,country,Europe and Central Asia,45.943161,24.96676,BH,Bahrain,country,Middle East and North Africa,25.930414,50.637772,3184.96791452174,2000,22,0,0,22,0,0,0,0,0,0,0,0,0,0,0,0,0,0,0,0,0,0,0,0
SA,Saudi Arabia,country,Middle East and North Africa,23.885942,45.079162,BH,Bahrain,country,Middle East and North Africa,25.930414,50.637772,605.53414198214,2000,21209,600,1353,92,0,0,0,5444,4245,0,0,0,33,14,316,2455,0,399,6258,0,0,0,0,0
SG,Singapore,country,East Asia and Pacific,1.352083,103.819836,BH,Bahrain,country,Middle East and North Africa,25.930414,50.637772,6311.14368143857,2000,789,64,0,46,0,0,0,0,0,0,0,0,0,12,581,86,0,0,0,0,0,0,0,0
SB,Solomon Islands,country,East Asia and Pacific,-9.64571,160.156194,BH,Bahrain,country,Middle East and North Africa,25.930414,50.637772,12432.6537510443,2000,11,0,0,0,0,0,0,0,0,0,0,0,0,0,0,0,0,11,0,0,0,0,0,0
ZA,S. Africa,country,Sub-Saharan Africa,-30.559482,22.937506,BH,Bahrain,country,Middle East and North Africa,25.930414,50.637772,6946.09236733542,2000,1269,0,0,0,0,0,0,0,1238,0,0,0,0,0,0,31,0,0,0,0,0,0,0,0
ES,Spain,country,Europe and Central Asia,40.463667,-3.74922,BH,Bahrain,country,Middle East and North Africa,25.930414,50.637772,5230.1926553803,2000,549,23,0,12,0,0,171,0,219,0,0,0,22,0,102,0,0,0,0,0,0,0,0,0
LK,Sri Lanka,country,South Asia,7.873054,80.771797,BH,Bahrain,country,Middle East and North Africa,25.930414,50.637772,3769.8494022907,2000,382,0,0,0,0,0,235,101,14,0,0,0,32,0,0,0,0,0,0,0,0,0,0,0
SE,Sweden,country,Europe and Central Asia,60.128161,18.643501,BH,Bahrain,country,Middle East and North Africa,25.930414,50.637772,4521.60110942032,2000,16,0,0,0,0,0,0,0,0,0,0,0,9,0,0,7,0,0,0,0,0,0,0,0
CH,Switzerland,country,Europe and Central Asia,46.818188,8.227512,BH,Bahrain,country,Middle East and North Africa,25.930414,50.637772,4380.83896686645,2000,146,0,0,0,0,0,0,0,0,0,0,0,14,63,0,69,0,0,0,0,0,0,0,0
SY,Syrian Arab Rep.,country,Middle East and North Africa,34.802075,38.996815,BH,Bahrain,country,Middle East and North Africa,25.930414,50.637772,1489.72159634089,2000,4237,0,0,0,0,0,0,2352,1885,0,0,0,0,0,0,0,0,0,0,0,0,0,0,0
TH,Thailand,country,East Asia and Pacific,15.870032,100.992541,BH,Bahrain,country,Middle East and North Africa,25.930414,50.637772,5322.92984175989,2000,1555,862,0,0,0,0,0,0,538,0,141,0,0,14,0,0,0,0,0,0,0,0,0,0
TR,Turkey,country,Europe and Central Asia,38.963745,35.243322,BH,Bahrain,country,Middle East and North Africa,25.930414,50.637772,2042.73139678709,2000,389,90,0,96,0,0,0,64,0,0,0,0,52,23,0,0,0,0,64,0,0,0,0,0
AE,United Arab Emirates,country,Middle East and North Africa,23.424076,53.847818,BH,Bahrain,country,Middle East and North Africa,25.930414,50.637772,428.07152930609,2000,6815,933,0,399,0,36,0,135,110,0,0,2294,123,35,1222,856,0,120,552,0,0,0,0,0
GB,United Kingdom,country,Europe and Central Asia,55.378051,-3.435973,BH,Bahrain,country,Middle East and North Africa,25.930414,50.637772,5424.2630060903,2000,3805,418,0,1166,0,0,0,300,0,0,0,51,161,315,0,1340,0,0,54,0,0,0,0,0
US,USA,country,North America,37.09024,-95.712891,BH,Bahrain,country,Middle East and North Africa,25.930414,50.637772,12187.1930653907,2000,4348,77,155,0,56,80,192,104,1362,0,0,0,5,544,58,1063,0,637,15,0,0,0,0,0
YE,Yemen,country,Middle East and North Africa,15.552727,48.516388,BH,Bahrain,country,Middle East and North Africa,25.930414,50.637772,1176.077370226,2000,679,0,0,0,0,0,0,679,0,0,0,0,0,0,0,0,0,0,0,0,0,0,0,0
AF,Afghanistan,country,South Asia,33.93911,67.709953,BH,Bahrain,country,Middle East and North Africa,25.930414,50.637772,1869.04947053859,2001,0,0,0,0,0,0,0,0,0,0,0,0,0,0,0,0,0,0,0,0,0,0,0,0
AL,Albania,country,Europe and Central Asia,41.153332,20.168331,BH,Bahrain,country,Middle East and North Africa,25.930414,50.637772,3270.40992337311,2001,0,0,0,0,0,0,0,0,0,0,0,0,0,0,0,0,0,0,0,0,0,0,0,0
DZ,Algeria,country,Middle East and North Africa,28.033886,1.659626,BH,Bahrain,country,Middle East and North Africa,25.930414,50.637772,4831.66522143987,2001,1,0,0,0,1,0,0,0,0,0,0,0,0,0,0,0,0,0,0,0,0,0,0,0
AR,Argentina,country,Latin America and the Caribbean,-38.416097,-63.616672,BH,Bahrain,country,Middle East and North Africa,25.930414,50.637772,13818.8362922589,2001,12354,11982,0,44,13,6,0,0,109,0,0,0,0,0,174,1,0,25,0,0,0,0,0,0
AU,Australia,country,East Asia and Pacific,-25.274398,133.775136,BH,Bahrain,country,Middle East and North Africa,25.930414,50.637772,10590.5218068193,2001,45239,23060,2,78,1197,0,0,2781,721,7642,0,2633,69,51,76,4068,0,1350,1511,0,0,0,0,0
AT,Austria,country,Europe and Central Asia,47.516231,14.550072,BH,Bahrain,country,Middle East and North Africa,25.930414,50.637772,3960.57342845212,2001,631,44,0,1,0,0,0,0,44,0,2,0,2,38,0,370,0,0,130,0,0,0,0,0
BS,The Bahamas,country,Latin America and the Caribbean,25.03428,-77.39628,BH,Bahrain,country,Middle East and North Africa,25.930414,50.637772,12076.1621121249,2001,5,0,0,0,0,0,0,0,0,0,0,0,0,0,0,5,0,0,0,0,0,0,0,0
BD,Bangladesh,country,South Asia,23.684994,90.356331,BH,Bahrain,country,Middle East and North Africa,25.930414,50.637772,4006.10930653132,2001,891,5,0,0,1,1,0,849,30,0,1,0,1,2,1,0,0,0,0,0,0,0,0,0
BB,Barbados,country,Latin America and the Caribbean,13.193887,-59.543198,BH,Bahrain,country,Middle East and North Africa,25.930414,50.637772,11317.7437698801,2001,0,0,0,0,0,0,0,0,0,0,0,0,0,0,0,0,0,0,0,0,0,0,0,0
BE,Belgium,country,Europe and Central Asia,50.503887,4.469936,BH,Bahrain,country,Middle East and North Africa,25.930414,50.637772,4765.99314985988,2001,2393,160,756,30,0,0,2,528,129,0,0,37,36,23,333,233,0,18,108,0,0,0,0,0
BA,Bosnia & Herzegovina,country,Europe and Central Asia,43.915886,17.679076,BH,Bahrain,country,Middle East and North Africa,25.930414,50.637772,3576.3321853116,2001,1,0,0,1,0,0,0,0,0,0,0,0,0,0,0,0,0,0,0,0,0,0,0,0
BR,Brazil,country,Latin America and the Caribbean,-14.235004,-51.92528,BH,Bahrain,country,Middle East and North Africa,25.930414,50.637772,11942.9876181603,2001,15953,6,0,20,0,0,0,8,342,0,0,0,59,0,0,0,0,15518,0,0,0,0,0,0
BG,Bulgaria,country,Europe and Central Asia,42.733883,25.48583,BH,Bahrain,country,Middle East and North Africa,25.930414,50.637772,2953.74887647393,2001,22,7,0,0,0,0,0,15,0,0,0,0,0,0,0,0,0,0,0,0,0,0,0,0
CM,Cameroon,country,Sub-Saharan Africa,7.369722,12.354722,BH,Bahrain,country,Middle East and North Africa,25.930414,50.637772,4549.65572173838,2001,1,0,0,0,0,0,0,0,0,0,1,0,0,0,0,0,0,0,0,0,0,0,0,0
CA,Canada,country,North America,56.130366,-106.346771,BH,Bahrain,country,Middle East and North Africa,25.930414,50.637772,10646.2700877435,2001,2403,128,20,27,256,0,40,11,24,0,0,79,1,56,15,1638,0,10,98,0,0,0,0,0
CL,Chile,country,Latin America and the Caribbean,-35.675147,-71.542969,BH,Bahrain,country,Middle East and North Africa,25.930414,50.637772,14482.5031461214,2001,1366,0,0,0,0,0,0,15,1335,0,0,0,0,2,0,14,0,0,0,0,0,0,0,0
HK,Hong Kong,country,East Asia and Pacific,22.396428,114.109497,BH,Bahrain,country,Middle East and North Africa,25.930414,50.637772,6395.68679765839,2001,352,91,0,104,0,0,22,0,58,0,1,0,0,11,56,9,0,0,0,0,0,0,0,0
CN,China,country,East Asia and Pacific,35.86166,104.195397,BH,Bahrain,country,Middle East and North Africa,25.930414,50.637772,5169.6671302361,2001,5891,132,0,100,50,10,158,1934,569,0,961,2,7,114,0,0,0,1854,0,0,0,0,0,0
TW,Taiwan,country,East Asia and Pacific,23.69781,120.960515,BH,Bahrain,country,Middle East and North Africa,25.930414,50.637772,7019.95968944302,2001,9,1,0,0,0,0,0,0,0,0,0,0,0,0,8,0,0,0,0,0,0,0,0,0
CO,Colombia,country,Latin America and the Caribbean,4.570868,-74.297333,BH,Bahrain,country,Middle East and North Africa,25.930414,50.637772,13201.1830666897,2001,307,0,0,12,0,0,0,3,292,0,0,0,0,0,0,0,0,0,0,0,0,0,0,0
CR,Costa Rica,country,Latin America and the Caribbean,9.748917,-83.753428,BH,Bahrain,country,Middle East and North Africa,25.930414,50.637772,13702.6276236786,2001,9,0,0,0,0,0,0,0,0,0,0,0,9,0,0,0,0,0,0,0,0,0,0,0
CU,Cuba,country,Latin America and the Caribbean,21.521757,-77.781167,BH,Bahrain,country,Middle East and North Africa,25.930414,50.637772,12363.9638009838,2001,5,0,0,0,0,0,0,0,0,0,0,0,0,5,0,0,0,0,0,0,0,0,0,0
CY,Cyprus,country,Europe and Central Asia,35.126413,33.429859,BH,Bahrain,country,Middle East and North Africa,25.930414,50.637772,1937.33683044744,2001,531,185,0,7,0,0,0,10,251,0,0,0,1,6,50,0,0,1,20,0,0,0,0,0
CZ,Czech Republic,country,Europe and Central Asia,49.817492,15.472962,BH,Bahrain,country,Middle East and North Africa,25.930414,50.637772,4013.69492332002,2001,2,0,0,1,0,0,0,0,0,0,0,0,1,0,0,0,0,0,0,0,0,0,0,0
KP,"Korea, Dem. Rep.",country,East Asia and Pacific,40.339852,127.510093,BH,Bahrain,country,Middle East and North Africa,25.930414,50.637772,7121.77524254481,2001,11,0,0,0,0,0,0,11,0,0,0,0,0,0,0,0,0,0,0,0,0,0,0,0
CD,"Congo, Dem. Rep.",country,Sub-Saharan Africa,-4.038333,21.758664,BH,Bahrain,country,Middle East and North Africa,25.930414,50.637772,4563.84076429199,2001,0,0,0,0,0,0,0,0,0,0,0,0,0,0,0,0,0,0,0,0,0,0,0,0
DK,Denmark,country,Europe and Central Asia,56.26392,9.501785,BH,Bahrain,country,Middle East and North Africa,25.930414,50.637772,4707.12264620205,2001,6750,103,59,3,21,0,0,93,409,0,0,0,7,39,147,2747,0,1876,1246,0,0,0,0,0
DJ,Djibouti,country,Middle East and North Africa,11.825138,42.590275,BH,Bahrain,country,Middle East and North Africa,25.930414,50.637772,1782.97147403444,2001,3,0,0,0,0,0,0,0,0,0,0,0,3,0,0,0,0,0,0,0,0,0,0,0
DO,Dominican Republic,country,Latin America and the Caribbean,18.735693,-70.162651,BH,Bahrain,country,Middle East and North Africa,25.930414,50.637772,11933.0082560403,2001,1,0,0,0,0,0,0,0,0,0,0,0,0,1,0,0,0,0,0,0,0,0,0,0
EC,Ecuador,country,Latin America and the Caribbean,-1.831239,-78.183406,BH,Bahrain,country,Middle East and North Africa,25.930414,50.637772,13945.2692528572,2001,0,0,0,0,0,0,0,0,0,0,0,0,0,0,0,0,0,0,0,0,0,0,0,0
EG,Egypt,country,Middle East and North Africa,26.820553,30.802498,BH,Bahrain,country,Middle East and North Africa,25.930414,50.637772,1978.67867275917,2001,14096,220,379,14,12,0,9,5067,7704,0,3,0,33,621,0,2,0,23,9,0,0,0,0,0
EE,Estonia,country,Europe and Central Asia,58.595272,25.013607,BH,Bahrain,country,Middle East and North Africa,25.930414,50.637772,4149.27175195533,2001,15,0,0,0,0,0,0,15,0,0,0,0,0,0,0,0,0,0,0,0,0,0,0,0
FI,Finland,country,Europe and Central Asia,61.92411,25.748151,BH,Bahrain,country,Middle East and North Africa,25.930414,50.637772,4415.68902887708,2001,28,0,4,0,0,0,0,0,0,0,0,0,5,0,0,1,0,0,18,0,0,0,0,0
FR,France,country,Europe and Central Asia,46.227638,2.213749,BH,Bahrain,country,Middle East and North Africa,25.930414,50.637772,4812.22461506338,2001,8803,652,1,1682,0,0,5,43,980,126,0,147,76,147,406,2322,0,1367,849,0,0,0,0,0
DE,Germany,country,Europe and Central Asia,51.165691,10.451526,BH,Bahrain,country,Middle East and North Africa,25.930414,50.637772,4398.89929336211,2001,20170,588,0,16746,0,0,0,16,13,0,0,1,49,93,126,1158,14,118,1262,0,0,0,0,0
GR,Greece,country,Europe and Central Asia,39.074208,21.824312,BH,Bahrain,country,Middle East and North Africa,25.930414,50.637772,3056.40445539991,2001,715,293,0,28,0,0,11,136,120,0,0,0,53,59,0,14,0,0,1,0,0,0,0,0
GT,Guatemala,country,Latin America and the Caribbean,15.783471,-90.230759,BH,Bahrain,country,Middle East and North Africa,25.930414,50.637772,13751.2206424968,2001,156,0,0,0,12,0,0,0,34,0,91,0,19,0,0,0,0,0,0,0,0,0,0,0
HN,Honduras,country,Latin America and the Caribbean,15.199999,-86.241905,BH,Bahrain,country,Middle East and North Africa,25.930414,50.637772,13497.8479217346,2001,0,0,0,0,0,0,0,0,0,0,0,0,0,0,0,0,0,0,0,0,0,0,0,0
HU,Hungary,country,Europe and Central Asia,47.162494,19.503304,BH,Bahrain,country,Middle East and North Africa,25.930414,50.637772,3610.14659325193,2001,34,1,0,2,0,0,0,0,21,0,0,0,0,0,0,0,0,0,10,0,0,0,0,0
IS,Iceland,country,Europe and Central Asia,64.963051,-19.020835,BH,Bahrain,country,Middle East and North Africa,25.930414,50.637772,6467.26788957495,2001,129,4,0,0,0,0,0,0,0,0,0,0,6,0,1,0,0,0,118,0,0,0,0,0
IN,India,country,South Asia,20.593684,78.96288,BH,Bahrain,country,Middle East and North Africa,25.930414,50.637772,2950.89653763373,2001,68585,39649,14,95,2203,447,113,16455,2837,62,1085,264,537,51,210,880,0,2792,891,0,0,0,0,0
ID,Indonesia,country,East Asia and Pacific,-0.789275,113.921327,BH,Bahrain,country,Middle East and North Africa,25.930414,50.637772,7406.19687015959,2001,588,259,10,119,0,0,0,33,1,0,43,0,85,0,25,11,0,2,0,0,0,0,0,0
IR,Iran,country,Middle East and North Africa,32.427908,53.688046,BH,Bahrain,country,Middle East and North Africa,25.930414,50.637772,781.577810878677,2001,16565,515,83,161,343,531,21,5850,6653,0,420,477,41,687,79,0,0,91,613,0,0,0,0,0
IQ,Iraq,country,Middle East and North Africa,33.223191,43.679291,BH,Bahrain,country,Middle East and North Africa,25.930414,50.637772,1054.30800970143,2001,186,0,0,0,0,0,0,0,0,0,0,186,0,0,0,0,0,0,0,0,0,0,0,0
IE,Ireland,country,Europe and Central Asia,53.41291,-8.24389,BH,Bahrain,country,Middle East and North Africa,25.930414,50.637772,5686.95619860809,2001,1092,137,0,10,0,0,0,0,4,0,0,1,54,142,0,307,0,229,208,0,0,0,0,0
IT,Italy,country,Europe and Central Asia,41.87194,12.56738,BH,Bahrain,country,Middle East and North Africa,25.930414,50.637772,3897.07020063266,2001,2700,1243,36,24,1,0,0,170,315,125,0,95,225,106,68,212,0,0,80,0,0,0,0,0
JM,Jamaica,country,Latin America and the Caribbean,18.109581,-77.297508,BH,Bahrain,country,Middle East and North Africa,25.930414,50.637772,12571.0589703019,2001,7,0,0,0,0,0,0,0,0,0,0,0,0,0,0,7,0,0,0,0,0,0,0,0
JP,Japan,country,East Asia and Pacific,36.204824,138.252924,BH,Bahrain,country,Middle East and North Africa,25.930414,50.637772,8152.2247876635,2001,142,53,0,0,0,0,27,0,1,1,1,3,0,22,0,29,0,0,5,0,0,0,0,0
JO,Jordan,country,Middle East and North Africa,30.585164,36.238414,BH,Bahrain,country,Middle East and North Africa,25.930414,50.637772,1502.51476516878,2001,19979,5,1542,107,0,0,2,13148,4740,0,4,0,6,4,4,11,0,35,371,0,0,0,0,0
KE,Kenya,country,Sub-Saharan Africa,-0.023559,37.906193,BH,Bahrain,country,Middle East and North Africa,25.930414,50.637772,3196.35358244929,2001,404,0,0,18,0,0,0,1,363,0,0,0,1,1,0,0,0,20,0,0,0,0,0,0
KW,Kuwait,country,Middle East and North Africa,29.31166,47.481766,BH,Bahrain,country,Middle East and North Africa,25.930414,50.637772,488.38321363643,2001,4081,249,1,10,0,3,0,167,2545,0,1,0,8,0,60,390,0,79,568,0,0,0,0,0
LB,Lebanon,country,Middle East and North Africa,33.854721,35.862285,BH,Bahrain,country,Middle East and North Africa,25.930414,50.637772,1674.00311081791,2001,23975,39,452,45,0,0,0,2165,21099,0,1,0,27,41,60,9,0,0,37,0,0,0,0,0
LU,Luxembourg,country,Europe and Central Asia,49.815273,6.129583,BH,Bahrain,country,Middle East and North Africa,25.930414,50.637772,4629.87410272983,2001,26,1,0,0,0,0,0,0,0,0,0,0,0,0,0,24,0,0,1,0,0,0,0,0
MG,Madagascar,country,Sub-Saharan Africa,-18.766947,46.869107,BH,Bahrain,country,Middle East and North Africa,25.930414,50.637772,4992.36288182715,2001,4,0,0,0,1,0,0,0,0,0,3,0,0,0,0,0,0,0,0,0,0,0,0,0
MY,Malaysia,country,East Asia and Pacific,4.210484,101.975766,BH,Bahrain,country,Middle East and North Africa,25.930414,50.637772,5974.63414122088,2001,3861,684,40,72,0,13,14,444,243,0,3,0,111,361,1385,313,0,130,48,0,0,0,0,0
MT,Malta,country,Middle East and North Africa,35.937496,14.375416,BH,Bahrain,country,Middle East and North Africa,25.930414,50.637772,3613.54393195674,2001,266,23,0,0,0,0,0,0,160,0,0,0,0,82,0,1,0,0,0,0,0,0,0,0
MU,Mauritius,country,Sub-Saharan Africa,-20.348404,57.552152,BH,Bahrain,country,Middle East and North Africa,25.930414,50.637772,5205.63821787899,2001,4,0,0,4,0,0,0,0,0,0,0,0,0,0,0,0,0,0,0,0,0,0,0,0
MX,Mexico,country,Latin America and the Caribbean,23.634501,-102.552784,BH,Bahrain,country,Middle East and North Africa,25.930414,50.637772,13810.0377612059,2001,756,3,0,19,629,2,0,4,0,0,0,0,0,0,0,99,0,0,0,0,0,0,0,0
MA,Morocco,country,Middle East and North Africa,31.791702,-7.09262,BH,Bahrain,country,Middle East and North Africa,25.930414,50.637772,5601.68435293998,2001,157,0,0,0,0,0,0,4,111,0,0,0,0,0,0,0,0,0,42,0,0,0,0,0
NL,Netherlands,country,Europe and Central Asia,52.132633,5.291266,BH,Bahrain,country,Middle East and North Africa,25.930414,50.637772,4769.58515039393,2001,17727,376,1938,22,1,0,11,744,395,1,3,959,240,436,342,7545,0,391,4323,0,0,0,0,0
NZ,New Zealand,country,East Asia and Pacific,-40.900557,174.885971,BH,Bahrain,country,Middle East and North Africa,25.930414,50.637772,14691.83635407,2001,3207,7,0,1,22,0,0,173,430,0,0,16,0,0,19,372,0,1039,1128,0,0,0,0,0
NO,Norway,country,Europe and Central Asia,60.472024,8.468946,BH,Bahrain,country,Middle East and North Africa,25.930414,50.637772,4992.34012453848,2001,45,10,0,3,0,0,0,1,0,0,0,0,0,0,0,4,0,0,27,0,0,0,0,0
OM,Oman,country,Middle East and North Africa,21.512583,55.923255,BH,Bahrain,country,Middle East and North Africa,25.930414,50.637772,729.218079260173,2001,3293,1164,4,17,3,0,0,13,334,0,0,128,23,342,1086,19,0,17,143,0,0,0,0,0
PK,Pakistan,country,South Asia,30.375321,69.345116,BH,Bahrain,country,Middle East and North Africa,25.930414,50.637772,1899.02253268179,2001,32197,26183,0,2,32,15,9,1715,2416,922,176,464,5,15,20,2,0,204,17,0,0,0,0,0
PE,Peru,country,Latin America and the Caribbean,-9.189967,-75.015152,BH,Bahrain,country,Middle East and North Africa,25.930414,50.637772,14022.4479028169,2001,1,0,0,0,1,0,0,0,0,0,0,0,0,0,0,0,0,0,0,0,0,0,0,0
PH,Philippines,country,East Asia and Pacific,12.879721,121.774017,BH,Bahrain,country,Middle East and North Africa,25.930414,50.637772,7526.20003805579,2001,12747,147,0,13,0,1,15,45,12335,0,3,0,2,58,0,104,0,21,3,0,0,0,0,0
PL,Poland,country,Europe and Central Asia,51.919438,19.145136,BH,Bahrain,country,Middle East and North Africa,25.930414,50.637772,3918.07684320946,2001,398,5,96,5,0,0,0,0,11,0,0,0,81,0,0,0,0,0,200,0,0,0,0,0
PT,Portugal,country,Europe and Central Asia,39.399872,-8.224454,BH,Bahrain,country,Middle East and North Africa,25.930414,50.637772,5614.78994175236,2001,18,0,0,0,0,0,0,0,5,0,0,0,0,1,0,2,0,0,10,0,0,0,0,0
QA,Qatar,country,Middle East and North Africa,25.354826,51.183884,BH,Bahrain,country,Middle East and North Africa,25.930414,50.637772,84.3154243988478,2001,1129,42,0,0,0,0,0,1,0,0,0,0,0,35,26,1025,0,0,0,0,0,0,0,0
KR,"Korea, Rep.",country,East Asia and Pacific,35.907757,127.766922,BH,Bahrain,country,Middle East and North Africa,25.930414,50.637772,7263.20877220917,2001,47,10,0,20,0,0,0,4,4,0,1,0,0,0,0,2,0,1,0,5,0,0,0,0
RO,Romania,country,Europe and Central Asia,45.943161,24.96676,BH,Bahrain,country,Middle East and North Africa,25.930414,50.637772,3184.96791452174,2001,42,0,0,42,0,0,0,0,0,0,0,0,0,0,0,0,0,0,0,0,0,0,0,0
RU,Russian Federation,country,Europe and Central Asia,61.52401,105.318756,BH,Bahrain,country,Middle East and North Africa,25.930414,50.637772,5653.0360981805,2001,53,0,0,43,0,0,0,0,0,0,0,0,0,0,0,10,0,0,0,0,0,0,0,0
SA,Saudi Arabia,country,Middle East and North Africa,23.885942,45.079162,BH,Bahrain,country,Middle East and North Africa,25.930414,50.637772,605.53414198214,2001,94164,2505,4987,375,6,2,11,26656,18667,18,7,452,81,226,4826,8993,30,1343,25009,0,0,0,0,0
SG,Singapore,country,East Asia and Pacific,1.352083,103.819836,BH,Bahrain,country,Middle East and North Africa,25.930414,50.637772,6311.14368143857,2001,2402,219,0,209,21,7,2,1,0,17,1,0,7,96,1638,184,0,0,0,0,0,0,0,0
SO,Somalia,country,Sub-Saharan Africa,5.152149,46.199616,BH,Bahrain,country,Middle East and North Africa,25.930414,50.637772,2360.84204992522,2001,7,0,0,0,0,0,0,0,5,0,0,0,0,0,2,0,0,0,0,0,0,0,0,0
ZA,S. Africa,country,Sub-Saharan Africa,-30.559482,22.937506,BH,Bahrain,country,Middle East and North Africa,25.930414,50.637772,6946.09236733542,2001,6657,56,0,244,0,0,0,15,5931,0,2,124,37,0,15,205,0,28,0,0,0,0,0,0
ES,Spain,country,Europe and Central Asia,40.463667,-3.74922,BH,Bahrain,country,Middle East and North Africa,25.930414,50.637772,5230.1926553803,2001,2314,73,0,48,45,1,433,226,1199,0,1,8,57,6,195,15,0,0,7,0,0,0,0,0
LK,Sri Lanka,country,South Asia,7.873054,80.771797,BH,Bahrain,country,Middle East and North Africa,25.930414,50.637772,3769.8494022907,2001,1448,4,0,3,0,0,625,543,141,0,21,0,107,2,0,0,0,2,0,0,0,0,0,0
SD,Sudan,country,Sub-Saharan Africa,12.862807,30.217636,BH,Bahrain,country,Middle East and North Africa,25.930414,50.637772,2584.6734602416,2001,576,0,0,0,0,0,0,28,245,302,0,0,0,0,0,0,0,1,0,0,0,0,0,0
SE,Sweden,country,Europe and Central Asia,60.128161,18.643501,BH,Bahrain,country,Middle East and North Africa,25.930414,50.637772,4521.60110942032,2001,214,0,0,0,0,0,0,0,0,0,0,0,17,6,0,24,0,0,167,0,0,0,0,0
CH,Switzerland,country,Europe and Central Asia,46.818188,8.227512,BH,Bahrain,country,Middle East and North Africa,25.930414,50.637772,4380.83896686645,2001,1514,15,0,7,0,0,2,4,36,1016,7,0,81,125,3,213,0,0,5,0,0,0,0,0
SY,Syrian Arab Rep.,country,Middle East and North Africa,34.802075,38.996815,BH,Bahrain,country,Middle East and North Africa,25.930414,50.637772,1489.72159634089,2001,23602,1,283,9,137,12,1,9256,13831,0,51,4,1,0,9,0,0,0,7,0,0,0,0,0
TH,Thailand,country,East Asia and Pacific,15.870032,100.992541,BH,Bahrain,country,Middle East and North Africa,25.930414,50.637772,5322.92984175989,2001,4449,2513,48,67,2,0,5,270,1218,0,148,36,2,108,0,28,0,0,4,0,0,0,0,0
TN,Tunisia,country,Middle East and North Africa,33.886917,9.537499,BH,Bahrain,country,Middle East and North Africa,25.930414,50.637772,4035.92139588537,2001,217,0,0,0,0,0,0,0,60,0,1,0,0,134,22,0,0,0,0,0,0,0,0,0
TR,Turkey,country,Europe and Central Asia,38.963745,35.243322,BH,Bahrain,country,Middle East and North Africa,25.930414,50.637772,2042.73139678709,2001,1796,294,6,280,228,9,0,244,95,0,0,0,151,151,22,93,0,0,223,0,0,0,0,0
AE,United Arab Emirates,country,Middle East and North Africa,23.424076,53.847818,BH,Bahrain,country,Middle East and North Africa,25.930414,50.637772,428.07152930609,2001,22725,4209,0,3049,96,118,39,503,816,2,20,5321,368,424,2519,3120,0,408,1713,0,0,0,0,0
GB,United Kingdom,country,Europe and Central Asia,55.378051,-3.435973,BH,Bahrain,country,Middle East and North Africa,25.930414,50.637772,5424.2630060903,2001,13793,1984,17,4432,28,5,2,888,221,0,12,476,504,1224,35,3568,0,29,368,0,0,0,0,0
TZ,Tanzania,country,Sub-Saharan Africa,-6.369028,34.888822,BH,Bahrain,country,Middle East and North Africa,25.930414,50.637772,3978.13310458903,2001,1194,0,0,0,60,0,0,1,5,0,19,1095,0,14,0,0,0,0,0,0,0,0,0,0
US,USA,country,North America,37.09024,-95.712891,BH,Bahrain,country,Middle East and North Africa,25.930414,50.637772,12187.1930653907,2001,30366,11809,485,91,353,254,451,553,2440,6065,24,130,129,2268,243,3076,0,1856,139,0,0,0,0,0
VN,Vietnam,country,East Asia and Pacific,14.058324,108.277199,BH,Bahrain,country,Middle East and North Africa,25.930414,50.637772,6125.79634224043,2001,190,132,0,0,0,1,2,0,1,0,54,0,0,0,0,0,0,0,0,0,0,0,0,0
YE,Yemen,country,Middle East and North Africa,15.552727,48.516388,BH,Bahrain,country,Middle East and North Africa,25.930414,50.637772,1176.077370226,2001,885,0,0,0,0,0,0,851,0,0,0,0,0,2,0,0,0,0,32,0,0,0,0,0
ZW,Zimbabwe,country,Sub-Saharan Africa,-19.015438,29.154857,BH,Bahrain,country,Middle East and North Africa,25.930414,50.637772,5516.54368952925,2001,48,0,0,0,0,0,0,0,48,0,0,0,0,0,0,0,0,0,0,0,0,0,0,0
AF,Afghanistan,country,South Asia,33.93911,67.709953,BH,Bahrain,country,Middle East and North Africa,25.930414,50.637772,1869.04947053859,2002,1,0,0,0,0,0,0,0,0,0,0,0,0,1,0,0,0,0,0,0,0,0,0,0
AR,Argentina,country,Latin America and the Caribbean,-38.416097,-63.616672,BH,Bahrain,country,Middle East and North Africa,25.930414,50.637772,13818.8362922589,2002,14738,14282,0,81,13,0,2,0,21,0,0,0,10,1,290,38,0,0,0,0,0,0,0,0
AU,Australia,country,East Asia and Pacific,-25.274398,133.775136,BH,Bahrain,country,Middle East and North Africa,25.930414,50.637772,10590.5218068193,2002,15907,1124,1,10,891,2,17,2985,1281,495,0,1805,107,82,78,4061,0,1111,1857,0,0,0,0,0
AT,Austria,country,Europe and Central Asia,47.516231,14.550072,BH,Bahrain,country,Middle East and North Africa,25.930414,50.637772,3960.57342845212,2002,609,21,0,19,0,0,0,0,0,0,0,0,23,51,0,388,0,2,105,0,0,0,0,0
BS,The Bahamas,country,Latin America and the Caribbean,25.03428,-77.39628,BH,Bahrain,country,Middle East and North Africa,25.930414,50.637772,12076.1621121249,2002,17,0,0,0,0,0,0,0,0,0,0,0,0,0,0,17,0,0,0,0,0,0,0,0
BD,Bangladesh,country,South Asia,23.684994,90.356331,BH,Bahrain,country,Middle East and North Africa,25.930414,50.637772,4006.10930653132,2002,993,8,0,0,0,0,0,964,9,0,2,0,1,4,5,0,0,0,0,0,0,0,0,0
BE,Belgium,country,Europe and Central Asia,50.503887,4.469936,BH,Bahrain,country,Middle East and North Africa,25.930414,50.637772,4765.99314985988,2002,2291,244,724,320,0,0,2,491,89,0,0,91,30,29,5,179,0,52,35,0,0,0,0,0
BZ,Belize,country,Latin America and the Caribbean,17.189877,-88.49765,BH,Bahrain,country,Middle East and North Africa,25.930414,50.637772,13510.4426542713,2002,2,0,0,0,0,0,0,0,0,0,0,0,0,0,0,2,0,0,0,0,0,0,0,0
BM,Bermuda,country,North America,32.321384,-64.75737,BH,Bahrain,country,Middle East and North Africa,25.930414,50.637772,10607.1905228128,2002,0,0,0,0,0,0,0,0,0,0,0,0,0,0,0,0,0,0,0,0,0,0,0,0
BO,Bolivia,country,Latin America and the Caribbean,-16.290154,-63.588653,BH,Bahrain,country,Middle East and North Africa,25.930414,50.637772,13189.2994671379,2002,25,0,0,0,0,0,0,0,0,0,0,0,0,0,0,0,0,25,0,0,0,0,0,0
BR,Brazil,country,Latin America and the Caribbean,-14.235004,-51.92528,BH,Bahrain,country,Middle East and North Africa,25.930414,50.637772,11942.9876181603,2002,16277,1,0,2,2,0,0,3,520,0,7,0,2,0,1,0,0,15739,0,0,0,0,0,0
BG,Bulgaria,country,Europe and Central Asia,42.733883,25.48583,BH,Bahrain,country,Middle East and North Africa,25.930414,50.637772,2953.74887647393,2002,15,2,0,3,0,0,0,1,0,0,0,0,3,6,0,0,0,0,0,0,0,0,0,0
BF,Burkina Faso,country,Sub-Saharan Africa,12.238333,-1.561593,BH,Bahrain,country,Middle East and North Africa,25.930414,50.637772,5660.38710514202,2002,1797,0,0,0,0,0,0,0,0,1797,0,0,0,0,0,0,0,0,0,0,0,0,0,0
CA,Canada,country,North America,56.130366,-106.346771,BH,Bahrain,country,Middle East and North Africa,25.930414,50.637772,10646.2700877435,2002,20168,17986,19,11,177,0,14,18,15,0,1,68,0,44,27,1677,0,0,111,0,0,0,0,0
CL,Chile,country,Latin America and the Caribbean,-35.675147,-71.542969,BH,Bahrain,country,Middle East and North Africa,25.930414,50.637772,14482.5031461214,2002,1240,0,0,0,0,4,0,0,1214,0,0,0,0,0,0,22,0,0,0,0,0,0,0,0
HK,Hong Kong,country,East Asia and Pacific,22.396428,114.109497,BH,Bahrain,country,Middle East and North Africa,25.930414,50.637772,6395.68679765839,2002,168,14,38,31,0,0,22,0,0,0,0,0,3,18,15,27,0,0,0,0,0,0,0,0
CN,China,country,East Asia and Pacific,35.86166,104.195397,BH,Bahrain,country,Middle East and North Africa,25.930414,50.637772,5169.6671302361,2002,7369,160,0,104,53,4,175,2944,997,1,700,0,3,59,0,9,0,2160,0,0,0,0,0,0
TW,Taiwan,country,East Asia and Pacific,23.69781,120.960515,BH,Bahrain,country,Middle East and North Africa,25.930414,50.637772,7019.95968944302,2002,44,0,0,10,0,0,0,24,0,0,0,1,1,3,0,0,0,0,5,0,0,0,0,0
CO,Colombia,country,Latin America and the Caribbean,4.570868,-74.297333,BH,Bahrain,country,Middle East and North Africa,25.930414,50.637772,13201.1830666897,2002,38,0,0,12,0,0,0,0,23,0,0,0,1,2,0,0,0,0,0,0,0,0,0,0
CR,Costa Rica,country,Latin America and the Caribbean,9.748917,-83.753428,BH,Bahrain,country,Middle East and North Africa,25.930414,50.637772,13702.6276236786,2002,6,0,0,0,0,0,0,0,0,0,0,0,5,0,0,1,0,0,0,0,0,0,0,0
CU,Cuba,country,Latin America and the Caribbean,21.521757,-77.781167,BH,Bahrain,country,Middle East and North Africa,25.930414,50.637772,12363.9638009838,2002,7,0,0,0,0,0,0,0,0,0,0,0,0,7,0,0,0,0,0,0,0,0,0,0
CY,Cyprus,country,Europe and Central Asia,35.126413,33.429859,BH,Bahrain,country,Middle East and North Africa,25.930414,50.637772,1937.33683044744,2002,360,121,0,1,0,0,0,5,175,0,0,0,3,22,0,0,0,0,33,0,0,0,0,0
CZ,Czech Republic,country,Europe and Central Asia,49.817492,15.472962,BH,Bahrain,country,Middle East and North Africa,25.930414,50.637772,4013.69492332002,2002,16,0,0,0,0,0,0,0,0,0,0,0,0,0,0,0,0,0,16,0,0,0,0,0
KP,"Korea, Dem. Rep.",country,East Asia and Pacific,40.339852,127.510093,BH,Bahrain,country,Middle East and North Africa,25.930414,50.637772,7121.77524254481,2002,0,0,0,0,0,0,0,0,0,0,0,0,0,0,0,0,0,0,0,0,0,0,0,0
DK,Denmark,country,Europe and Central Asia,56.26392,9.501785,BH,Bahrain,country,Middle East and North Africa,25.930414,50.637772,4707.12264620205,2002,6688,60,130,4,0,0,0,31,443,0,0,0,26,35,107,3148,0,1371,1333,0,0,0,0,0
DO,Dominican Republic,country,Latin America and the Caribbean,18.735693,-70.162651,BH,Bahrain,country,Middle East and North Africa,25.930414,50.637772,11933.0082560403,2002,0,0,0,0,0,0,0,0,0,0,0,0,0,0,0,0,0,0,0,0,0,0,0,0
EC,Ecuador,country,Latin America and the Caribbean,-1.831239,-78.183406,BH,Bahrain,country,Middle East and North Africa,25.930414,50.637772,13945.2692528572,2002,0,0,0,0,0,0,0,0,0,0,0,0,0,0,0,0,0,0,0,0,0,0,0,0
EG,Egypt,country,Middle East and North Africa,26.820553,30.802498,BH,Bahrain,country,Middle East and North Africa,25.930414,50.637772,1978.67867275917,2002,25019,151,455,14,8,7,26,14318,9288,0,0,0,33,635,0,44,0,10,30,0,0,0,0,0
SV,El Salvador,country,Latin America and the Caribbean,13.794185,-88.89653,BH,Bahrain,country,Middle East and North Africa,25.930414,50.637772,13811.4156622269,2002,0,0,0,0,0,0,0,0,0,0,0,0,0,0,0,0,0,0,0,0,0,0,0,0
ET,Ethiopia,country,Sub-Saharan Africa,9.145,40.489673,BH,Bahrain,country,Middle East and North Africa,25.930414,50.637772,2154.21855629351,2002,0,0,0,0,0,0,0,0,0,0,0,0,0,0,0,0,0,0,0,0,0,0,0,0
FI,Finland,country,Europe and Central Asia,61.92411,25.748151,BH,Bahrain,country,Middle East and North Africa,25.930414,50.637772,4415.68902887708,2002,29,0,0,25,0,0,0,0,0,0,0,0,4,0,0,0,0,0,0,0,0,0,0,0
FR,France,country,Europe and Central Asia,46.227638,2.213749,BH,Bahrain,country,Middle East and North Africa,25.930414,50.637772,4812.22461506338,2002,8792,497,44,1135,1,0,16,102,1476,0,0,78,111,207,474,2789,0,1112,750,0,0,0,0,0
DE,Germany,country,Europe and Central Asia,51.165691,10.451526,BH,Bahrain,country,Middle East and North Africa,25.930414,50.637772,4398.89929336211,2002,11747,595,24,8067,0,0,0,4,34,0,1,1,118,112,93,1657,50,84,957,0,0,0,0,0
GR,Greece,country,Europe and Central Asia,39.074208,21.824312,BH,Bahrain,country,Middle East and North Africa,25.930414,50.637772,3056.40445539991,2002,864,339,0,220,0,2,0,151,80,0,0,0,48,9,15,0,0,0,0,0,0,0,0,0
GT,Guatemala,country,Latin America and the Caribbean,15.783471,-90.230759,BH,Bahrain,country,Middle East and North Africa,25.930414,50.637772,13751.2206424968,2002,103,0,0,0,0,0,0,0,35,0,68,0,0,0,0,0,0,0,0,0,0,0,0,0
HU,Hungary,country,Europe and Central Asia,47.162494,19.503304,BH,Bahrain,country,Middle East and North Africa,25.930414,50.637772,3610.14659325193,2002,71,1,0,0,0,0,4,45,0,0,0,0,13,0,0,0,0,0,8,0,0,0,0,0
IS,Iceland,country,Europe and Central Asia,64.963051,-19.020835,BH,Bahrain,country,Middle East and North Africa,25.930414,50.637772,6467.26788957495,2002,33,2,0,15,0,0,0,0,0,0,0,0,0,0,0,0,0,0,16,0,0,0,0,0
IN,India,country,South Asia,20.593684,78.96288,BH,Bahrain,country,Middle East and North Africa,25.930414,50.637772,2950.89653763373,2002,112596,54113,20,199,2080,422,5078,37061,5324,21,1168,11,624,54,123,1074,0,3996,1228,0,0,0,0,0
ID,Indonesia,country,East Asia and Pacific,-0.789275,113.921327,BH,Bahrain,country,Middle East and North Africa,25.930414,50.637772,7406.19687015959,2002,364,126,0,83,0,3,0,11,0,0,21,0,91,7,0,22,0,0,0,0,0,0,0,0
IR,Iran,country,Middle East and North Africa,32.427908,53.688046,BH,Bahrain,country,Middle East and North Africa,25.930414,50.637772,781.577810878677,2002,25854,378,46,156,360,561,9,10640,7904,0,380,351,20,746,100,3890,0,170,143,0,0,0,0,0
IE,Ireland,country,Europe and Central Asia,53.41291,-8.24389,BH,Bahrain,country,Middle East and North Africa,25.930414,50.637772,5686.95619860809,2002,1164,141,0,0,0,0,0,0,0,0,0,0,29,127,0,504,0,64,299,0,0,0,0,0
IT,Italy,country,Europe and Central Asia,41.87194,12.56738,BH,Bahrain,country,Middle East and North Africa,25.930414,50.637772,3897.07020063266,2002,2493,887,54,6,0,3,0,223,349,0,0,69,272,82,33,478,0,25,12,0,0,0,0,0
JM,Jamaica,country,Latin America and the Caribbean,18.109581,-77.297508,BH,Bahrain,country,Middle East and North Africa,25.930414,50.637772,12571.0589703019,2002,10,0,0,0,0,0,0,0,0,0,0,0,0,0,0,10,0,0,0,0,0,0,0,0
JP,Japan,country,East Asia and Pacific,36.204824,138.252924,BH,Bahrain,country,Middle East and North Africa,25.930414,50.637772,8152.2247876635,2002,298,127,0,1,0,0,38,5,0,1,1,0,5,93,2,25,0,0,0,0,0,0,0,0
JO,Jordan,country,Middle East and North Africa,30.585164,36.238414,BH,Bahrain,country,Middle East and North Africa,25.930414,50.637772,1502.51476516878,2002,17941,8,966,38,0,0,0,14826,1869,0,2,0,8,1,0,1,0,70,152,0,0,0,0,0
KZ,Kazakhstan,country,Europe and Central Asia,48.019573,66.923684,BH,Bahrain,country,Middle East and North Africa,25.930414,50.637772,2840.46335618034,2002,8800,8800,0,0,0,0,0,0,0,0,0,0,0,0,0,0,0,0,0,0,0,0,0,0
KE,Kenya,country,Sub-Saharan Africa,-0.023559,37.906193,BH,Bahrain,country,Middle East and North Africa,25.930414,50.637772,3196.35358244929,2002,406,0,0,26,0,0,0,24,326,0,0,0,0,0,0,0,0,30,0,0,0,0,0,0
KW,Kuwait,country,Middle East and North Africa,29.31166,47.481766,BH,Bahrain,country,Middle East and North Africa,25.930414,50.637772,488.38321363643,2002,4254,263,0,8,0,11,1,219,2903,0,0,0,13,0,23,111,0,64,638,0,0,0,0,0
LB,Lebanon,country,Middle East and North Africa,33.854721,35.862285,BH,Bahrain,country,Middle East and North Africa,25.930414,50.637772,1674.00311081791,2002,37320,55,689,79,0,5,1,1004,34859,0,1,0,33,47,81,15,0,1,450,0,0,0,0,0
LT,Lithuania,country,Europe and Central Asia,55.169438,23.881275,BH,Bahrain,country,Middle East and North Africa,25.930414,50.637772,3913.49762748535,2002,0,0,0,0,0,0,0,0,0,0,0,0,0,0,0,0,0,0,0,0,0,0,0,0
MW,Malawi,country,Sub-Saharan Africa,-13.254308,34.301525,BH,Bahrain,country,Middle East and North Africa,25.930414,50.637772,4707.47732513667,2002,3,0,0,3,0,0,0,0,0,0,0,0,0,0,0,0,0,0,0,0,0,0,0,0
MY,Malaysia,country,East Asia and Pacific,4.210484,101.975766,BH,Bahrain,country,Middle East and North Africa,25.930414,50.637772,5974.63414122088,2002,3758,684,28,51,17,1,96,326,188,0,0,29,144,534,1197,333,0,110,20,0,0,0,0,0
MV,Maldives,country,South Asia,3.202778,73.22068,BH,Bahrain,country,Middle East and North Africa,25.930414,50.637772,3496.01000234475,2002,16,0,0,0,0,0,0,0,0,0,0,0,0,16,0,0,0,0,0,0,0,0,0,0
MT,Malta,country,Middle East and North Africa,35.937496,14.375416,BH,Bahrain,country,Middle East and North Africa,25.930414,50.637772,3613.54393195674,2002,293,30,0,79,0,0,0,4,129,0,1,0,3,42,0,5,0,0,0,0,0,0,0,0
MU,Mauritius,country,Sub-Saharan Africa,-20.348404,57.552152,BH,Bahrain,country,Middle East and North Africa,25.930414,50.637772,5205.63821787899,2002,15,0,0,15,0,0,0,0,0,0,0,0,0,0,0,0,0,0,0,0,0,0,0,0
MX,Mexico,country,Latin America and the Caribbean,23.634501,-102.552784,BH,Bahrain,country,Middle East and North Africa,25.930414,50.637772,13810.0377612059,2002,889,0,0,28,549,0,0,42,0,0,0,0,0,0,0,270,0,0,0,0,0,0,0,0
MA,Morocco,country,Middle East and North Africa,31.791702,-7.09262,BH,Bahrain,country,Middle East and North Africa,25.930414,50.637772,5601.68435293998,2002,61,0,0,0,0,0,0,7,30,0,0,0,2,0,0,0,0,0,22,0,0,0,0,0
MZ,Mozambique,country,Sub-Saharan Africa,-18.665695,35.529562,BH,Bahrain,country,Middle East and North Africa,25.930414,50.637772,5226.55943804719,2002,0,0,0,0,0,0,0,0,0,0,0,0,0,0,0,0,0,0,0,0,0,0,0,0
MM,Myanmar,country,East Asia and Pacific,21.913965,95.956223,BH,Bahrain,country,Middle East and North Africa,25.930414,50.637772,4610.83829665254,2002,4,0,0,0,4,0,0,0,0,0,0,0,0,0,0,0,0,0,0,0,0,0,0,0
NP,Nepal,country,South Asia,28.394857,84.124008,BH,Bahrain,country,Middle East and North Africa,25.930414,50.637772,3317.36224363545,2002,262,0,0,0,0,0,0,0,0,260,0,0,0,0,0,0,0,2,0,0,0,0,0,0
NL,Netherlands,country,Europe and Central Asia,52.132633,5.291266,BH,Bahrain,country,Middle East and North Africa,25.930414,50.637772,4769.58515039393,2002,16206,359,2145,459,0,0,2,793,182,478,2,537,239,362,71,6856,0,181,3540,0,0,0,0,0
NZ,New Zealand,country,East Asia and Pacific,-40.900557,174.885971,BH,Bahrain,country,Middle East and North Africa,25.930414,50.637772,14691.83635407,2002,3589,3,0,2,0,0,0,120,570,0,0,0,6,0,0,339,0,869,1680,0,0,0,0,0
NO,Norway,country,Europe and Central Asia,60.472024,8.468946,BH,Bahrain,country,Middle East and North Africa,25.930414,50.637772,4992.34012453848,2002,61,18,0,0,0,0,0,0,0,0,0,0,13,0,0,5,0,0,25,0,0,0,0,0
OM,Oman,country,Middle East and North Africa,21.512583,55.923255,BH,Bahrain,country,Middle East and North Africa,25.930414,50.637772,729.218079260173,2002,4678,1471,0,20,0,0,0,34,935,0,7,446,15,476,958,54,0,0,262,0,0,0,0,0
PK,Pakistan,country,South Asia,30.375321,69.345116,BH,Bahrain,country,Middle East and North Africa,25.930414,50.637772,1899.02253268179,2002,34047,27910,16,16,19,14,2,1251,2863,1012,163,469,9,1,0,12,0,290,0,0,0,0,0,0
PG,Papua New Guinea,country,East Asia and Pacific,-6.314993,143.95555,BH,Bahrain,country,Middle East and North Africa,25.930414,50.637772,10656.5450190032,2002,0,0,0,0,0,0,0,0,0,0,0,0,0,0,0,0,0,0,0,0,0,0,0,0
PE,Peru,country,Latin America and the Caribbean,-9.189967,-75.015152,BH,Bahrain,country,Middle East and North Africa,25.930414,50.637772,14022.4479028169,2002,25,0,0,0,25,0,0,0,0,0,0,0,0,0,0,0,0,0,0,0,0,0,0,0
PH,Philippines,country,East Asia and Pacific,12.879721,121.774017,BH,Bahrain,country,Middle East and North Africa,25.930414,50.637772,7526.20003805579,2002,12077,101,0,7,0,2,24,3,11682,2,2,0,5,109,0,112,0,27,1,0,0,0,0,0
PL,Poland,country,Europe and Central Asia,51.919438,19.145136,BH,Bahrain,country,Middle East and North Africa,25.930414,50.637772,3918.07684320946,2002,352,8,201,5,0,0,0,2,8,0,0,0,83,0,0,0,0,0,45,0,0,0,0,0
PT,Portugal,country,Europe and Central Asia,39.399872,-8.224454,BH,Bahrain,country,Middle East and North Africa,25.930414,50.637772,5614.78994175236,2002,7,0,0,0,0,0,0,0,0,0,0,0,5,0,0,2,0,0,0,0,0,0,0,0
QA,Qatar,country,Middle East and North Africa,25.354826,51.183884,BH,Bahrain,country,Middle East and North Africa,25.930414,50.637772,84.3154243988478,2002,1578,81,0,0,3,0,0,0,1,0,0,60,1,0,0,1424,0,7,1,0,0,0,0,0
KR,"Korea, Rep.",country,East Asia and Pacific,35.907757,127.766922,BH,Bahrain,country,Middle East and North Africa,25.930414,50.637772,7263.20877220917,2002,84,16,0,45,0,0,1,1,0,0,0,0,0,14,0,6,0,1,0,0,0,0,0,0
RU,Russian Federation,country,Europe and Central Asia,61.52401,105.318756,BH,Bahrain,country,Middle East and North Africa,25.930414,50.637772,5653.0360981805,2002,21,0,0,10,0,0,0,0,0,0,0,0,0,0,0,11,0,0,0,0,0,0,0,0
SA,Saudi Arabia,country,Middle East and North Africa,23.885942,45.079162,BH,Bahrain,country,Middle East and North Africa,25.930414,50.637772,605.53414198214,2002,114735,3160,5256,303,22,7,14,33918,21426,0,6,744,139,289,8013,13867,95,1774,25797,0,0,0,0,0
RS,Serbia,country,Europe and Central Asia,44.016521,21.005859,BH,Bahrain,country,Middle East and North Africa,25.930414,50.637772,3339.7801733306,2002,14,0,0,0,0,0,0,0,0,0,0,0,0,0,0,14,0,0,0,0,0,0,0,0
SG,Singapore,country,East Asia and Pacific,1.352083,103.819836,BH,Bahrain,country,Middle East and North Africa,25.930414,50.637772,6311.14368143857,2002,2544,174,0,202,22,15,3,0,1,0,1,0,3,143,1753,191,0,0,36,0,0,0,0,0
SK,Slovak Rep.,country,Europe and Central Asia,48.669026,19.699024,BH,Bahrain,country,Middle East and North Africa,25.930414,50.637772,3684.03991054249,2002,0,0,0,0,0,0,0,0,0,0,0,0,0,0,0,0,0,0,0,0,0,0,0,0
SI,Slovenia,country,Europe and Central Asia,46.151241,14.995463,BH,Bahrain,country,Middle East and North Africa,25.930414,50.637772,3868.22193417741,2002,1,0,0,0,0,0,0,0,0,0,1,0,0,0,0,0,0,0,0,0,0,0,0,0
SB,Solomon Islands,country,East Asia and Pacific,-9.64571,160.156194,BH,Bahrain,country,Middle East and North Africa,25.930414,50.637772,12432.6537510443,2002,18,0,0,0,0,0,0,0,0,0,0,0,0,0,0,18,0,0,0,0,0,0,0,0
SO,Somalia,country,Sub-Saharan Africa,5.152149,46.199616,BH,Bahrain,country,Middle East and North Africa,25.930414,50.637772,2360.84204992522,2002,1,0,0,0,0,0,0,0,1,0,0,0,0,0,0,0,0,0,0,0,0,0,0,0
ZA,S. Africa,country,Sub-Saharan Africa,-30.559482,22.937506,BH,Bahrain,country,Middle East and North Africa,25.930414,50.637772,6946.09236733542,2002,9232,158,7,11,0,0,0,8,8531,0,1,22,54,65,0,313,0,61,1,0,0,0,0,0
ES,Spain,country,Europe and Central Asia,40.463667,-3.74922,BH,Bahrain,country,Middle East and North Africa,25.930414,50.637772,5230.1926553803,2002,1866,68,0,29,21,0,391,333,778,0,0,0,50,18,142,17,0,0,19,0,0,0,0,0
LK,Sri Lanka,country,South Asia,7.873054,80.771797,BH,Bahrain,country,Middle East and North Africa,25.930414,50.637772,3769.8494022907,2002,1027,3,0,4,0,0,133,655,28,0,21,0,160,19,0,0,0,2,2,0,0,0,0,0
SD,Sudan,country,Sub-Saharan Africa,12.862807,30.217636,BH,Bahrain,country,Middle East and North Africa,25.930414,50.637772,2584.6734602416,2002,340,0,0,0,2,3,0,52,283,0,0,0,0,0,0,0,0,0,0,0,0,0,0,0
SZ,Swaziland,country,Sub-Saharan Africa,-26.522503,31.465866,BH,Bahrain,country,Middle East and North Africa,25.930414,50.637772,6190.78117683438,2002,24,0,0,0,0,0,0,0,24,0,0,0,0,0,0,0,0,0,0,0,0,0,0,0
SE,Sweden,country,Europe and Central Asia,60.128161,18.643501,BH,Bahrain,country,Middle East and North Africa,25.930414,50.637772,4521.60110942032,2002,176,2,0,0,0,0,0,0,0,0,0,0,19,26,0,15,0,0,114,0,0,0,0,0
CH,Switzerland,country,Europe and Central Asia,46.818188,8.227512,BH,Bahrain,country,Middle East and North Africa,25.930414,50.637772,4380.83896686645,2002,1209,8,0,19,0,0,0,2,32,760,0,0,127,107,0,120,0,0,34,0,0,0,0,0
SY,Syrian Arab Rep.,country,Middle East and North Africa,34.802075,38.996815,BH,Bahrain,country,Middle East and North Africa,25.930414,50.637772,1489.72159634089,2002,19173,10,2,12,43,34,0,3079,15437,0,75,0,15,1,15,115,0,1,334,0,0,0,0,0
TJ,Tajikistan,country,Europe and Central Asia,38.861034,71.276093,BH,Bahrain,country,Middle East and North Africa,25.930414,50.637772,2405.81363390409,2002,250,0,0,0,0,0,0,0,0,250,0,0,0,0,0,0,0,0,0,0,0,0,0,0
TH,Thailand,country,East Asia and Pacific,15.870032,100.992541,BH,Bahrain,country,Middle East and North Africa,25.930414,50.637772,5322.92984175989,2002,4157,2390,188,86,10,1,31,369,725,0,167,27,1,116,0,43,0,0,3,0,0,0,0,0
TN,Tunisia,country,Middle East and North Africa,33.886917,9.537499,BH,Bahrain,country,Middle East and North Africa,25.930414,50.637772,4035.92139588537,2002,240,6,0,1,0,0,0,2,15,0,0,0,0,185,26,5,0,0,0,0,0,0,0,0
TR,Turkey,country,Europe and Central Asia,38.963745,35.243322,BH,Bahrain,country,Middle East and North Africa,25.930414,50.637772,2042.73139678709,2002,6770,188,0,390,118,13,0,535,4701,0,17,0,203,184,26,149,0,1,245,0,0,0,0,0
TM,Turkmenistan,country,Europe and Central Asia,38.969719,59.556278,BH,Bahrain,country,Middle East and North Africa,25.930414,50.637772,1673.8247102742,2002,260,0,0,0,0,0,0,0,0,260,0,0,0,0,0,0,0,0,0,0,0,0,0,0
UA,Ukraine,country,Europe and Central Asia,48.379433,31.16558,BH,Bahrain,country,Middle East and North Africa,25.930414,50.637772,3018.97284150557,2002,4,0,0,0,0,0,0,0,0,0,0,0,0,0,0,4,0,0,0,0,0,0,0,0
AE,United Arab Emirates,country,Middle East and North Africa,23.424076,53.847818,BH,Bahrain,country,Middle East and North Africa,25.930414,50.637772,428.07152930609,2002,31100,5538,20,7373,304,158,31,458,929,2,1,2932,503,501,3777,6333,0,473,1767,0,0,0,0,0
GB,United Kingdom,country,Europe and Central Asia,55.378051,-3.435973,BH,Bahrain,country,Middle East and North Africa,25.930414,50.637772,5424.2630060903,2002,12322,1522,25,2145,11,4,5,811,109,0,11,655,548,1188,58,4723,0,62,445,0,0,0,0,0
TZ,Tanzania,country,Sub-Saharan Africa,-6.369028,34.888822,BH,Bahrain,country,Middle East and North Africa,25.930414,50.637772,3978.13310458903,2002,57,0,0,0,41,0,2,0,0,0,14,0,0,0,0,0,0,0,0,0,0,0,0,0
US,USA,country,North America,37.09024,-95.712891,BH,Bahrain,country,Middle East and North Africa,25.930414,50.637772,12187.1930653907,2002,30553,5750,505,466,202,146,232,779,1394,12611,42,126,136,2004,310,3413,0,2312,125,0,0,0,0,0
UY,Uruguay,country,Latin America and the Caribbean,-32.522779,-55.765835,BH,Bahrain,country,Middle East and North Africa,25.930414,50.637772,12990.41693592,2002,28,0,0,0,0,0,0,0,0,0,0,0,0,0,0,0,0,28,0,0,0,0,0,0
VN,Vietnam,country,East Asia and Pacific,14.058324,108.277199,BH,Bahrain,country,Middle East and North Africa,25.930414,50.637772,6125.79634224043,2002,140,44,0,0,0,0,9,0,1,0,86,0,0,0,0,0,0,0,0,0,0,0,0,0
YE,Yemen,country,Middle East and North Africa,15.552727,48.516388,BH,Bahrain,country,Middle East and North Africa,25.930414,50.637772,1176.077370226,2002,75,0,0,2,0,0,0,22,0,0,0,0,0,0,0,0,0,0,51,0,0,0,0,0
ZW,Zimbabwe,country,Sub-Saharan Africa,-19.015438,29.154857,BH,Bahrain,country,Middle East and North Africa,25.930414,50.637772,5516.54368952925,2002,0,0,0,0,0,0,0,0,0,0,0,0,0,0,0,0,0,0,0,0,0,0,0,0
AF,Afghanistan,country,South Asia,33.93911,67.709953,BH,Bahrain,country,Middle East and North Africa,25.930414,50.637772,1869.04947053859,2003,0,0,0,0,0,0,0,0,0,0,0,0,0,0,0,0,0,0,0,0,0,0,0,0
AR,Argentina,country,Latin America and the Caribbean,-38.416097,-63.616672,BH,Bahrain,country,Middle East and North Africa,25.930414,50.637772,13818.8362922589,2003,1721,125,0,59,7,0,43,0,925,0,0,0,0,0,298,0,0,237,27,0,0,0,0,0
AU,Australia,country,East Asia and Pacific,-25.274398,133.775136,BH,Bahrain,country,Middle East and North Africa,25.930414,50.637772,10590.5218068193,2003,15244,999,5,125,1026,1,0,3002,890,0,0,1739,160,64,52,3481,0,708,2992,0,0,0,0,0
AT,Austria,country,Europe and Central Asia,47.516231,14.550072,BH,Bahrain,country,Middle East and North Africa,25.930414,50.637772,3960.57342845212,2003,790,45,0,0,53,1,0,0,66,0,0,0,13,18,0,423,0,1,170,0,0,0,0,0
BS,The Bahamas,country,Latin America and the Caribbean,25.03428,-77.39628,BH,Bahrain,country,Middle East and North Africa,25.930414,50.637772,12076.1621121249,2003,15,0,0,0,0,0,0,0,0,0,0,0,0,0,0,15,0,0,0,0,0,0,0,0
BD,Bangladesh,country,South Asia,23.684994,90.356331,BH,Bahrain,country,Middle East and North Africa,25.930414,50.637772,4006.10930653132,2003,997,11,0,0,0,0,0,952,27,0,2,0,1,2,2,0,0,0,0,0,0,0,0,0
BB,Barbados,country,Latin America and the Caribbean,13.193887,-59.543198,BH,Bahrain,country,Middle East and North Africa,25.930414,50.637772,11317.7437698801,2003,0,0,0,0,0,0,0,0,0,0,0,0,0,0,0,0,0,0,0,0,0,0,0,0
BE,Belgium,country,Europe and Central Asia,50.503887,4.469936,BH,Bahrain,country,Middle East and North Africa,25.930414,50.637772,4765.99314985988,2003,2252,326,713,29,0,0,2,474,193,0,0,112,42,49,5,278,0,1,28,0,0,0,0,0
BR,Brazil,country,Latin America and the Caribbean,-14.235004,-51.92528,BH,Bahrain,country,Middle East and North Africa,25.930414,50.637772,11942.9876181603,2003,21266,4728,0,266,12,0,0,3,792,0,0,0,0,0,0,0,0,15465,0,0,0,0,0,0
BG,Bulgaria,country,Europe and Central Asia,42.733883,25.48583,BH,Bahrain,country,Middle East and North Africa,25.930414,50.637772,2953.74887647393,2003,43,43,0,0,0,0,0,0,0,0,0,0,0,0,0,0,0,0,0,0,0,0,0,0
CA,Canada,country,North America,56.130366,-106.346771,BH,Bahrain,country,Middle East and North Africa,25.930414,50.637772,10646.2700877435,2003,2651,88,80,7,374,0,31,11,2,2,1,26,15,80,69,1782,0,0,83,0,0,0,0,0
CL,Chile,country,Latin America and the Caribbean,-35.675147,-71.542969,BH,Bahrain,country,Middle East and North Africa,25.930414,50.637772,14482.5031461214,2003,2282,0,0,0,0,0,0,10,2195,0,0,0,0,0,0,25,0,52,0,0,0,0,0,0
HK,Hong Kong,country,East Asia and Pacific,22.396428,114.109497,BH,Bahrain,country,Middle East and North Africa,25.930414,50.637772,6395.68679765839,2003,178,14,19,60,0,0,28,7,25,0,0,0,0,2,2,21,0,0,0,0,0,0,0,0
MO,"Macao SAR, China",country,East Asia and Pacific,22.198745,113.543873,BH,Bahrain,country,Middle East and North Africa,25.930414,50.637772,6346.63921510103,2003,3,0,0,0,0,0,0,3,0,0,0,0,0,0,0,0,0,0,0,0,0,0,0,0
CN,China,country,East Asia and Pacific,35.86166,104.195397,BH,Bahrain,country,Middle East and North Africa,25.930414,50.637772,5169.6671302361,2003,7572,88,64,148,58,191,133,2455,1498,6,762,1,5,39,1,2,0,2119,2,0,0,0,0,0
TW,Taiwan,country,East Asia and Pacific,23.69781,120.960515,BH,Bahrain,country,Middle East and North Africa,25.930414,50.637772,7019.95968944302,2003,15,3,0,0,0,0,0,7,0,0,0,0,0,1,0,4,0,0,0,0,0,0,0,0
CO,Colombia,country,Latin America and the Caribbean,4.570868,-74.297333,BH,Bahrain,country,Middle East and North Africa,25.930414,50.637772,13201.1830666897,2003,16,0,0,15,0,0,0,0,0,0,0,0,1,0,0,0,0,0,0,0,0,0,0,0
CR,Costa Rica,country,Latin America and the Caribbean,9.748917,-83.753428,BH,Bahrain,country,Middle East and North Africa,25.930414,50.637772,13702.6276236786,2003,12,0,0,0,0,0,0,0,0,0,0,0,12,0,0,0,0,0,0,0,0,0,0,0
CU,Cuba,country,Latin America and the Caribbean,21.521757,-77.781167,BH,Bahrain,country,Middle East and North Africa,25.930414,50.637772,12363.9638009838,2003,5,0,0,0,0,0,0,0,0,0,0,0,0,5,0,0,0,0,0,0,0,0,0,0
CY,Cyprus,country,Europe and Central Asia,35.126413,33.429859,BH,Bahrain,country,Middle East and North Africa,25.930414,50.637772,1937.33683044744,2003,281,123,0,1,0,0,0,2,100,0,0,0,16,0,0,0,0,1,38,0,0,0,0,0
CZ,Czech Republic,country,Europe and Central Asia,49.817492,15.472962,BH,Bahrain,country,Middle East and North Africa,25.930414,50.637772,4013.69492332002,2003,27,0,0,0,0,0,0,0,0,0,0,1,0,0,0,10,0,0,16,0,0,0,0,0
DK,Denmark,country,Europe and Central Asia,56.26392,9.501785,BH,Bahrain,country,Middle East and North Africa,25.930414,50.637772,4707.12264620205,2003,5996,70,39,33,0,0,0,62,396,0,0,0,85,41,107,3293,0,593,1277,0,0,0,0,0
DO,Dominican Republic,country,Latin America and the Caribbean,18.735693,-70.162651,BH,Bahrain,country,Middle East and North Africa,25.930414,50.637772,11933.0082560403,2003,2,0,0,0,0,0,0,0,0,0,0,0,0,2,0,0,0,0,0,0,0,0,0,0
EC,Ecuador,country,Latin America and the Caribbean,-1.831239,-78.183406,BH,Bahrain,country,Middle East and North Africa,25.930414,50.637772,13945.2692528572,2003,0,0,0,0,0,0,0,0,0,0,0,0,0,0,0,0,0,0,0,0,0,0,0,0
EG,Egypt,country,Middle East and North Africa,26.820553,30.802498,BH,Bahrain,country,Middle East and North Africa,25.930414,50.637772,1978.67867275917,2003,14105,75,330,25,2,4,16,8910,3724,198,0,0,32,606,0,38,0,36,109,0,0,0,0,0
FI,Finland,country,Europe and Central Asia,61.92411,25.748151,BH,Bahrain,country,Middle East and North Africa,25.930414,50.637772,4415.68902887708,2003,122,0,0,0,0,0,0,0,0,0,0,0,2,0,0,0,0,0,120,0,0,0,0,0
FR,France,country,Europe and Central Asia,46.227638,2.213749,BH,Bahrain,country,Middle East and North Africa,25.930414,50.637772,4812.22461506338,2003,7524,555,3,645,0,0,6,80,1081,399,0,25,85,199,422,2384,0,895,745,0,0,0,0,0
DE,Germany,country,Europe and Central Asia,51.165691,10.451526,BH,Bahrain,country,Middle East and North Africa,25.930414,50.637772,4398.89929336211,2003,13076,458,67,9295,0,0,0,3,37,0,0,15,77,80,100,1601,2,75,1268,0,0,0,0,0
GR,Greece,country,Europe and Central Asia,39.074208,21.824312,BH,Bahrain,country,Middle East and North Africa,25.930414,50.637772,3056.40445539991,2003,485,258,0,0,0,0,0,151,52,0,0,0,22,0,1,0,0,0,1,0,0,0,0,0
GT,Guatemala,country,Latin America and the Caribbean,15.783471,-90.230759,BH,Bahrain,country,Middle East and North Africa,25.930414,50.637772,13751.2206424968,2003,102,0,0,0,0,0,0,0,39,0,63,0,0,0,0,0,0,0,0,0,0,0,0,0
HU,Hungary,country,Europe and Central Asia,47.162494,19.503304,BH,Bahrain,country,Middle East and North Africa,25.930414,50.637772,3610.14659325193,2003,3,0,0,2,0,0,0,0,0,0,0,0,1,0,0,0,0,0,0,0,0,0,0,0
IS,Iceland,country,Europe and Central Asia,64.963051,-19.020835,BH,Bahrain,country,Middle East and North Africa,25.930414,50.637772,6467.26788957495,2003,27,2,0,0,0,0,0,0,0,0,0,0,0,0,0,0,0,25,0,0,0,0,0,0
IN,India,country,South Asia,20.593684,78.96288,BH,Bahrain,country,Middle East and North Africa,25.930414,50.637772,2950.89653763373,2003,66291,25743,90,258,2355,448,500,26561,3016,86,901,19,691,106,137,895,0,2922,1563,0,0,0,0,0
ID,Indonesia,country,East Asia and Pacific,-0.789275,113.921327,BH,Bahrain,country,Middle East and North Africa,25.930414,50.637772,7406.19687015959,2003,412,125,0,122,3,0,13,0,10,0,12,0,79,15,0,28,0,0,5,0,0,0,0,0
IR,Iran,country,Middle East and North Africa,32.427908,53.688046,BH,Bahrain,country,Middle East and North Africa,25.930414,50.637772,781.577810878677,2003,15069,498,12,185,216,326,17,6875,5352,0,229,144,14,682,72,272,0,0,175,0,0,0,0,0
IQ,Iraq,country,Middle East and North Africa,33.223191,43.679291,BH,Bahrain,country,Middle East and North Africa,25.930414,50.637772,1054.30800970143,2003,11,0,0,0,0,0,0,0,0,0,0,0,0,0,0,11,0,0,0,0,0,0,0,0
IE,Ireland,country,Europe and Central Asia,53.41291,-8.24389,BH,Bahrain,country,Middle East and North Africa,25.930414,50.637772,5686.95619860809,2003,950,134,0,2,0,0,0,0,0,0,0,34,63,153,0,327,0,186,51,0,0,0,0,0
IT,Italy,country,Europe and Central Asia,41.87194,12.56738,BH,Bahrain,country,Middle East and North Africa,25.930414,50.637772,3897.07020063266,2003,2518,772,14,12,1,0,20,280,470,5,0,1,206,160,19,542,0,0,16,0,0,0,0,0
JM,Jamaica,country,Latin America and the Caribbean,18.109581,-77.297508,BH,Bahrain,country,Middle East and North Africa,25.930414,50.637772,12571.0589703019,2003,6,0,0,0,0,0,0,0,0,0,0,0,0,0,0,6,0,0,0,0,0,0,0,0
JP,Japan,country,East Asia and Pacific,36.204824,138.252924,BH,Bahrain,country,Middle East and North Africa,25.930414,50.637772,8152.2247876635,2003,222,83,0,6,0,0,51,2,0,1,2,3,0,22,15,35,0,2,0,0,0,0,0,0
JO,Jordan,country,Middle East and North Africa,30.585164,36.238414,BH,Bahrain,country,Middle East and North Africa,25.930414,50.637772,1502.51476516878,2003,9281,8,121,39,0,0,3,7944,1064,0,3,0,12,16,2,3,0,18,48,0,0,0,0,0
KZ,Kazakhstan,country,Europe and Central Asia,48.019573,66.923684,BH,Bahrain,country,Middle East and North Africa,25.930414,50.637772,2840.46335618034,2003,9410,9410,0,0,0,0,0,0,0,0,0,0,0,0,0,0,0,0,0,0,0,0,0,0
KE,Kenya,country,Sub-Saharan Africa,-0.023559,37.906193,BH,Bahrain,country,Middle East and North Africa,25.930414,50.637772,3196.35358244929,2003,130,0,0,11,0,0,0,21,69,0,0,0,0,0,0,0,0,29,0,0,0,0,0,0
KW,Kuwait,country,Middle East and North Africa,29.31166,47.481766,BH,Bahrain,country,Middle East and North Africa,25.930414,50.637772,488.38321363643,2003,4361,376,9,0,0,7,0,196,2781,0,1,0,6,12,34,160,0,74,705,0,0,0,0,0
LB,Lebanon,country,Middle East and North Africa,33.854721,35.862285,BH,Bahrain,country,Middle East and North Africa,25.930414,50.637772,1674.00311081791,2003,17073,26,288,28,25,6,8,776,15174,0,3,0,44,59,40,6,0,1,589,0,0,0,0,0
LU,Luxembourg,country,Europe and Central Asia,49.815273,6.129583,BH,Bahrain,country,Middle East and North Africa,25.930414,50.637772,4629.87410272983,2003,108,0,0,108,0,0,0,0,0,0,0,0,0,0,0,0,0,0,0,0,0,0,0,0
MG,Madagascar,country,Sub-Saharan Africa,-18.766947,46.869107,BH,Bahrain,country,Middle East and North Africa,25.930414,50.637772,4992.36288182715,2003,1,0,0,0,0,0,0,0,0,0,1,0,0,0,0,0,0,0,0,0,0,0,0,0
MW,Malawi,country,Sub-Saharan Africa,-13.254308,34.301525,BH,Bahrain,country,Middle East and North Africa,25.930414,50.637772,4707.47732513667,2003,2,0,0,2,0,0,0,0,0,0,0,0,0,0,0,0,0,0,0,0,0,0,0,0
MY,Malaysia,country,East Asia and Pacific,4.210484,101.975766,BH,Bahrain,country,Middle East and North Africa,25.930414,50.637772,5974.63414122088,2003,4165,711,18,136,1,4,105,506,88,0,2,34,157,660,1292,235,0,89,127,0,0,0,0,0
MT,Malta,country,Middle East and North Africa,35.937496,14.375416,BH,Bahrain,country,Middle East and North Africa,25.930414,50.637772,3613.54393195674,2003,253,38,0,57,0,0,0,3,86,0,0,0,0,64,0,5,0,0,0,0,0,0,0,0
MU,Mauritius,country,Sub-Saharan Africa,-20.348404,57.552152,BH,Bahrain,country,Middle East and North Africa,25.930414,50.637772,5205.63821787899,2003,14,0,0,14,0,0,0,0,0,0,0,0,0,0,0,0,0,0,0,0,0,0,0,0
MX,Mexico,country,Latin America and the Caribbean,23.634501,-102.552784,BH,Bahrain,country,Middle East and North Africa,25.930414,50.637772,13810.0377612059,2003,669,0,0,19,420,0,0,17,0,0,2,0,0,0,0,211,0,0,0,0,0,0,0,0
MA,Morocco,country,Middle East and North Africa,31.791702,-7.09262,BH,Bahrain,country,Middle East and North Africa,25.930414,50.637772,5601.68435293998,2003,132,0,0,0,0,0,0,19,49,0,0,0,1,0,0,0,0,0,63,0,0,0,0,0
MZ,Mozambique,country,Sub-Saharan Africa,-18.665695,35.529562,BH,Bahrain,country,Middle East and North Africa,25.930414,50.637772,5226.55943804719,2003,5,0,0,5,0,0,0,0,0,0,0,0,0,0,0,0,0,0,0,0,0,0,0,0
MM,Myanmar,country,East Asia and Pacific,21.913965,95.956223,BH,Bahrain,country,Middle East and North Africa,25.930414,50.637772,4610.83829665254,2003,0,0,0,0,0,0,0,0,0,0,0,0,0,0,0,0,0,0,0,0,0,0,0,0
NL,Netherlands,country,Europe and Central Asia,52.132633,5.291266,BH,Bahrain,country,Middle East and North Africa,25.930414,50.637772,4769.58515039393,2003,14077,296,2434,21,0,0,2,858,176,0,0,246,269,203,25,6374,0,240,2933,0,0,0,0,0
NZ,New Zealand,country,East Asia and Pacific,-40.900557,174.885971,BH,Bahrain,country,Middle East and North Africa,25.930414,50.637772,14691.83635407,2003,3503,0,0,1,0,0,0,337,195,0,0,0,6,0,0,245,0,1242,1477,0,0,0,0,0
NE,Niger,country,Sub-Saharan Africa,17.607789,8.081666,BH,Bahrain,country,Middle East and North Africa,25.930414,50.637772,4476.01644083189,2003,1,0,0,0,0,0,0,0,0,0,1,0,0,0,0,0,0,0,0,0,0,0,0,0
NO,Norway,country,Europe and Central Asia,60.472024,8.468946,BH,Bahrain,country,Middle East and North Africa,25.930414,50.637772,4992.34012453848,2003,57,32,0,0,0,0,0,0,0,0,0,0,0,0,0,4,0,3,18,0,0,0,0,0
OM,Oman,country,Middle East and North Africa,21.512583,55.923255,BH,Bahrain,country,Middle East and North Africa,25.930414,50.637772,729.218079260173,2003,5785,1080,8,21,0,0,16,110,1342,0,1,1138,25,633,1134,32,0,0,245,0,0,0,0,0
PK,Pakistan,country,South Asia,30.375321,69.345116,BH,Bahrain,country,Middle East and North Africa,25.930414,50.637772,1899.02253268179,2003,36006,27974,1,26,51,11,12,843,3607,2391,176,655,1,8,17,9,0,224,0,0,0,0,0,0
PE,Peru,country,Latin America and the Caribbean,-9.189967,-75.015152,BH,Bahrain,country,Middle East and North Africa,25.930414,50.637772,14022.4479028169,2003,76,0,0,0,42,0,0,0,0,0,0,0,0,0,0,0,0,0,34,0,0,0,0,0
PH,Philippines,country,East Asia and Pacific,12.879721,121.774017,BH,Bahrain,country,Middle East and North Africa,25.930414,50.637772,7526.20003805579,2003,13568,214,0,2,0,3,21,6,13096,1,2,0,6,87,0,96,0,34,0,0,0,0,0,0
PL,Poland,country,Europe and Central Asia,51.919438,19.145136,BH,Bahrain,country,Middle East and North Africa,25.930414,50.637772,3918.07684320946,2003,218,13,38,32,0,0,0,0,0,0,0,0,96,0,0,0,0,0,39,0,0,0,0,0
PT,Portugal,country,Europe and Central Asia,39.399872,-8.224454,BH,Bahrain,country,Middle East and North Africa,25.930414,50.637772,5614.78994175236,2003,3,0,0,0,0,0,0,0,0,0,0,0,0,0,0,3,0,0,0,0,0,0,0,0
QA,Qatar,country,Middle East and North Africa,25.354826,51.183884,BH,Bahrain,country,Middle East and North Africa,25.930414,50.637772,84.3154243988478,2003,1706,90,10,0,0,0,0,0,0,0,0,518,0,0,0,1088,0,0,0,0,0,0,0,0
KR,"Korea, Rep.",country,East Asia and Pacific,35.907757,127.766922,BH,Bahrain,country,Middle East and North Africa,25.930414,50.637772,7263.20877220917,2003,82,10,0,44,0,0,1,1,0,0,3,0,1,18,0,4,0,0,0,0,0,0,0,0
RU,Russian Federation,country,Europe and Central Asia,61.52401,105.318756,BH,Bahrain,country,Middle East and North Africa,25.930414,50.637772,5653.0360981805,2003,10,0,0,1,0,0,0,0,0,0,0,0,0,0,0,9,0,0,0,0,0,0,0,0
SA,Saudi Arabia,country,Middle East and North Africa,23.885942,45.079162,BH,Bahrain,country,Middle East and North Africa,25.930414,50.637772,605.53414198214,2003,112077,4190,3273,3361,9,14,16,21963,22683,1250,21,1565,182,277,6841,16064,183,2123,28239,6,0,0,0,0
RS,Serbia,country,Europe and Central Asia,44.016521,21.005859,BH,Bahrain,country,Middle East and North Africa,25.930414,50.637772,3339.7801733306,2003,0,0,0,0,0,0,0,0,0,0,0,0,0,0,0,0,0,0,0,0,0,0,0,0
SG,Singapore,country,East Asia and Pacific,1.352083,103.819836,BH,Bahrain,country,Middle East and North Africa,25.930414,50.637772,6311.14368143857,2003,3135,302,0,152,0,13,5,4,20,901,0,0,2,300,1248,128,0,2,58,0,0,0,0,0
SO,Somalia,country,Sub-Saharan Africa,5.152149,46.199616,BH,Bahrain,country,Middle East and North Africa,25.930414,50.637772,2360.84204992522,2003,4,0,0,0,0,0,0,0,3,0,0,1,0,0,0,0,0,0,0,0,0,0,0,0
ZA,S. Africa,country,Sub-Saharan Africa,-30.559482,22.937506,BH,Bahrain,country,Middle East and North Africa,25.930414,50.637772,6946.09236733542,2003,10758,65,3,33,1,0,1,23,9712,363,14,12,82,15,0,379,0,54,1,0,0,0,0,0
ES,Spain,country,Europe and Central Asia,40.463667,-3.74922,BH,Bahrain,country,Middle East and North Africa,25.930414,50.637772,5230.1926553803,2003,1976,59,0,58,35,0,492,256,791,0,0,0,44,27,165,5,0,1,43,0,0,0,0,0
LK,Sri Lanka,country,South Asia,7.873054,80.771797,BH,Bahrain,country,Middle East and North Africa,25.930414,50.637772,3769.8494022907,2003,1658,5,0,0,5,1,556,804,117,0,2,0,154,12,0,0,0,0,2,0,0,0,0,0
SD,Sudan,country,Sub-Saharan Africa,12.862807,30.217636,BH,Bahrain,country,Middle East and North Africa,25.930414,50.637772,2584.6734602416,2003,218,0,0,0,0,0,0,92,119,0,0,0,0,0,0,0,0,7,0,0,0,0,0,0
SE,Sweden,country,Europe and Central Asia,60.128161,18.643501,BH,Bahrain,country,Middle East and North Africa,25.930414,50.637772,4521.60110942032,2003,96,10,0,0,0,0,0,1,0,0,0,0,11,2,0,52,0,0,20,0,0,0,0,0
CH,Switzerland,country,Europe and Central Asia,46.818188,8.227512,BH,Bahrain,country,Middle East and North Africa,25.930414,50.637772,4380.83896686645,2003,5961,26,0,4,0,0,0,4,54,5512,0,19,108,48,2,170,0,0,14,0,0,0,0,0
SY,Syrian Arab Rep.,country,Middle East and North Africa,34.802075,38.996815,BH,Bahrain,country,Middle East and North Africa,25.930414,50.637772,1489.72159634089,2003,12645,45,396,22,18,5,2,2691,9096,0,28,0,3,3,29,151,0,0,156,0,0,0,0,0
TJ,Tajikistan,country,Europe and Central Asia,38.861034,71.276093,BH,Bahrain,country,Middle East and North Africa,25.930414,50.637772,2405.81363390409,2003,101,0,0,0,0,0,0,0,0,101,0,0,0,0,0,0,0,0,0,0,0,0,0,0
TH,Thailand,country,East Asia and Pacific,15.870032,100.992541,BH,Bahrain,country,Middle East and North Africa,25.930414,50.637772,5322.92984175989,2003,4056,2254,31,212,13,0,5,382,710,0,92,18,8,197,0,83,0,50,1,0,0,0,0,0
TN,Tunisia,country,Middle East and North Africa,33.886917,9.537499,BH,Bahrain,country,Middle East and North Africa,25.930414,50.637772,4035.92139588537,2003,252,92,0,0,0,0,0,2,26,0,0,0,0,119,13,0,0,0,0,0,0,0,0,0
TR,Turkey,country,Europe and Central Asia,38.963745,35.243322,BH,Bahrain,country,Middle East and North Africa,25.930414,50.637772,2042.73139678709,2003,3923,295,12,381,171,3,0,415,1689,0,0,0,224,292,28,133,0,0,280,0,0,0,0,0
UA,Ukraine,country,Europe and Central Asia,48.379433,31.16558,BH,Bahrain,country,Middle East and North Africa,25.930414,50.637772,3018.97284150557,2003,20,0,0,0,0,0,0,0,0,0,0,20,0,0,0,0,0,0,0,0,0,0,0,0
AE,United Arab Emirates,country,Middle East and North Africa,23.424076,53.847818,BH,Bahrain,country,Middle East and North Africa,25.930414,50.637772,428.07152930609,2003,29954,4378,167,6737,110,112,43,543,581,0,1,4128,526,310,3745,6626,0,365,1582,0,0,0,0,0
GB,United Kingdom,country,Europe and Central Asia,55.378051,-3.435973,BH,Bahrain,country,Middle East and North Africa,25.930414,50.637772,5424.2630060903,2003,12198,1432,43,235,20,6,6,923,82,300,5,498,414,1041,85,5935,0,65,1108,0,0,0,0,0
TZ,Tanzania,country,Sub-Saharan Africa,-6.369028,34.888822,BH,Bahrain,country,Middle East and North Africa,25.930414,50.637772,3978.13310458903,2003,74,0,0,0,65,0,0,0,0,0,9,0,0,0,0,0,0,0,0,0,0,0,0,0
US,USA,country,North America,37.09024,-95.712891,BH,Bahrain,country,Middle East and North Africa,25.930414,50.637772,12187.1930653907,2003,16793,878,479,540,385,161,279,677,3632,3891,28,36,218,1964,176,1702,0,1636,111,0,0,0,0,0
UY,Uruguay,country,Latin America and the Caribbean,-32.522779,-55.765835,BH,Bahrain,country,Middle East and North Africa,25.930414,50.637772,12990.41693592,2003,1,0,0,0,1,0,0,0,0,0,0,0,0,0,0,0,0,0,0,0,0,0,0,0
VN,Vietnam,country,East Asia and Pacific,14.058324,108.277199,BH,Bahrain,country,Middle East and North Africa,25.930414,50.637772,6125.79634224043,2003,58,0,0,0,0,0,0,0,1,0,57,0,0,0,0,0,0,0,0,0,0,0,0,0
YE,Yemen,country,Middle East and North Africa,15.552727,48.516388,BH,Bahrain,country,Middle East and North Africa,25.930414,50.637772,1176.077370226,2003,196,0,0,0,0,0,0,0,0,0,0,0,0,0,0,0,0,0,196,0,0,0,0,0
AF,Afghanistan,country,South Asia,33.93911,67.709953,BH,Bahrain,country,Middle East and North Africa,25.930414,50.637772,1869.04947053859,2004,7,0,0,0,0,0,0,0,0,0,7,0,0,0,0,0,0,0,0,0,0,0,0,0
AR,Argentina,country,Latin America and the Caribbean,-38.416097,-63.616672,BH,Bahrain,country,Middle East and North Africa,25.930414,50.637772,13818.8362922589,2004,1534,89,0,77,4,0,6,0,803,0,0,0,9,0,418,1,0,50,77,0,0,0,0,0
AU,Australia,country,East Asia and Pacific,-25.274398,133.775136,BH,Bahrain,country,Middle East and North Africa,25.930414,50.637772,10590.5218068193,2004,21704,9313,23,197,1061,0,2,2804,993,0,0,1874,191,18,115,2728,0,289,2096,0,0,0,0,0
AT,Austria,country,Europe and Central Asia,47.516231,14.550072,BH,Bahrain,country,Middle East and North Africa,25.930414,50.637772,3960.57342845212,2004,1022,86,0,0,20,0,0,0,42,0,0,9,45,16,7,684,0,0,113,0,0,0,0,0
BS,The Bahamas,country,Latin America and the Caribbean,25.03428,-77.39628,BH,Bahrain,country,Middle East and North Africa,25.930414,50.637772,12076.1621121249,2004,14,0,0,0,0,0,0,0,0,0,0,0,0,0,0,14,0,0,0,0,0,0,0,0
BD,Bangladesh,country,South Asia,23.684994,90.356331,BH,Bahrain,country,Middle East and North Africa,25.930414,50.637772,4006.10930653132,2004,685,10,0,0,0,0,0,639,16,0,4,0,1,0,15,0,0,0,0,0,0,0,0,0
BE,Belgium,country,Europe and Central Asia,50.503887,4.469936,BH,Bahrain,country,Middle East and North Africa,25.930414,50.637772,4765.99314985988,2004,2665,265,686,296,0,0,0,431,50,286,0,81,34,25,1,497,0,0,13,0,0,0,0,0
BZ,Belize,country,Latin America and the Caribbean,17.189877,-88.49765,BH,Bahrain,country,Middle East and North Africa,25.930414,50.637772,13510.4426542713,2004,3,0,0,0,3,0,0,0,0,0,0,0,0,0,0,0,0,0,0,0,0,0,0,0
BR,Brazil,country,Latin America and the Caribbean,-14.235004,-51.92528,BH,Bahrain,country,Middle East and North Africa,25.930414,50.637772,11942.9876181603,2004,16085,14,0,105,8,0,0,0,699,0,7,0,15,0,0,0,0,15237,0,0,0,0,0,0
BG,Bulgaria,country,Europe and Central Asia,42.733883,25.48583,BH,Bahrain,country,Middle East and North Africa,25.930414,50.637772,2953.74887647393,2004,32,22,0,0,0,0,10,0,0,0,0,0,0,0,0,0,0,0,0,0,0,0,0,0
CA,Canada,country,North America,56.130366,-106.346771,BH,Bahrain,country,Middle East and North Africa,25.930414,50.637772,10646.2700877435,2004,2580,95,125,20,453,0,47,10,43,0,0,119,9,42,45,1496,0,3,73,0,0,0,0,0
CL,Chile,country,Latin America and the Caribbean,-35.675147,-71.542969,BH,Bahrain,country,Middle East and North Africa,25.930414,50.637772,14482.5031461214,2004,1922,0,0,0,0,0,0,0,1879,0,0,1,0,0,0,42,0,0,0,0,0,0,0,0
HK,Hong Kong,country,East Asia and Pacific,22.396428,114.109497,BH,Bahrain,country,Middle East and North Africa,25.930414,50.637772,6395.68679765839,2004,235,9,0,0,0,0,43,1,85,0,0,0,0,21,56,20,0,0,0,0,0,0,0,0
MO,"Macao SAR, China",country,East Asia and Pacific,22.198745,113.543873,BH,Bahrain,country,Middle East and North Africa,25.930414,50.637772,6346.63921510103,2004,0,0,0,0,0,0,0,0,0,0,0,0,0,0,0,0,0,0,0,0,0,0,0,0
CN,China,country,East Asia and Pacific,35.86166,104.195397,BH,Bahrain,country,Middle East and North Africa,25.930414,50.637772,5169.6671302361,2004,8037,132,9,129,35,161,115,2407,1141,11,582,6,27,57,23,76,0,3124,2,0,0,0,0,0
TW,Taiwan,country,East Asia and Pacific,23.69781,120.960515,BH,Bahrain,country,Middle East and North Africa,25.930414,50.637772,7019.95968944302,2004,2,0,0,0,0,0,0,0,2,0,0,0,0,0,0,0,0,0,0,0,0,0,0,0
CO,Colombia,country,Latin America and the Caribbean,4.570868,-74.297333,BH,Bahrain,country,Middle East and North Africa,25.930414,50.637772,13201.1830666897,2004,41,0,0,0,0,0,0,26,0,0,0,0,15,0,0,0,0,0,0,0,0,0,0,0
CR,Costa Rica,country,Latin America and the Caribbean,9.748917,-83.753428,BH,Bahrain,country,Middle East and North Africa,25.930414,50.637772,13702.6276236786,2004,0,0,0,0,0,0,0,0,0,0,0,0,0,0,0,0,0,0,0,0,0,0,0,0
HR,Croatia,country,Europe and Central Asia,45.1,15.2,BH,Bahrain,country,Middle East and North Africa,25.930414,50.637772,3808.61002698299,2004,4,0,0,0,0,0,0,0,0,0,0,4,0,0,0,0,0,0,0,0,0,0,0,0
CU,Cuba,country,Latin America and the Caribbean,21.521757,-77.781167,BH,Bahrain,country,Middle East and North Africa,25.930414,50.637772,12363.9638009838,2004,6,0,0,0,0,0,0,0,0,0,0,0,0,6,0,0,0,0,0,0,0,0,0,0
CY,Cyprus,country,Europe and Central Asia,35.126413,33.429859,BH,Bahrain,country,Middle East and North Africa,25.930414,50.637772,1937.33683044744,2004,180,117,0,1,0,0,0,5,32,0,0,0,0,0,0,3,0,0,22,0,0,0,0,0
CZ,Czech Republic,country,Europe and Central Asia,49.817492,15.472962,BH,Bahrain,country,Middle East and North Africa,25.930414,50.637772,4013.69492332002,2004,4,0,0,0,0,0,0,0,0,0,0,0,0,0,0,4,0,0,0,0,0,0,0,0
DK,Denmark,country,Europe and Central Asia,56.26392,9.501785,BH,Bahrain,country,Middle East and North Africa,25.930414,50.637772,4707.12264620205,2004,5805,63,170,6,0,0,0,109,462,0,0,0,24,29,124,3180,0,527,1111,0,0,0,0,0
DO,Dominican Republic,country,Latin America and the Caribbean,18.735693,-70.162651,BH,Bahrain,country,Middle East and North Africa,25.930414,50.637772,11933.0082560403,2004,0,0,0,0,0,0,0,0,0,0,0,0,0,0,0,0,0,0,0,0,0,0,0,0
EC,Ecuador,country,Latin America and the Caribbean,-1.831239,-78.183406,BH,Bahrain,country,Middle East and North Africa,25.930414,50.637772,13945.2692528572,2004,0,0,0,0,0,0,0,0,0,0,0,0,0,0,0,0,0,0,0,0,0,0,0,0
EG,Egypt,country,Middle East and North Africa,26.820553,30.802498,BH,Bahrain,country,Middle East and North Africa,25.930414,50.637772,1978.67867275917,2004,10053,116,370,22,6,21,13,4428,4228,0,0,0,31,662,0,0,0,22,134,0,0,0,0,0
ET,Ethiopia,country,Sub-Saharan Africa,9.145,40.489673,BH,Bahrain,country,Middle East and North Africa,25.930414,50.637772,2154.21855629351,2004,2,1,0,0,0,0,0,0,0,0,0,0,0,1,0,0,0,0,0,0,0,0,0,0
FI,Finland,country,Europe and Central Asia,61.92411,25.748151,BH,Bahrain,country,Middle East and North Africa,25.930414,50.637772,4415.68902887708,2004,195,0,0,0,0,0,0,0,0,0,0,0,5,0,0,3,0,0,187,0,0,0,0,0
FR,France,country,Europe and Central Asia,46.227638,2.213749,BH,Bahrain,country,Middle East and North Africa,25.930414,50.637772,4812.22461506338,2004,7251,661,84,69,6,0,1,97,823,1006,0,20,63,151,257,2355,0,872,786,0,0,0,0,0
DE,Germany,country,Europe and Central Asia,51.165691,10.451526,BH,Bahrain,country,Middle East and North Africa,25.930414,50.637772,4398.89929336211,2004,18417,455,362,14068,0,2,0,0,4,0,0,41,96,115,109,1795,0,13,1357,0,0,0,0,0
GR,Greece,country,Europe and Central Asia,39.074208,21.824312,BH,Bahrain,country,Middle East and North Africa,25.930414,50.637772,3056.40445539991,2004,377,187,0,10,0,0,0,123,37,0,0,0,19,1,0,0,0,0,0,0,0,0,0,0
GT,Guatemala,country,Latin America and the Caribbean,15.783471,-90.230759,BH,Bahrain,country,Middle East and North Africa,25.930414,50.637772,13751.2206424968,2004,152,0,0,0,0,0,0,1,70,0,77,0,4,0,0,0,0,0,0,0,0,0,0,0
HU,Hungary,country,Europe and Central Asia,47.162494,19.503304,BH,Bahrain,country,Middle East and North Africa,25.930414,50.637772,3610.14659325193,2004,4,0,0,0,0,0,0,0,0,0,0,0,2,0,0,0,0,0,2,0,0,0,0,0
IS,Iceland,country,Europe and Central Asia,64.963051,-19.020835,BH,Bahrain,country,Middle East and North Africa,25.930414,50.637772,6467.26788957495,2004,29,0,0,0,0,0,0,0,29,0,0,0,0,0,0,0,0,0,0,0,0,0,0,0
IN,India,country,South Asia,20.593684,78.96288,BH,Bahrain,country,Middle East and North Africa,25.930414,50.637772,2950.89653763373,2004,88924,49498,239,100,2484,481,3385,19668,3622,31,1220,0,536,173,135,1092,0,4178,2082,0,0,0,0,0
ID,Indonesia,country,East Asia and Pacific,-0.789275,113.921327,BH,Bahrain,country,Middle East and North Africa,25.930414,50.637772,7406.19687015959,2004,732,155,0,80,0,0,1,32,52,200,14,0,121,28,20,29,0,0,0,0,0,0,0,0
IR,Iran,country,Middle East and North Africa,32.427908,53.688046,BH,Bahrain,country,Middle East and North Africa,25.930414,50.637772,781.577810878677,2004,10018,359,110,149,129,305,6,5536,1833,14,195,0,11,1078,108,58,0,26,101,0,0,0,0,0
IQ,Iraq,country,Middle East and North Africa,33.223191,43.679291,BH,Bahrain,country,Middle East and North Africa,25.930414,50.637772,1054.30800970143,2004,21,0,0,0,0,0,0,0,21,0,0,0,0,0,0,0,0,0,0,0,0,0,0,0
IE,Ireland,country,Europe and Central Asia,53.41291,-8.24389,BH,Bahrain,country,Middle East and North Africa,25.930414,50.637772,5686.95619860809,2004,884,163,0,0,0,0,0,0,0,0,0,38,44,213,0,282,0,73,71,0,0,0,0,0
IT,Italy,country,Europe and Central Asia,41.87194,12.56738,BH,Bahrain,country,Middle East and North Africa,25.930414,50.637772,3897.07020063266,2004,3080,1196,0,4,3,1,1,228,537,0,2,0,227,174,25,637,0,25,20,0,0,0,0,0
JM,Jamaica,country,Latin America and the Caribbean,18.109581,-77.297508,BH,Bahrain,country,Middle East and North Africa,25.930414,50.637772,12571.0589703019,2004,1,0,0,0,0,0,0,0,0,0,0,0,0,0,0,1,0,0,0,0,0,0,0,0
JP,Japan,country,East Asia and Pacific,36.204824,138.252924,BH,Bahrain,country,Middle East and North Africa,25.930414,50.637772,8152.2247876635,2004,273,78,13,3,0,7,31,24,33,0,0,0,0,43,4,31,0,6,0,0,0,0,0,0
JO,Jordan,country,Middle East and North Africa,30.585164,36.238414,BH,Bahrain,country,Middle East and North Africa,25.930414,50.637772,1502.51476516878,2004,15951,17,435,12,1,0,1,13952,1415,0,5,0,2,18,22,20,0,37,14,0,0,0,0,0
KE,Kenya,country,Sub-Saharan Africa,-0.023559,37.906193,BH,Bahrain,country,Middle East and North Africa,25.930414,50.637772,3196.35358244929,2004,332,0,0,37,0,0,2,92,179,0,0,0,0,0,0,0,0,22,0,0,0,0,0,0
KW,Kuwait,country,Middle East and North Africa,29.31166,47.481766,BH,Bahrain,country,Middle East and North Africa,25.930414,50.637772,488.38321363643,2004,5428,445,0,12,0,7,0,263,3653,0,0,0,17,36,18,175,0,122,680,0,0,0,0,0
LB,Lebanon,country,Middle East and North Africa,33.854721,35.862285,BH,Bahrain,country,Middle East and North Africa,25.930414,50.637772,1674.00311081791,2004,7339,143,1462,61,0,17,8,1528,3593,0,0,4,38,36,10,65,0,1,373,0,0,0,0,0
LY,Libya,country,Middle East and North Africa,26.3351,17.228331,BH,Bahrain,country,Middle East and North Africa,25.930414,50.637772,3329.80410440983,2004,3,0,0,0,0,0,0,3,0,0,0,0,0,0,0,0,0,0,0,0,0,0,0,0
LU,Luxembourg,country,Europe and Central Asia,49.815273,6.129583,BH,Bahrain,country,Middle East and North Africa,25.930414,50.637772,4629.87410272983,2004,21,0,0,0,0,0,0,0,0,0,0,0,0,0,21,0,0,0,0,0,0,0,0,0
MY,Malaysia,country,East Asia and Pacific,4.210484,101.975766,BH,Bahrain,country,Middle East and North Africa,25.930414,50.637772,5974.63414122088,2004,4647,1003,0,341,5,1,42,455,103,0,2,26,188,684,998,234,0,442,123,0,0,0,0,0
MT,Malta,country,Middle East and North Africa,35.937496,14.375416,BH,Bahrain,country,Middle East and North Africa,25.930414,50.637772,3613.54393195674,2004,105,19,0,9,0,0,0,0,0,0,1,0,0,68,0,7,0,0,1,0,0,0,0,0
MR,Mauritania,country,Sub-Saharan Africa,21.00789,-10.940835,BH,Bahrain,country,Middle East and North Africa,25.930414,50.637772,6255.75012731986,2004,1,0,0,0,0,0,0,1,0,0,0,0,0,0,0,0,0,0,0,0,0,0,0,0
MU,Mauritius,country,Sub-Saharan Africa,-20.348404,57.552152,BH,Bahrain,country,Middle East and North Africa,25.930414,50.637772,5205.63821787899,2004,13,0,0,13,0,0,0,0,0,0,0,0,0,0,0,0,0,0,0,0,0,0,0,0
MX,Mexico,country,Latin America and the Caribbean,23.634501,-102.552784,BH,Bahrain,country,Middle East and North Africa,25.930414,50.637772,13810.0377612059,2004,454,0,0,12,151,0,0,0,0,0,0,0,11,5,0,275,0,0,0,0,0,0,0,0
MA,Morocco,country,Middle East and North Africa,31.791702,-7.09262,BH,Bahrain,country,Middle East and North Africa,25.930414,50.637772,5601.68435293998,2004,180,1,0,0,0,0,0,17,109,0,0,0,1,0,0,0,0,0,52,0,0,0,0,0
MM,Myanmar,country,East Asia and Pacific,21.913965,95.956223,BH,Bahrain,country,Middle East and North Africa,25.930414,50.637772,4610.83829665254,2004,4,0,0,0,4,0,0,0,0,0,0,0,0,0,0,0,0,0,0,0,0,0,0,0
NL,Netherlands,country,Europe and Central Asia,52.132633,5.291266,BH,Bahrain,country,Middle East and North Africa,25.930414,50.637772,4769.58515039393,2004,16032,803,2518,126,0,1,3,536,197,0,2,223,403,158,123,7507,0,280,3152,0,0,0,0,0
NZ,New Zealand,country,East Asia and Pacific,-40.900557,174.885971,BH,Bahrain,country,Middle East and North Africa,25.930414,50.637772,14691.83635407,2004,3926,0,0,4,0,0,0,288,353,0,0,0,8,4,0,305,0,579,2385,0,0,0,0,0
NO,Norway,country,Europe and Central Asia,60.472024,8.468946,BH,Bahrain,country,Middle East and North Africa,25.930414,50.637772,4992.34012453848,2004,77,17,0,0,0,0,0,2,0,0,0,0,0,1,0,33,0,0,24,0,0,0,0,0
OM,Oman,country,Middle East and North Africa,21.512583,55.923255,BH,Bahrain,country,Middle East and North Africa,25.930414,50.637772,729.218079260173,2004,3739,690,3,53,2,0,7,86,669,0,5,364,7,516,1017,4,0,5,311,0,0,0,0,0
PK,Pakistan,country,South Asia,30.375321,69.345116,BH,Bahrain,country,Middle East and North Africa,25.930414,50.637772,1899.02253268179,2004,36175,30478,16,22,87,19,36,268,3985,749,172,149,0,14,2,10,0,168,0,0,0,0,0,0
PE,Peru,country,Latin America and the Caribbean,-9.189967,-75.015152,BH,Bahrain,country,Middle East and North Africa,25.930414,50.637772,14022.4479028169,2004,381,0,0,0,25,0,0,0,0,0,1,0,2,0,0,0,0,0,353,0,0,0,0,0
PH,Philippines,country,East Asia and Pacific,12.879721,121.774017,BH,Bahrain,country,Middle East and North Africa,25.930414,50.637772,7526.20003805579,2004,11603,172,0,6,6,19,30,19,10985,0,1,0,4,152,1,125,0,53,30,0,0,0,0,0
PL,Poland,country,Europe and Central Asia,51.919438,19.145136,BH,Bahrain,country,Middle East and North Africa,25.930414,50.637772,3918.07684320946,2004,271,18,95,8,0,0,0,2,18,0,0,0,69,0,0,12,0,0,49,0,0,0,0,0
PT,Portugal,country,Europe and Central Asia,39.399872,-8.224454,BH,Bahrain,country,Middle East and North Africa,25.930414,50.637772,5614.78994175236,2004,120,6,0,0,0,0,0,59,0,0,0,0,0,9,0,46,0,0,0,0,0,0,0,0
QA,Qatar,country,Middle East and North Africa,25.354826,51.183884,BH,Bahrain,country,Middle East and North Africa,25.930414,50.637772,84.3154243988478,2004,246,122,25,0,0,0,0,0,0,0,0,84,1,1,0,0,0,0,13,0,0,0,0,0
KR,"Korea, Rep.",country,East Asia and Pacific,35.907757,127.766922,BH,Bahrain,country,Middle East and North Africa,25.930414,50.637772,7263.20877220917,2004,293,22,0,126,0,8,1,2,0,106,0,0,16,10,0,2,0,0,0,0,0,0,0,0
RO,Romania,country,Europe and Central Asia,45.943161,24.96676,BH,Bahrain,country,Middle East and North Africa,25.930414,50.637772,3184.96791452174,2004,2,0,0,0,0,0,0,0,0,0,0,0,0,0,0,0,0,0,2,0,0,0,0,0
RU,Russian Federation,country,Europe and Central Asia,61.52401,105.318756,BH,Bahrain,country,Middle East and North Africa,25.930414,50.637772,5653.0360981805,2004,16,0,0,1,0,0,0,0,0,0,0,0,1,1,0,13,0,0,0,0,0,0,0,0
SA,Saudi Arabia,country,Middle East and North Africa,23.885942,45.079162,BH,Bahrain,country,Middle East and North Africa,25.930414,50.637772,605.53414198214,2004,116119,3859,5933,2697,8,6,25,19491,18717,1074,4,4881,304,583,7439,18365,109,2566,30167,0,0,0,0,0
SG,Singapore,country,East Asia and Pacific,1.352083,103.819836,BH,Bahrain,country,Middle East and North Africa,25.930414,50.637772,6311.14368143857,2004,3137,192,0,0,0,22,22,4,8,1000,2,0,1,120,1518,141,0,0,107,0,0,0,0,0
SK,Slovak Rep.,country,Europe and Central Asia,48.669026,19.699024,BH,Bahrain,country,Middle East and North Africa,25.930414,50.637772,3684.03991054249,2004,1,0,0,0,0,0,0,1,0,0,0,0,0,0,0,0,0,0,0,0,0,0,0,0
SO,Somalia,country,Sub-Saharan Africa,5.152149,46.199616,BH,Bahrain,country,Middle East and North Africa,25.930414,50.637772,2360.84204992522,2004,12,0,0,0,0,0,0,10,1,0,0,1,0,0,0,0,0,0,0,0,0,0,0,0
ZA,S. Africa,country,Sub-Saharan Africa,-30.559482,22.937506,BH,Bahrain,country,Middle East and North Africa,25.930414,50.637772,6946.09236733542,2004,9674,109,3,17,0,0,0,14,9169,0,0,30,34,2,0,252,0,44,0,0,0,0,0,0
ES,Spain,country,Europe and Central Asia,40.463667,-3.74922,BH,Bahrain,country,Middle East and North Africa,25.930414,50.637772,5230.1926553803,2004,2437,76,24,26,18,0,453,222,1111,0,0,0,51,231,174,20,0,0,31,0,0,0,0,0
LK,Sri Lanka,country,South Asia,7.873054,80.771797,BH,Bahrain,country,Middle East and North Africa,25.930414,50.637772,3769.8494022907,2004,1527,7,1,0,0,0,518,760,125,0,7,0,79,29,0,0,0,0,1,0,0,0,0,0
SD,Sudan,country,Sub-Saharan Africa,12.862807,30.217636,BH,Bahrain,country,Middle East and North Africa,25.930414,50.637772,2584.6734602416,2004,176,0,0,0,0,0,0,110,31,0,0,0,0,0,0,0,0,35,0,0,0,0,0,0
SE,Sweden,country,Europe and Central Asia,60.128161,18.643501,BH,Bahrain,country,Middle East and North Africa,25.930414,50.637772,4521.60110942032,2004,113,1,0,0,0,0,0,0,0,0,0,0,26,1,1,44,0,0,40,0,0,0,0,0
CH,Switzerland,country,Europe and Central Asia,46.818188,8.227512,BH,Bahrain,country,Middle East and North Africa,25.930414,50.637772,4380.83896686645,2004,9130,32,0,11,0,0,0,3,41,2476,0,6000,104,153,0,310,0,0,0,0,0,0,0,0
SY,Syrian Arab Rep.,country,Middle East and North Africa,34.802075,38.996815,BH,Bahrain,country,Middle East and North Africa,25.930414,50.637772,1489.72159634089,2004,6316,53,463,32,146,21,41,4107,1343,0,18,0,15,13,41,3,0,0,20,0,0,0,0,0
TH,Thailand,country,East Asia and Pacific,15.870032,100.992541,BH,Bahrain,country,Middle East and North Africa,25.930414,50.637772,5322.92984175989,2004,4379,2729,60,87,6,0,8,418,604,0,42,118,27,203,20,57,0,0,0,0,0,0,0,0
TN,Tunisia,country,Middle East and North Africa,33.886917,9.537499,BH,Bahrain,country,Middle East and North Africa,25.930414,50.637772,4035.92139588537,2004,152,31,0,0,0,0,32,11,42,0,0,0,0,28,8,0,0,0,0,0,0,0,0,0
TR,Turkey,country,Europe and Central Asia,38.963745,35.243322,BH,Bahrain,country,Middle East and North Africa,25.930414,50.637772,2042.73139678709,2004,4456,216,88,329,235,5,0,1149,1362,0,3,0,270,226,87,175,0,1,310,0,0,0,0,0
AE,United Arab Emirates,country,Middle East and North Africa,23.424076,53.847818,BH,Bahrain,country,Middle East and North Africa,25.930414,50.637772,428.07152930609,2004,30775,3833,25,7240,88,86,39,628,607,0,0,3032,730,480,4620,7480,0,489,1398,0,0,0,0,0
GB,United Kingdom,country,Europe and Central Asia,55.378051,-3.435973,BH,Bahrain,country,Middle East and North Africa,25.930414,50.637772,5424.2630060903,2004,13335,1452,13,26,0,6,7,840,119,2,5,329,471,1238,48,7811,0,29,939,0,0,0,0,0
TZ,Tanzania,country,Sub-Saharan Africa,-6.369028,34.888822,BH,Bahrain,country,Middle East and North Africa,25.930414,50.637772,3978.13310458903,2004,39,0,0,0,33,0,0,0,1,0,5,0,0,0,0,0,0,0,0,0,0,0,0,0
US,USA,country,North America,37.09024,-95.712891,BH,Bahrain,country,Middle East and North Africa,25.930414,50.637772,12187.1930653907,2004,11445,768,815,440,112,134,127,460,1083,2233,26,57,208,1619,189,1753,0,1318,103,0,0,0,0,0
VN,Vietnam,country,East Asia and Pacific,14.058324,108.277199,BH,Bahrain,country,Middle East and North Africa,25.930414,50.637772,6125.79634224043,2004,150,67,0,0,0,0,2,0,0,0,81,0,0,0,0,0,0,0,0,0,0,0,0,0
YE,Yemen,country,Middle East and North Africa,15.552727,48.516388,BH,Bahrain,country,Middle East and North Africa,25.930414,50.637772,1176.077370226,2004,204,0,0,5,0,0,0,0,0,0,0,0,0,0,0,0,0,0,199,0,0,0,0,0
AF,Afghanistan,country,South Asia,33.93911,67.709953,BH,Bahrain,country,Middle East and North Africa,25.930414,50.637772,1869.04947053859,2005,6,0,0,0,0,0,0,1,0,0,4,0,1,0,0,0,0,0,0,0,0,0,0,0
AR,Argentina,country,Latin America and the Caribbean,-38.416097,-63.616672,BH,Bahrain,country,Middle East and North Africa,25.930414,50.637772,13818.8362922589,2005,42389,40480,0,79,5,0,71,2,900,0,0,0,0,1,337,0,0,437,77,0,0,0,0,0
AU,Australia,country,East Asia and Pacific,-25.274398,133.775136,BH,Bahrain,country,Middle East and North Africa,25.930414,50.637772,10590.5218068193,2005,40479,24668,64,174,1059,0,17,4402,1552,0,6,1777,135,38,147,4196,0,357,1887,0,0,0,0,0
AT,Austria,country,Europe and Central Asia,47.516231,14.550072,BH,Bahrain,country,Middle East and North Africa,25.930414,50.637772,3960.57342845212,2005,1044,24,0,0,0,0,0,17,26,0,0,0,103,3,0,817,0,0,54,0,0,0,0,0
BS,The Bahamas,country,Latin America and the Caribbean,25.03428,-77.39628,BH,Bahrain,country,Middle East and North Africa,25.930414,50.637772,12076.1621121249,2005,25,0,0,0,0,0,0,0,0,0,0,0,0,0,0,25,0,0,0,0,0,0,0,0
BD,Bangladesh,country,South Asia,23.684994,90.356331,BH,Bahrain,country,Middle East and North Africa,25.930414,50.637772,4006.10930653132,2005,960,30,0,7,0,8,1,893,5,0,9,0,1,0,6,0,0,0,0,0,0,0,0,0
BE,Belgium,country,Europe and Central Asia,50.503887,4.469936,BH,Bahrain,country,Middle East and North Africa,25.930414,50.637772,4765.99314985988,2005,2672,329,689,14,0,0,0,493,48,0,0,211,40,13,3,761,0,15,56,0,0,0,0,0
BZ,Belize,country,Latin America and the Caribbean,17.189877,-88.49765,BH,Bahrain,country,Middle East and North Africa,25.930414,50.637772,13510.4426542713,2005,13,0,0,0,13,0,0,0,0,0,0,0,0,0,0,0,0,0,0,0,0,0,0,0
BR,Brazil,country,Latin America and the Caribbean,-14.235004,-51.92528,BH,Bahrain,country,Middle East and North Africa,25.930414,50.637772,11942.9876181603,2005,21986,17,0,13,11,0,0,0,408,0,2,0,69,0,0,0,0,21466,0,0,0,0,0,0
BG,Bulgaria,country,Europe and Central Asia,42.733883,25.48583,BH,Bahrain,country,Middle East and North Africa,25.930414,50.637772,2953.74887647393,2005,72,0,0,0,0,0,0,0,0,0,0,57,3,0,0,0,0,2,10,0,0,0,0,0
KH,Cambodia,country,East Asia and Pacific,12.565679,104.990963,BH,Bahrain,country,Middle East and North Africa,25.930414,50.637772,5860.86737513105,2005,1,0,0,0,1,0,0,0,0,0,0,0,0,0,0,0,0,0,0,0,0,0,0,0
CA,Canada,country,North America,56.130366,-106.346771,BH,Bahrain,country,Middle East and North Africa,25.930414,50.637772,10646.2700877435,2005,7537,4529,146,3,535,7,21,15,21,0,0,170,18,38,29,1762,0,155,88,0,0,0,0,0
CL,Chile,country,Latin America and the Caribbean,-35.675147,-71.542969,BH,Bahrain,country,Middle East and North Africa,25.930414,50.637772,14482.5031461214,2005,2175,0,0,0,0,0,0,41,2117,0,0,0,0,0,0,17,0,0,0,0,0,0,0,0
HK,Hong Kong,country,East Asia and Pacific,22.396428,114.109497,BH,Bahrain,country,Middle East and North Africa,25.930414,50.637772,6395.68679765839,2005,209,27,0,0,0,0,44,29,2,1,0,0,0,35,21,16,0,1,33,0,0,0,0,0
MO,"Macao SAR, China",country,East Asia and Pacific,22.198745,113.543873,BH,Bahrain,country,Middle East and North Africa,25.930414,50.637772,6346.63921510103,2005,3,0,0,0,0,0,0,3,0,0,0,0,0,0,0,0,0,0,0,0,0,0,0,0
CN,China,country,East Asia and Pacific,35.86166,104.195397,BH,Bahrain,country,Middle East and North Africa,25.930414,50.637772,5169.6671302361,2005,12664,386,8,196,34,727,143,3791,1698,36,1408,25,54,80,1,31,0,4043,3,0,0,0,0,0
TW,Taiwan,country,East Asia and Pacific,23.69781,120.960515,BH,Bahrain,country,Middle East and North Africa,25.930414,50.637772,7019.95968944302,2005,12,0,0,0,0,0,0,0,5,0,0,0,0,7,0,0,0,0,0,0,0,0,0,0
CO,Colombia,country,Latin America and the Caribbean,4.570868,-74.297333,BH,Bahrain,country,Middle East and North Africa,25.930414,50.637772,13201.1830666897,2005,21,0,0,18,0,0,0,0,0,0,0,0,3,0,0,0,0,0,0,0,0,0,0,0
CU,Cuba,country,Latin America and the Caribbean,21.521757,-77.781167,BH,Bahrain,country,Middle East and North Africa,25.930414,50.637772,12363.9638009838,2005,5,0,0,0,0,0,0,0,0,0,0,0,0,3,0,2,0,0,0,0,0,0,0,0
CY,Cyprus,country,Europe and Central Asia,35.126413,33.429859,BH,Bahrain,country,Middle East and North Africa,25.930414,50.637772,1937.33683044744,2005,568,151,0,1,0,0,0,0,309,0,0,0,16,5,45,0,0,0,41,0,0,0,0,0
CZ,Czech Republic,country,Europe and Central Asia,49.817492,15.472962,BH,Bahrain,country,Middle East and North Africa,25.930414,50.637772,4013.69492332002,2005,63,14,0,0,0,0,0,0,21,0,0,0,0,0,0,0,0,28,0,0,0,0,0,0
DK,Denmark,country,Europe and Central Asia,56.26392,9.501785,BH,Bahrain,country,Middle East and North Africa,25.930414,50.637772,4707.12264620205,2005,6133,31,186,305,22,0,0,207,637,0,0,0,27,45,53,2780,0,527,1313,0,0,0,0,0
DO,Dominican Republic,country,Latin America and the Caribbean,18.735693,-70.162651,BH,Bahrain,country,Middle East and North Africa,25.930414,50.637772,11933.0082560403,2005,0,0,0,0,0,0,0,0,0,0,0,0,0,0,0,0,0,0,0,0,0,0,0,0
EC,Ecuador,country,Latin America and the Caribbean,-1.831239,-78.183406,BH,Bahrain,country,Middle East and North Africa,25.930414,50.637772,13945.2692528572,2005,10,0,0,4,0,0,0,0,6,0,0,0,0,0,0,0,0,0,0,0,0,0,0,0
EG,Egypt,country,Middle East and North Africa,26.820553,30.802498,BH,Bahrain,country,Middle East and North Africa,25.930414,50.637772,1978.67867275917,2005,18770,136,467,30,5,20,57,8383,8078,270,2,0,44,811,0,12,0,78,377,0,0,0,0,0
ET,Ethiopia,country,Sub-Saharan Africa,9.145,40.489673,BH,Bahrain,country,Middle East and North Africa,25.930414,50.637772,2154.21855629351,2005,16,12,0,0,3,0,0,0,0,0,1,0,0,0,0,0,0,0,0,0,0,0,0,0
FI,Finland,country,Europe and Central Asia,61.92411,25.748151,BH,Bahrain,country,Middle East and North Africa,25.930414,50.637772,4415.68902887708,2005,212,0,0,0,0,0,0,0,0,0,0,0,6,0,0,1,0,0,205,0,0,0,0,0
FR,France,country,Europe and Central Asia,46.227638,2.213749,BH,Bahrain,country,Middle East and North Africa,25.930414,50.637772,4812.22461506338,2005,9169,629,77,463,0,2,2,253,1199,1009,0,24,19,185,387,2955,1,1190,775,0,0,0,0,0
DE,Germany,country,Europe and Central Asia,51.165691,10.451526,BH,Bahrain,country,Middle East and North Africa,25.930414,50.637772,4398.89929336211,2005,24524,479,40,20152,0,1,0,50,12,0,0,164,128,76,124,2158,0,21,1119,0,0,0,0,0
GR,Greece,country,Europe and Central Asia,39.074208,21.824312,BH,Bahrain,country,Middle East and North Africa,25.930414,50.637772,3056.40445539991,2005,307,155,0,0,0,0,0,2,95,0,0,2,37,6,6,1,0,0,3,0,0,0,0,0
GD,Grenada,country,Latin America and the Caribbean,12.262776,-61.604171,BH,Bahrain,country,Middle East and North Africa,25.930414,50.637772,11563.0747485331,2005,0,0,0,0,0,0,0,0,0,0,0,0,0,0,0,0,0,0,0,0,0,0,0,0
GT,Guatemala,country,Latin America and the Caribbean,15.783471,-90.230759,BH,Bahrain,country,Middle East and North Africa,25.930414,50.637772,13751.2206424968,2005,168,0,0,0,0,0,0,0,72,0,84,0,12,0,0,0,0,0,0,0,0,0,0,0
HU,Hungary,country,Europe and Central Asia,47.162494,19.503304,BH,Bahrain,country,Middle East and North Africa,25.930414,50.637772,3610.14659325193,2005,6,1,0,0,0,0,0,0,0,0,0,0,0,0,0,2,0,0,3,0,0,0,0,0
IS,Iceland,country,Europe and Central Asia,64.963051,-19.020835,BH,Bahrain,country,Middle East and North Africa,25.930414,50.637772,6467.26788957495,2005,22,0,0,0,0,0,0,0,0,0,0,1,0,1,0,0,0,0,20,0,0,0,0,0
IN,India,country,South Asia,20.593684,78.96288,BH,Bahrain,country,Middle East and North Africa,25.930414,50.637772,2950.89653763373,2005,53906,16447,61,215,3417,527,857,17229,4272,58,1524,31,602,170,148,1424,0,4496,2428,0,0,0,0,0
ID,Indonesia,country,East Asia and Pacific,-0.789275,113.921327,BH,Bahrain,country,Middle East and North Africa,25.930414,50.637772,7406.19687015959,2005,1247,242,0,66,0,1,26,3,71,500,11,0,138,114,41,34,0,0,0,0,0,0,0,0
IR,Iran,country,Middle East and North Africa,32.427908,53.688046,BH,Bahrain,country,Middle East and North Africa,25.930414,50.637772,781.577810878677,2005,14425,194,255,124,564,366,10,6253,3825,12,419,1331,8,916,31,36,0,2,79,0,0,0,0,0
IE,Ireland,country,Europe and Central Asia,53.41291,-8.24389,BH,Bahrain,country,Middle East and North Africa,25.930414,50.637772,5686.95619860809,2005,1189,185,3,0,0,0,0,0,0,0,0,19,31,261,0,330,0,0,360,0,0,0,0,0
