sourceCode,sourceName,sourceGrouping,sourceRegion,sourceLat,sourceLong,destCode,destName,destGrouping,destRegion,destLat,destLong,distance,year,totalTons,cereals,roots,sugarCrops,pulses,nuts,oilCrops,vegetables,fruits,fibers,spices,fodderCrops,coffeeTea,tobaccoRubber,oilsFats,beverages,livestock,animalMeats,animalProducts,animalHides,nimalOther,pesticides,fertilizers,machinery
DZ,Algeria,country,Middle East and North Africa,28.033886,1.659626,GP,Guadeloupe,country,Latin America and the Caribbean,16.995971,-62.067641,6597.66121886657,1986,19,0,0,0,0,0,0,0,0,0,0,0,0,0,0,19,0,0,0,0,0,0,0,0
AO,Angola,country,Sub-Saharan Africa,-11.202692,17.873887,GP,Guadeloupe,country,Latin America and the Caribbean,16.995971,-62.067641,9334.6402811809,1986,12,0,0,0,12,0,0,0,0,0,0,0,0,0,0,0,0,0,0,0,0,0,0,0
AR,Argentina,country,Latin America and the Caribbean,-38.416097,-63.616672,GP,Guadeloupe,country,Latin America and the Caribbean,16.995971,-62.067641,6170.56439943012,1986,279,0,0,0,7,1,0,121,8,0,0,0,0,0,0,0,0,142,0,0,0,0,0,0
AU,Australia,country,East Asia and Pacific,-25.274398,133.775136,GP,Guadeloupe,country,Latin America and the Caribbean,16.995971,-62.067641,18154.3964808916,1986,7,0,0,0,0,0,0,0,5,0,0,0,0,0,0,0,0,2,0,0,0,0,0,0
BB,Barbados,country,Latin America and the Caribbean,13.193887,-59.543198,GP,Guadeloupe,country,Latin America and the Caribbean,16.995971,-62.067641,502.712483869139,1986,45,0,6,0,0,0,0,0,33,0,0,0,0,6,0,0,0,0,0,0,0,0,0,0
BE,Belgium,country,Europe and Central Asia,50.503887,4.469936,GP,Guadeloupe,country,Latin America and the Caribbean,16.995971,-62.067641,6914.35191690583,1986,1577,152,36,4,10,0,0,51,158,0,0,0,2,22,103,750,0,289,0,0,0,0,0,0
BW,Botswana,country,Sub-Saharan Africa,-22.328474,24.684866,GP,Guadeloupe,country,Latin America and the Caribbean,16.995971,-62.067641,10407.6668475724,1986,20,0,0,0,0,0,0,0,0,0,0,0,0,0,0,0,0,20,0,0,0,0,0,0
BR,Brazil,country,Latin America and the Caribbean,-14.235004,-51.92528,GP,Guadeloupe,country,Latin America and the Caribbean,16.995971,-62.067641,3650.90150224004,1986,165,0,0,0,0,5,3,3,19,0,35,0,0,3,0,0,0,97,0,0,0,0,0,0
BG,Bulgaria,country,Europe and Central Asia,42.733883,25.48583,GP,Guadeloupe,country,Latin America and the Caribbean,16.995971,-62.067641,8549.40223567452,1986,4,0,0,0,0,0,0,0,0,0,0,0,0,0,0,0,0,4,0,0,0,0,0,0
CM,Cameroon,country,Sub-Saharan Africa,7.369722,12.354722,GP,Guadeloupe,country,Latin America and the Caribbean,16.995971,-62.067641,8127.54728057831,1986,2,0,0,0,0,0,0,0,0,0,0,0,2,0,0,0,0,0,0,0,0,0,0,0
CA,Canada,country,North America,56.130366,-106.346771,GP,Guadeloupe,country,Latin America and the Caribbean,16.995971,-62.067641,5718.5745838192,1986,248,3,0,0,215,0,0,16,4,0,0,0,0,8,0,0,0,2,0,0,0,0,0,0
CF,Central African Rep.,country,Sub-Saharan Africa,6.611111,20.939444,GP,Guadeloupe,country,Latin America and the Caribbean,16.995971,-62.067641,9062.87232890515,1986,128,0,0,0,0,0,0,0,0,0,0,0,128,0,0,0,0,0,0,0,0,0,0,0
TD,Chad,country,Sub-Saharan Africa,15.454166,18.732207,GP,Guadeloupe,country,Latin America and the Caribbean,16.995971,-62.067641,8569.56365053676,1986,2,0,0,0,0,0,0,0,0,2,0,0,0,0,0,0,0,0,0,0,0,0,0,0
CL,Chile,country,Latin America and the Caribbean,-35.675147,-71.542969,GP,Guadeloupe,country,Latin America and the Caribbean,16.995971,-62.067641,5947.91259429518,1986,68,0,0,0,2,0,0,4,62,0,0,0,0,0,0,0,0,0,0,0,0,0,0,0
HK,Hong Kong,country,East Asia and Pacific,22.396428,114.109497,GP,Guadeloupe,country,Latin America and the Caribbean,16.995971,-62.067641,15632.6312289924,1986,0,0,0,0,0,0,0,0,0,0,0,0,0,0,0,0,0,0,0,0,0,0,0,0
CN,China,country,East Asia and Pacific,35.86166,104.195397,GP,Guadeloupe,country,Latin America and the Caribbean,16.995971,-62.067641,13977.8503357284,1986,49,0,0,0,0,0,5,12,2,0,2,0,3,3,3,0,0,19,0,0,0,0,0,0
TW,Taiwan,country,East Asia and Pacific,23.69781,120.960515,GP,Guadeloupe,country,Latin America and the Caribbean,16.995971,-62.067641,15495.5494641406,1986,26,0,0,0,0,0,0,20,6,0,0,0,0,0,0,0,0,0,0,0,0,0,0,0
CO,Colombia,country,Latin America and the Caribbean,4.570868,-74.297333,GP,Guadeloupe,country,Latin America and the Caribbean,16.995971,-62.067641,1921.88282820051,1986,44,0,0,0,0,0,0,0,22,0,0,0,1,21,0,0,0,0,0,0,0,0,0,0
KM,Comoros,country,Sub-Saharan Africa,-11.875001,43.872219,GP,Guadeloupe,country,Latin America and the Caribbean,16.995971,-62.067641,12077.2110869612,1986,2,0,0,0,0,0,0,0,0,0,2,0,0,0,0,0,0,0,0,0,0,0,0,0
CI,Ivory Coast,country,Sub-Saharan Africa,7.539989,-5.54708,GP,Guadeloupe,country,Latin America and the Caribbean,16.995971,-62.067641,6217.36360789427,1986,27,0,0,0,0,0,0,0,0,0,0,0,27,0,0,0,0,0,0,0,0,0,0,0
CU,Cuba,country,Latin America and the Caribbean,21.521757,-77.781167,GP,Guadeloupe,country,Latin America and the Caribbean,16.995971,-62.067641,1725.37159765275,1986,307,0,0,0,0,0,0,0,307,0,0,0,0,0,0,0,0,0,0,0,0,0,0,0
CZ,Czech Republic,country,Europe and Central Asia,49.817492,15.472962,GP,Guadeloupe,country,Latin America and the Caribbean,16.995971,-62.067641,7694.18047845099,1986,20,0,0,0,20,0,0,0,0,0,0,0,0,0,0,0,0,0,0,0,0,0,0,0
DK,Denmark,country,Europe and Central Asia,56.26392,9.501785,GP,Guadeloupe,country,Latin America and the Caribbean,16.995971,-62.067641,7317.31886354839,1986,431,7,0,0,0,0,0,0,0,0,0,0,0,0,0,240,0,178,6,0,0,0,0,0
DM,Dominica,country,Latin America and the Caribbean,15.414999,-61.370976,GP,Guadeloupe,country,Latin America and the Caribbean,16.995971,-62.067641,191.099500424979,1986,71,0,6,0,0,0,0,0,54,0,0,0,0,11,0,0,0,0,0,0,0,0,0,0
DO,Dominican Republic,country,Latin America and the Caribbean,18.735693,-70.162651,GP,Guadeloupe,country,Latin America and the Caribbean,16.995971,-62.067641,879.162881932485,1986,461,44,0,3,0,0,0,2,412,0,0,0,0,0,0,0,0,0,0,0,0,0,0,0
EG,Egypt,country,Middle East and North Africa,26.820553,30.802498,GP,Guadeloupe,country,Latin America and the Caribbean,16.995971,-62.067641,9449.36878316386,1986,2,0,0,0,0,0,0,0,0,0,2,0,0,0,0,0,0,0,0,0,0,0,0,0
ET,Ethiopia,country,Sub-Saharan Africa,9.145,40.489673,GP,Guadeloupe,country,Latin America and the Caribbean,16.995971,-62.067641,11036.0422161074,1986,4,0,0,0,4,0,0,0,0,0,0,0,0,0,0,0,0,0,0,0,0,0,0,0
FI,Finland,country,Europe and Central Asia,61.92411,25.748151,GP,Guadeloupe,country,Latin America and the Caribbean,16.995971,-62.067641,8241.46380386273,1986,1,0,0,0,0,0,0,0,0,0,0,0,0,0,0,1,0,0,0,0,0,0,0,0
FR,France,country,Europe and Central Asia,46.227638,2.213749,GP,Guadeloupe,country,Latin America and the Caribbean,16.995971,-62.067641,6692.67180493721,1986,167075,84812,6001,1462,245,28,48,5381,3554,7,40,7198,565,2151,5587,21749,176,12434,15813,0,0,0,0,0
GF,French Guiana,country,Latin America and the Caribbean,3.933889,-53.125782,GP,Guadeloupe,country,Latin America and the Caribbean,16.995971,-62.067641,1751.51247101381,1986,1280,1200,0,0,0,0,0,0,47,0,0,0,0,0,0,0,0,33,0,0,0,0,0,0
GR,Greece,country,Europe and Central Asia,39.074208,21.824312,GP,Guadeloupe,country,Latin America and the Caribbean,16.995971,-62.067641,8319.72571234547,1986,49,0,0,0,0,0,0,0,49,0,0,0,0,0,0,0,0,0,0,0,0,0,0,0
HT,Haiti,country,Latin America and the Caribbean,18.971187,-72.285215,GP,Guadeloupe,country,Latin America and the Caribbean,16.995971,-62.067641,1103.76197810828,1986,83,0,0,0,0,0,0,2,81,0,0,0,0,0,0,0,0,0,0,0,0,0,0,0
HN,Honduras,country,Latin America and the Caribbean,15.199999,-86.241905,GP,Guadeloupe,country,Latin America and the Caribbean,16.995971,-62.067641,2591.63831974408,1986,0,0,0,0,0,0,0,0,0,0,0,0,0,0,0,0,0,0,0,0,0,0,0,0
HU,Hungary,country,Europe and Central Asia,47.162494,19.503304,GP,Guadeloupe,country,Latin America and the Caribbean,16.995971,-62.067641,8010.71987938199,1986,10,0,0,0,0,0,0,0,0,0,0,0,0,0,0,0,0,10,0,0,0,0,0,0
IN,India,country,South Asia,20.593684,78.96288,GP,Guadeloupe,country,Latin America and the Caribbean,16.995971,-62.067641,14069.0305521529,1986,16,0,0,0,0,3,0,0,0,0,11,0,0,2,0,0,0,0,0,0,0,0,0,0
ID,Indonesia,country,East Asia and Pacific,-0.789275,113.921327,GP,Guadeloupe,country,Latin America and the Caribbean,16.995971,-62.067641,18180.6132300637,1986,0,0,0,0,0,0,0,0,0,0,0,0,0,0,0,0,0,0,0,0,0,0,0,0
IR,Iran,country,Middle East and North Africa,32.427908,53.688046,GP,Guadeloupe,country,Latin America and the Caribbean,16.995971,-62.067641,11264.0912996677,1986,1,0,0,0,0,1,0,0,0,0,0,0,0,0,0,0,0,0,0,0,0,0,0,0
IE,Ireland,country,Europe and Central Asia,53.41291,-8.24389,GP,Guadeloupe,country,Latin America and the Caribbean,16.995971,-62.067641,6141.3057713192,1986,2,0,0,0,0,0,0,0,0,0,0,0,0,2,0,0,0,0,0,0,0,0,0,0
IL,Israel,country,Middle East and North Africa,31.046051,34.851612,GP,Guadeloupe,country,Latin America and the Caribbean,16.995971,-62.067641,9686.66253103265,1986,41,0,0,0,0,0,0,0,34,0,0,0,0,7,0,0,0,0,0,0,0,0,0,0
IT,Italy,country,Europe and Central Asia,41.87194,12.56738,GP,Guadeloupe,country,Latin America and the Caribbean,16.995971,-62.067641,7506.41664024834,1986,378,105,7,6,0,0,0,179,40,0,0,0,0,10,2,25,0,4,0,0,0,0,0,0
JM,Jamaica,country,Latin America and the Caribbean,18.109581,-77.297508,GP,Guadeloupe,country,Latin America and the Caribbean,16.995971,-62.067641,1620.72258136984,1986,0,0,0,0,0,0,0,0,0,0,0,0,0,0,0,0,0,0,0,0,0,0,0,0
KE,Kenya,country,Sub-Saharan Africa,-0.023559,37.906193,GP,Guadeloupe,country,Latin America and the Caribbean,16.995971,-62.067641,11080.8590588682,1986,15,0,0,0,15,0,0,0,0,0,0,0,0,0,0,0,0,0,0,0,0,0,0,0
MG,Madagascar,country,Sub-Saharan Africa,-18.766947,46.869107,GP,Guadeloupe,country,Latin America and the Caribbean,16.995971,-62.067641,12559.4356253887,1986,244,0,0,0,0,0,0,0,0,0,11,0,233,0,0,0,0,0,0,0,0,0,0,0
MW,Malawi,country,Sub-Saharan Africa,-13.254308,34.301525,GP,Guadeloupe,country,Latin America and the Caribbean,16.995971,-62.067641,11110.1466320208,1986,3,0,0,0,3,0,0,0,0,0,0,0,0,0,0,0,0,0,0,0,0,0,0,0
MX,Mexico,country,Latin America and the Caribbean,23.634501,-102.552784,GP,Guadeloupe,country,Latin America and the Caribbean,16.995971,-62.067641,4276.32610671586,1986,63,0,0,0,0,0,0,63,0,0,0,0,0,0,0,0,0,0,0,0,0,0,0,0
MA,Morocco,country,Middle East and North Africa,31.791702,-7.09262,GP,Guadeloupe,country,Latin America and the Caribbean,16.995971,-62.067641,5749.22911612346,1986,97,0,0,0,11,0,13,24,39,0,10,0,0,0,0,0,0,0,0,0,0,0,0,0
MZ,Mozambique,country,Sub-Saharan Africa,-18.665695,35.529562,GP,Guadeloupe,country,Latin America and the Caribbean,16.995971,-62.067641,11389.9693232125,1986,7,0,0,0,0,7,0,0,0,0,0,0,0,0,0,0,0,0,0,0,0,0,0,0
NL,Netherlands,country,Europe and Central Asia,52.132633,5.291266,GP,Guadeloupe,country,Latin America and the Caribbean,16.995971,-62.067641,6993.46468732544,1986,8270,109,552,17,0,4,0,1915,8,0,0,0,42,201,243,4446,0,650,83,0,0,0,0,0
NZ,New Zealand,country,East Asia and Pacific,-40.900557,174.885971,GP,Guadeloupe,country,Latin America and the Caribbean,16.995971,-62.067641,14008.7379941618,1986,1549,0,0,0,0,0,0,0,311,0,0,0,0,3,0,0,0,1235,0,0,0,0,0,0
PH,Philippines,country,East Asia and Pacific,12.879721,121.774017,GP,Guadeloupe,country,Latin America and the Caribbean,16.995971,-62.067641,16685.0364606889,1986,0,0,0,0,0,0,0,0,0,0,0,0,0,0,0,0,0,0,0,0,0,0,0,0
PL,Poland,country,Europe and Central Asia,51.919438,19.145136,GP,Guadeloupe,country,Latin America and the Caribbean,16.995971,-62.067641,7939.91630739586,1986,5,0,0,0,0,0,0,0,0,0,0,0,0,0,0,0,0,5,0,0,0,0,0,0
PT,Portugal,country,Europe and Central Asia,39.399872,-8.224454,GP,Guadeloupe,country,Latin America and the Caribbean,16.995971,-62.067641,5740.94362864755,1986,9,0,0,0,0,0,0,0,0,0,0,0,0,0,0,8,0,1,0,0,0,0,0,0
RE,Reunion,country,Sub-Saharan Africa,-21.115141,55.536384,GP,Guadeloupe,country,Latin America and the Caribbean,16.995971,-62.067641,13496.718745588,1986,1,0,0,0,0,0,1,0,0,0,0,0,0,0,0,0,0,0,0,0,0,0,0,0
RO,Romania,country,Europe and Central Asia,45.943161,24.96676,GP,Guadeloupe,country,Latin America and the Caribbean,16.995971,-62.067641,8443.52971744368,1986,22,0,0,0,19,0,0,0,0,0,0,0,0,0,0,0,0,3,0,0,0,0,0,0
SN,Senegal,country,Sub-Saharan Africa,14.497401,-14.452362,GP,Guadeloupe,country,Latin America and the Caribbean,16.995971,-62.067641,5097.12832568338,1986,1,0,0,0,0,0,0,0,0,0,0,0,0,0,1,0,0,0,0,0,0,0,0,0
ZA,S. Africa,country,Sub-Saharan Africa,-30.559482,22.937506,GP,Guadeloupe,country,Latin America and the Caribbean,16.995971,-62.067641,10509.8367686556,1986,74,0,0,0,0,0,0,0,74,0,0,0,0,0,0,0,0,0,0,0,0,0,0,0
ES,Spain,country,Europe and Central Asia,40.463667,-3.74922,GP,Guadeloupe,country,Latin America and the Caribbean,16.995971,-62.067641,6136.20664341074,1986,488,3,0,10,0,0,0,180,48,0,0,0,0,0,0,247,0,0,0,0,0,0,0,0
LK,Sri Lanka,country,South Asia,7.873054,80.771797,GP,Guadeloupe,country,Latin America and the Caribbean,16.995971,-62.067641,15098.9665787968,1986,37,0,0,0,0,0,14,0,23,0,0,0,0,0,0,0,0,0,0,0,0,0,0,0
SR,Suriname,country,Latin America and the Caribbean,3.919305,-56.027783,GP,Guadeloupe,country,Latin America and the Caribbean,16.995971,-62.067641,1598.15068629132,1986,7177,7173,0,0,0,0,0,0,4,0,0,0,0,0,0,0,0,0,0,0,0,0,0,0
SE,Sweden,country,Europe and Central Asia,60.128161,18.643501,GP,Guadeloupe,country,Latin America and the Caribbean,16.995971,-62.067641,7871.3901256359,1986,5,5,0,0,0,0,0,0,0,0,0,0,0,0,0,0,0,0,0,0,0,0,0,0
CH,Switzerland,country,Europe and Central Asia,46.818188,8.227512,GP,Guadeloupe,country,Latin America and the Caribbean,16.995971,-62.067641,7156.83786682218,1986,4,4,0,0,0,0,0,0,0,0,0,0,0,0,0,0,0,0,0,0,0,0,0,0
TH,Thailand,country,East Asia and Pacific,15.870032,100.992541,GP,Guadeloupe,country,Latin America and the Caribbean,16.995971,-62.067641,15933.4877847672,1986,896,889,0,0,0,0,0,0,2,0,0,4,0,1,0,0,0,0,0,0,0,0,0,0
TT,Trinidad and Tobago,country,Latin America and the Caribbean,10.691803,-61.222503,GP,Guadeloupe,country,Latin America and the Caribbean,16.995971,-62.067641,707.689920966514,1986,19,0,0,0,0,0,0,0,0,0,0,0,0,0,0,19,0,0,0,0,0,0,0,0
TN,Tunisia,country,Middle East and North Africa,33.886917,9.537499,GP,Guadeloupe,country,Latin America and the Caribbean,16.995971,-62.067641,7299.80909576956,1986,5,0,2,0,0,0,0,0,0,0,3,0,0,0,0,0,0,0,0,0,0,0,0,0
TR,Turkey,country,Europe and Central Asia,38.963745,35.243322,GP,Guadeloupe,country,Latin America and the Caribbean,16.995971,-62.067641,9449.16378627562,1986,456,0,0,0,451,0,0,0,0,0,5,0,0,0,0,0,0,0,0,0,0,0,0,0
GB,United Kingdom,country,Europe and Central Asia,55.378051,-3.435973,GP,Guadeloupe,country,Latin America and the Caribbean,16.995971,-62.067641,6505.63680614062,1986,1053,2,0,0,0,4,0,0,0,0,0,0,0,50,0,949,0,48,0,0,0,0,0,0
US,USA,country,North America,37.09024,-95.712891,GP,Guadeloupe,country,Latin America and the Caribbean,16.995971,-62.067641,3982.23269396315,1986,3558,1104,0,14,1377,12,0,6,105,14,3,0,0,270,82,238,0,333,0,0,0,0,0,0
UY,Uruguay,country,Latin America and the Caribbean,-32.522779,-55.765835,GP,Guadeloupe,country,Latin America and the Caribbean,16.995971,-62.067641,5553.14843615094,1986,40,0,0,0,0,0,0,0,0,0,0,0,0,0,0,0,0,40,0,0,0,0,0,0
RU,Russian Federation,country,Europe and Central Asia,61.52401,105.318756,GP,Guadeloupe,country,Latin America and the Caribbean,16.995971,-62.067641,11225.1611337912,1986,2,0,0,0,0,0,0,0,0,0,0,0,0,0,0,2,0,0,0,0,0,0,0,0
VU,Vanuatu,country,East Asia and Pacific,-15.376706,166.959158,GP,Guadeloupe,country,Latin America and the Caribbean,16.995971,-62.067641,14806.6393833776,1986,7,0,0,0,0,0,0,0,0,0,0,0,0,0,0,0,0,7,0,0,0,0,0,0
VE,Venezuela,country,Latin America and the Caribbean,6.42375,-66.58973,GP,Guadeloupe,country,Latin America and the Caribbean,16.995971,-62.067641,1275.64335033501,1986,13,0,0,0,0,0,0,0,13,0,0,0,0,0,0,0,0,0,0,0,0,0,0,0
BA,Bosnia & Herzegovina,country,Europe and Central Asia,43.915886,17.679076,GP,Guadeloupe,country,Latin America and the Caribbean,16.995971,-62.067641,7905.0439491714,1986,2,0,0,0,0,0,0,0,0,0,0,0,0,2,0,0,0,0,0,0,0,0,0,0
ZW,Zimbabwe,country,Sub-Saharan Africa,-19.015438,29.154857,GP,Guadeloupe,country,Latin America and the Caribbean,16.995971,-62.067641,10750.8441869929,1986,9,0,0,0,0,0,0,0,0,0,0,0,0,0,0,0,0,9,0,0,0,0,0,0
DZ,Algeria,country,Middle East and North Africa,28.033886,1.659626,GP,Guadeloupe,country,Latin America and the Caribbean,16.995971,-62.067641,6597.66121886657,1987,9,0,0,0,0,0,0,0,0,0,0,0,0,0,0,9,0,0,0,0,0,0,0,0
AO,Angola,country,Sub-Saharan Africa,-11.202692,17.873887,GP,Guadeloupe,country,Latin America and the Caribbean,16.995971,-62.067641,9334.6402811809,1987,5,0,0,0,5,0,0,0,0,0,0,0,0,0,0,0,0,0,0,0,0,0,0,0
AR,Argentina,country,Latin America and the Caribbean,-38.416097,-63.616672,GP,Guadeloupe,country,Latin America and the Caribbean,16.995971,-62.067641,6170.56439943012,1987,348,0,0,0,0,0,5,158,29,0,0,0,0,0,0,0,0,156,0,0,0,0,0,0
AU,Australia,country,East Asia and Pacific,-25.274398,133.775136,GP,Guadeloupe,country,Latin America and the Caribbean,16.995971,-62.067641,18154.3964808916,1987,100,0,0,0,0,0,0,0,27,0,0,0,0,0,0,0,0,73,0,0,0,0,0,0
BB,Barbados,country,Latin America and the Caribbean,13.193887,-59.543198,GP,Guadeloupe,country,Latin America and the Caribbean,16.995971,-62.067641,502.712483869139,1987,103,0,9,0,0,0,0,0,91,0,0,0,0,3,0,0,0,0,0,0,0,0,0,0
BE,Belgium,country,Europe and Central Asia,50.503887,4.469936,GP,Guadeloupe,country,Latin America and the Caribbean,16.995971,-62.067641,6914.35191690583,1987,2605,372,0,0,16,0,0,96,160,0,0,0,2,38,74,1315,0,531,1,0,0,0,0,0
BW,Botswana,country,Sub-Saharan Africa,-22.328474,24.684866,GP,Guadeloupe,country,Latin America and the Caribbean,16.995971,-62.067641,10407.6668475724,1987,18,0,0,0,0,0,0,0,0,0,0,0,0,0,0,0,0,18,0,0,0,0,0,0
BR,Brazil,country,Latin America and the Caribbean,-14.235004,-51.92528,GP,Guadeloupe,country,Latin America and the Caribbean,16.995971,-62.067641,3650.90150224004,1987,1022,0,0,0,0,1,3,6,52,0,21,850,0,0,0,9,0,80,0,0,0,0,0,0
BG,Bulgaria,country,Europe and Central Asia,42.733883,25.48583,GP,Guadeloupe,country,Latin America and the Caribbean,16.995971,-62.067641,8549.40223567452,1987,3,0,0,0,0,0,0,0,0,0,0,0,0,0,0,0,0,3,0,0,0,0,0,0
CM,Cameroon,country,Sub-Saharan Africa,7.369722,12.354722,GP,Guadeloupe,country,Latin America and the Caribbean,16.995971,-62.067641,8127.54728057831,1987,52,0,0,0,0,0,0,0,0,0,0,0,52,0,0,0,0,0,0,0,0,0,0,0
CA,Canada,country,North America,56.130366,-106.346771,GP,Guadeloupe,country,Latin America and the Caribbean,16.995971,-62.067641,5718.5745838192,1987,130,2,0,0,91,0,0,22,4,0,0,0,0,6,0,0,0,5,0,0,0,0,0,0
CF,Central African Rep.,country,Sub-Saharan Africa,6.611111,20.939444,GP,Guadeloupe,country,Latin America and the Caribbean,16.995971,-62.067641,9062.87232890515,1987,70,0,0,0,0,0,0,0,0,0,0,0,70,0,0,0,0,0,0,0,0,0,0,0
TD,Chad,country,Sub-Saharan Africa,15.454166,18.732207,GP,Guadeloupe,country,Latin America and the Caribbean,16.995971,-62.067641,8569.56365053676,1987,5,0,0,0,0,0,0,0,0,5,0,0,0,0,0,0,0,0,0,0,0,0,0,0
CL,Chile,country,Latin America and the Caribbean,-35.675147,-71.542969,GP,Guadeloupe,country,Latin America and the Caribbean,16.995971,-62.067641,5947.91259429518,1987,108,0,0,0,0,0,0,2,104,0,0,0,0,0,0,0,0,2,0,0,0,0,0,0
HK,Hong Kong,country,East Asia and Pacific,22.396428,114.109497,GP,Guadeloupe,country,Latin America and the Caribbean,16.995971,-62.067641,15632.6312289924,1987,0,0,0,0,0,0,0,0,0,0,0,0,0,0,0,0,0,0,0,0,0,0,0,0
CN,China,country,East Asia and Pacific,35.86166,104.195397,GP,Guadeloupe,country,Latin America and the Caribbean,16.995971,-62.067641,13977.8503357284,1987,49,0,0,0,0,2,8,0,0,0,0,0,2,0,0,0,0,37,0,0,0,0,0,0
TW,Taiwan,country,East Asia and Pacific,23.69781,120.960515,GP,Guadeloupe,country,Latin America and the Caribbean,16.995971,-62.067641,15495.5494641406,1987,96,90,0,0,0,0,0,6,0,0,0,0,0,0,0,0,0,0,0,0,0,0,0,0
CO,Colombia,country,Latin America and the Caribbean,4.570868,-74.297333,GP,Guadeloupe,country,Latin America and the Caribbean,16.995971,-62.067641,1921.88282820051,1987,34,0,0,0,0,0,0,0,11,0,0,0,0,23,0,0,0,0,0,0,0,0,0,0
KM,Comoros,country,Sub-Saharan Africa,-11.875001,43.872219,GP,Guadeloupe,country,Latin America and the Caribbean,16.995971,-62.067641,12077.2110869612,1987,0,0,0,0,0,0,0,0,0,0,0,0,0,0,0,0,0,0,0,0,0,0,0,0
CI,Ivory Coast,country,Sub-Saharan Africa,7.539989,-5.54708,GP,Guadeloupe,country,Latin America and the Caribbean,16.995971,-62.067641,6217.36360789427,1987,60,0,0,0,0,0,0,0,0,0,0,0,60,0,0,0,0,0,0,0,0,0,0,0
CU,Cuba,country,Latin America and the Caribbean,21.521757,-77.781167,GP,Guadeloupe,country,Latin America and the Caribbean,16.995971,-62.067641,1725.37159765275,1987,811,0,0,3,0,0,0,0,801,0,0,0,0,0,0,0,0,7,0,0,0,0,0,0
CY,Cyprus,country,Europe and Central Asia,35.126413,33.429859,GP,Guadeloupe,country,Latin America and the Caribbean,16.995971,-62.067641,9423.1036547074,1987,10,0,0,0,0,0,0,0,10,0,0,0,0,0,0,0,0,0,0,0,0,0,0,0
CD,"Congo, Dem. Rep.",country,Sub-Saharan Africa,-4.038333,21.758664,GP,Guadeloupe,country,Latin America and the Caribbean,16.995971,-62.067641,9495.12411576815,1987,6,0,0,0,0,0,0,0,0,0,0,0,6,0,0,0,0,0,0,0,0,0,0,0
DK,Denmark,country,Europe and Central Asia,56.26392,9.501785,GP,Guadeloupe,country,Latin America and the Caribbean,16.995971,-62.067641,7317.31886354839,1987,507,1,0,0,0,0,0,0,0,0,0,0,2,5,0,303,0,190,6,0,0,0,0,0
DM,Dominica,country,Latin America and the Caribbean,15.414999,-61.370976,GP,Guadeloupe,country,Latin America and the Caribbean,16.995971,-62.067641,191.099500424979,1987,2629,0,16,0,0,0,0,0,195,0,0,0,0,18,0,2400,0,0,0,0,0,0,0,0
DO,Dominican Republic,country,Latin America and the Caribbean,18.735693,-70.162651,GP,Guadeloupe,country,Latin America and the Caribbean,16.995971,-62.067641,879.162881932485,1987,585,136,0,0,0,0,0,0,449,0,0,0,0,0,0,0,0,0,0,0,0,0,0,0
EG,Egypt,country,Middle East and North Africa,26.820553,30.802498,GP,Guadeloupe,country,Latin America and the Caribbean,16.995971,-62.067641,9449.36878316386,1987,0,0,0,0,0,0,0,0,0,0,0,0,0,0,0,0,0,0,0,0,0,0,0,0
ET,Ethiopia,country,Sub-Saharan Africa,9.145,40.489673,GP,Guadeloupe,country,Latin America and the Caribbean,16.995971,-62.067641,11036.0422161074,1987,21,0,0,0,0,0,0,0,0,0,0,0,21,0,0,0,0,0,0,0,0,0,0,0
FR,France,country,Europe and Central Asia,46.227638,2.213749,GP,Guadeloupe,country,Latin America and the Caribbean,16.995971,-62.067641,6692.67180493721,1987,164781,68725,6753,2020,323,37,89,6120,3794,3,48,12058,121,2662,6244,25184,298,13214,17386,0,0,0,0,0
GF,French Guiana,country,Latin America and the Caribbean,3.933889,-53.125782,GP,Guadeloupe,country,Latin America and the Caribbean,16.995971,-62.067641,1751.51247101381,1987,3262,3250,0,0,0,0,0,0,12,0,0,0,0,0,0,0,0,0,0,0,0,0,0,0
GR,Greece,country,Europe and Central Asia,39.074208,21.824312,GP,Guadeloupe,country,Latin America and the Caribbean,16.995971,-62.067641,8319.72571234547,1987,43,0,0,0,0,1,0,0,42,0,0,0,0,0,0,0,0,0,0,0,0,0,0,0
GY,Guyana,country,Latin America and the Caribbean,4.860416,-58.93018,GP,Guadeloupe,country,Latin America and the Caribbean,16.995971,-62.067641,1393.59376495843,1987,100,100,0,0,0,0,0,0,0,0,0,0,0,0,0,0,0,0,0,0,0,0,0,0
HT,Haiti,country,Latin America and the Caribbean,18.971187,-72.285215,GP,Guadeloupe,country,Latin America and the Caribbean,16.995971,-62.067641,1103.76197810828,1987,52,13,0,0,0,0,0,0,39,0,0,0,0,0,0,0,0,0,0,0,0,0,0,0
HN,Honduras,country,Latin America and the Caribbean,15.199999,-86.241905,GP,Guadeloupe,country,Latin America and the Caribbean,16.995971,-62.067641,2591.63831974408,1987,0,0,0,0,0,0,0,0,0,0,0,0,0,0,0,0,0,0,0,0,0,0,0,0
HU,Hungary,country,Europe and Central Asia,47.162494,19.503304,GP,Guadeloupe,country,Latin America and the Caribbean,16.995971,-62.067641,8010.71987938199,1987,2,0,0,0,0,0,0,0,0,0,0,0,0,0,0,0,0,2,0,0,0,0,0,0
IS,Iceland,country,Europe and Central Asia,64.963051,-19.020835,GP,Guadeloupe,country,Latin America and the Caribbean,16.995971,-62.067641,6223.01729832009,1987,0,0,0,0,0,0,0,0,0,0,0,0,0,0,0,0,0,0,0,0,0,0,0,0
IN,India,country,South Asia,20.593684,78.96288,GP,Guadeloupe,country,Latin America and the Caribbean,16.995971,-62.067641,14069.0305521529,1987,13,0,0,0,0,5,0,0,0,0,5,0,0,3,0,0,0,0,0,0,0,0,0,0
ID,Indonesia,country,East Asia and Pacific,-0.789275,113.921327,GP,Guadeloupe,country,Latin America and the Caribbean,16.995971,-62.067641,18180.6132300637,1987,0,0,0,0,0,0,0,0,0,0,0,0,0,0,0,0,0,0,0,0,0,0,0,0
IR,Iran,country,Middle East and North Africa,32.427908,53.688046,GP,Guadeloupe,country,Latin America and the Caribbean,16.995971,-62.067641,11264.0912996677,1987,0,0,0,0,0,0,0,0,0,0,0,0,0,0,0,0,0,0,0,0,0,0,0,0
IQ,Iraq,country,Middle East and North Africa,33.223191,43.679291,GP,Guadeloupe,country,Latin America and the Caribbean,16.995971,-62.067641,10382.2421754358,1987,4,0,0,0,0,0,0,0,4,0,0,0,0,0,0,0,0,0,0,0,0,0,0,0
IE,Ireland,country,Europe and Central Asia,53.41291,-8.24389,GP,Guadeloupe,country,Latin America and the Caribbean,16.995971,-62.067641,6141.3057713192,1987,11,0,0,0,0,0,0,0,0,0,0,0,0,1,0,0,0,10,0,0,0,0,0,0
IL,Israel,country,Middle East and North Africa,31.046051,34.851612,GP,Guadeloupe,country,Latin America and the Caribbean,16.995971,-62.067641,9686.66253103265,1987,47,0,0,0,0,0,0,3,41,0,0,0,0,3,0,0,0,0,0,0,0,0,0,0
IT,Italy,country,Europe and Central Asia,41.87194,12.56738,GP,Guadeloupe,country,Latin America and the Caribbean,16.995971,-62.067641,7506.41664024834,1987,525,88,0,2,0,0,0,321,31,0,0,0,0,14,0,27,0,42,0,0,0,0,0,0
JM,Jamaica,country,Latin America and the Caribbean,18.109581,-77.297508,GP,Guadeloupe,country,Latin America and the Caribbean,16.995971,-62.067641,1620.72258136984,1987,0,0,0,0,0,0,0,0,0,0,0,0,0,0,0,0,0,0,0,0,0,0,0,0
KE,Kenya,country,Sub-Saharan Africa,-0.023559,37.906193,GP,Guadeloupe,country,Latin America and the Caribbean,16.995971,-62.067641,11080.8590588682,1987,1,0,0,0,1,0,0,0,0,0,0,0,0,0,0,0,0,0,0,0,0,0,0,0
MG,Madagascar,country,Sub-Saharan Africa,-18.766947,46.869107,GP,Guadeloupe,country,Latin America and the Caribbean,16.995971,-62.067641,12559.4356253887,1987,306,0,0,0,0,0,0,0,0,0,15,0,291,0,0,0,0,0,0,0,0,0,0,0
MY,Malaysia,country,East Asia and Pacific,4.210484,101.975766,GP,Guadeloupe,country,Latin America and the Caribbean,16.995971,-62.067641,17096.1466726557,1987,0,0,0,0,0,0,0,0,0,0,0,0,0,0,0,0,0,0,0,0,0,0,0,0
MU,Mauritius,country,Sub-Saharan Africa,-20.348404,57.552152,GP,Guadeloupe,country,Latin America and the Caribbean,16.995971,-62.067641,13693.5433324408,1987,0,0,0,0,0,0,0,0,0,0,0,0,0,0,0,0,0,0,0,0,0,0,0,0
MX,Mexico,country,Latin America and the Caribbean,23.634501,-102.552784,GP,Guadeloupe,country,Latin America and the Caribbean,16.995971,-62.067641,4276.32610671586,1987,84,0,0,0,0,0,0,83,0,0,0,0,0,0,0,1,0,0,0,0,0,0,0,0
MA,Morocco,country,Middle East and North Africa,31.791702,-7.09262,GP,Guadeloupe,country,Latin America and the Caribbean,16.995971,-62.067641,5749.22911612346,1987,70,0,0,0,29,0,16,5,6,0,14,0,0,0,0,0,0,0,0,0,0,0,0,0
NL,Netherlands,country,Europe and Central Asia,52.132633,5.291266,GP,Guadeloupe,country,Latin America and the Caribbean,16.995971,-62.067641,6993.46468732544,1987,9064,26,484,3,0,2,0,2222,67,0,0,0,5,235,315,4554,0,1070,81,0,0,0,0,0
NZ,New Zealand,country,East Asia and Pacific,-40.900557,174.885971,GP,Guadeloupe,country,Latin America and the Caribbean,16.995971,-62.067641,14008.7379941618,1987,1792,0,0,0,0,0,0,0,219,0,0,0,0,0,0,0,0,1573,0,0,0,0,0,0
NO,Norway,country,Europe and Central Asia,60.472024,8.468946,GP,Guadeloupe,country,Latin America and the Caribbean,16.995971,-62.067641,7314.59014352622,1987,1,0,0,0,0,0,0,0,0,0,0,0,0,0,0,0,0,1,0,0,0,0,0,0
PG,Papua New Guinea,country,East Asia and Pacific,-6.314993,143.95555,GP,Guadeloupe,country,Latin America and the Caribbean,16.995971,-62.067641,16966.5161108476,1987,19,0,0,0,0,0,0,0,0,0,0,0,0,0,0,0,0,19,0,0,0,0,0,0
PL,Poland,country,Europe and Central Asia,51.919438,19.145136,GP,Guadeloupe,country,Latin America and the Caribbean,16.995971,-62.067641,7939.91630739586,1987,15,0,0,0,0,0,0,0,0,0,0,0,0,0,0,0,0,15,0,0,0,0,0,0
PT,Portugal,country,Europe and Central Asia,39.399872,-8.224454,GP,Guadeloupe,country,Latin America and the Caribbean,16.995971,-62.067641,5740.94362864755,1987,12,0,0,0,0,0,0,1,0,0,0,0,0,0,0,11,0,0,0,0,0,0,0,0
RE,Reunion,country,Sub-Saharan Africa,-21.115141,55.536384,GP,Guadeloupe,country,Latin America and the Caribbean,16.995971,-62.067641,13496.718745588,1987,0,0,0,0,0,0,0,0,0,0,0,0,0,0,0,0,0,0,0,0,0,0,0,0
RO,Romania,country,Europe and Central Asia,45.943161,24.96676,GP,Guadeloupe,country,Latin America and the Caribbean,16.995971,-62.067641,8443.52971744368,1987,5,0,0,0,2,0,0,0,0,0,0,0,0,0,0,0,0,3,0,0,0,0,0,0
VC,St. Vincent & Grenadines,country,Latin America and the Caribbean,12.984305,-61.287228,GP,Guadeloupe,country,Latin America and the Caribbean,16.995971,-62.067641,454.389198263739,1987,132,0,0,0,0,0,0,0,0,0,0,132,0,0,0,0,0,0,0,0,0,0,0,0
ZA,S. Africa,country,Sub-Saharan Africa,-30.559482,22.937506,GP,Guadeloupe,country,Latin America and the Caribbean,16.995971,-62.067641,10509.8367686556,1987,86,0,0,0,0,0,0,0,86,0,0,0,0,0,0,0,0,0,0,0,0,0,0,0
ES,Spain,country,Europe and Central Asia,40.463667,-3.74922,GP,Guadeloupe,country,Latin America and the Caribbean,16.995971,-62.067641,6136.20664341074,1987,506,6,0,2,0,0,1,202,89,0,0,0,0,0,0,206,0,0,0,0,0,0,0,0
LK,Sri Lanka,country,South Asia,7.873054,80.771797,GP,Guadeloupe,country,Latin America and the Caribbean,16.995971,-62.067641,15098.9665787968,1987,16,0,0,0,0,0,13,0,0,0,0,0,3,0,0,0,0,0,0,0,0,0,0,0
SR,Suriname,country,Latin America and the Caribbean,3.919305,-56.027783,GP,Guadeloupe,country,Latin America and the Caribbean,16.995971,-62.067641,1598.15068629132,1987,6076,6076,0,0,0,0,0,0,0,0,0,0,0,0,0,0,0,0,0,0,0,0,0,0
CH,Switzerland,country,Europe and Central Asia,46.818188,8.227512,GP,Guadeloupe,country,Latin America and the Caribbean,16.995971,-62.067641,7156.83786682218,1987,27,4,0,0,0,0,0,0,20,0,0,0,0,0,0,3,0,0,0,0,0,0,0,0
TH,Thailand,country,East Asia and Pacific,15.870032,100.992541,GP,Guadeloupe,country,Latin America and the Caribbean,16.995971,-62.067641,15933.4877847672,1987,1120,1113,0,0,0,0,0,0,1,0,0,6,0,0,0,0,0,0,0,0,0,0,0,0
TT,Trinidad and Tobago,country,Latin America and the Caribbean,10.691803,-61.222503,GP,Guadeloupe,country,Latin America and the Caribbean,16.995971,-62.067641,707.689920966514,1987,48,0,0,0,0,0,0,0,0,0,0,0,0,0,0,48,0,0,0,0,0,0,0,0
TN,Tunisia,country,Middle East and North Africa,33.886917,9.537499,GP,Guadeloupe,country,Latin America and the Caribbean,16.995971,-62.067641,7299.80909576956,1987,0,0,0,0,0,0,0,0,0,0,0,0,0,0,0,0,0,0,0,0,0,0,0,0
TR,Turkey,country,Europe and Central Asia,38.963745,35.243322,GP,Guadeloupe,country,Latin America and the Caribbean,16.995971,-62.067641,9449.16378627562,1987,783,0,0,0,766,0,0,0,5,0,12,0,0,0,0,0,0,0,0,0,0,0,0,0
GB,United Kingdom,country,Europe and Central Asia,55.378051,-3.435973,GP,Guadeloupe,country,Latin America and the Caribbean,16.995971,-62.067641,6505.63680614062,1987,677,6,0,0,0,17,0,2,0,0,0,0,0,44,0,581,0,27,0,0,0,0,0,0
TZ,Tanzania,country,Sub-Saharan Africa,-6.369028,34.888822,GP,Guadeloupe,country,Latin America and the Caribbean,16.995971,-62.067641,10963.2092973843,1987,14,0,0,0,14,0,0,0,0,0,0,0,0,0,0,0,0,0,0,0,0,0,0,0
US,USA,country,North America,37.09024,-95.712891,GP,Guadeloupe,country,Latin America and the Caribbean,16.995971,-62.067641,3982.23269396315,1987,5757,1894,0,17,1504,10,2,44,276,0,0,913,0,252,83,549,0,213,0,0,0,0,0,0
UY,Uruguay,country,Latin America and the Caribbean,-32.522779,-55.765835,GP,Guadeloupe,country,Latin America and the Caribbean,16.995971,-62.067641,5553.14843615094,1987,30,0,0,0,0,0,0,0,0,0,0,0,0,0,0,0,0,30,0,0,0,0,0,0
RU,Russian Federation,country,Europe and Central Asia,61.52401,105.318756,GP,Guadeloupe,country,Latin America and the Caribbean,16.995971,-62.067641,11225.1611337912,1987,1,0,0,0,0,0,0,0,0,0,0,0,0,0,0,1,0,0,0,0,0,0,0,0
AO,Angola,country,Sub-Saharan Africa,-11.202692,17.873887,GP,Guadeloupe,country,Latin America and the Caribbean,16.995971,-62.067641,9334.6402811809,1988,4,0,0,0,4,0,0,0,0,0,0,0,0,0,0,0,0,0,0,0,0,0,0,0
AR,Argentina,country,Latin America and the Caribbean,-38.416097,-63.616672,GP,Guadeloupe,country,Latin America and the Caribbean,16.995971,-62.067641,6170.56439943012,1988,279,0,0,0,0,0,4,114,12,0,0,0,0,0,0,0,0,149,0,0,0,0,0,0
AU,Australia,country,East Asia and Pacific,-25.274398,133.775136,GP,Guadeloupe,country,Latin America and the Caribbean,16.995971,-62.067641,18154.3964808916,1988,90,0,0,0,0,0,0,0,32,0,0,0,0,0,0,0,0,58,0,0,0,0,0,0
BE,Belgium,country,Europe and Central Asia,50.503887,4.469936,GP,Guadeloupe,country,Latin America and the Caribbean,16.995971,-62.067641,6914.35191690583,1988,2576,334,31,3,0,0,0,58,147,0,0,0,10,30,157,1507,0,203,96,0,0,0,0,0
BW,Botswana,country,Sub-Saharan Africa,-22.328474,24.684866,GP,Guadeloupe,country,Latin America and the Caribbean,16.995971,-62.067641,10407.6668475724,1988,32,0,0,0,0,0,0,0,0,0,0,0,0,0,0,0,0,32,0,0,0,0,0,0
BR,Brazil,country,Latin America and the Caribbean,-14.235004,-51.92528,GP,Guadeloupe,country,Latin America and the Caribbean,16.995971,-62.067641,3650.90150224004,1988,370,0,17,0,0,1,17,5,62,0,14,186,0,0,0,0,0,68,0,0,0,0,0,0
BI,Burundi,country,Sub-Saharan Africa,-3.373056,29.918886,GP,Guadeloupe,country,Latin America and the Caribbean,16.995971,-62.067641,10339.6549671189,1988,0,0,0,0,0,0,0,0,0,0,0,0,0,0,0,0,0,0,0,0,0,0,0,0
CM,Cameroon,country,Sub-Saharan Africa,7.369722,12.354722,GP,Guadeloupe,country,Latin America and the Caribbean,16.995971,-62.067641,8127.54728057831,1988,46,0,0,0,0,0,0,0,0,0,0,0,46,0,0,0,0,0,0,0,0,0,0,0
CA,Canada,country,North America,56.130366,-106.346771,GP,Guadeloupe,country,Latin America and the Caribbean,16.995971,-62.067641,5718.5745838192,1988,87,0,0,0,78,0,0,3,0,0,0,0,0,4,0,0,0,2,0,0,0,0,0,0
CF,Central African Rep.,country,Sub-Saharan Africa,6.611111,20.939444,GP,Guadeloupe,country,Latin America and the Caribbean,16.995971,-62.067641,9062.87232890515,1988,108,0,0,0,0,0,0,0,0,0,0,0,108,0,0,0,0,0,0,0,0,0,0,0
TD,Chad,country,Sub-Saharan Africa,15.454166,18.732207,GP,Guadeloupe,country,Latin America and the Caribbean,16.995971,-62.067641,8569.56365053676,1988,4,0,0,0,0,0,0,0,0,4,0,0,0,0,0,0,0,0,0,0,0,0,0,0
CL,Chile,country,Latin America and the Caribbean,-35.675147,-71.542969,GP,Guadeloupe,country,Latin America and the Caribbean,16.995971,-62.067641,5947.91259429518,1988,138,0,0,0,1,0,0,0,107,0,0,0,0,0,0,0,0,30,0,0,0,0,0,0
HK,Hong Kong,country,East Asia and Pacific,22.396428,114.109497,GP,Guadeloupe,country,Latin America and the Caribbean,16.995971,-62.067641,15632.6312289924,1988,0,0,0,0,0,0,0,0,0,0,0,0,0,0,0,0,0,0,0,0,0,0,0,0
CN,China,country,East Asia and Pacific,35.86166,104.195397,GP,Guadeloupe,country,Latin America and the Caribbean,16.995971,-62.067641,13977.8503357284,1988,119,2,0,0,1,0,5,2,47,0,3,0,2,3,0,0,0,54,0,0,0,0,0,0
TW,Taiwan,country,East Asia and Pacific,23.69781,120.960515,GP,Guadeloupe,country,Latin America and the Caribbean,16.995971,-62.067641,15495.5494641406,1988,6,0,0,0,0,0,0,6,0,0,0,0,0,0,0,0,0,0,0,0,0,0,0,0
CO,Colombia,country,Latin America and the Caribbean,4.570868,-74.297333,GP,Guadeloupe,country,Latin America and the Caribbean,16.995971,-62.067641,1921.88282820051,1988,64,0,0,0,0,0,0,0,31,0,0,0,1,32,0,0,0,0,0,0,0,0,0,0
KM,Comoros,country,Sub-Saharan Africa,-11.875001,43.872219,GP,Guadeloupe,country,Latin America and the Caribbean,16.995971,-62.067641,12077.2110869612,1988,2,0,0,0,0,0,0,0,0,0,2,0,0,0,0,0,0,0,0,0,0,0,0,0
CR,Costa Rica,country,Latin America and the Caribbean,9.748917,-83.753428,GP,Guadeloupe,country,Latin America and the Caribbean,16.995971,-62.067641,2480.83563357621,1988,0,0,0,0,0,0,0,0,0,0,0,0,0,0,0,0,0,0,0,0,0,0,0,0
CI,Ivory Coast,country,Sub-Saharan Africa,7.539989,-5.54708,GP,Guadeloupe,country,Latin America and the Caribbean,16.995971,-62.067641,6217.36360789427,1988,55,0,0,0,0,0,0,0,0,0,0,0,55,0,0,0,0,0,0,0,0,0,0,0
CU,Cuba,country,Latin America and the Caribbean,21.521757,-77.781167,GP,Guadeloupe,country,Latin America and the Caribbean,16.995971,-62.067641,1725.37159765275,1988,1173,0,0,0,0,0,0,0,1157,0,0,0,16,0,0,0,0,0,0,0,0,0,0,0
CY,Cyprus,country,Europe and Central Asia,35.126413,33.429859,GP,Guadeloupe,country,Latin America and the Caribbean,16.995971,-62.067641,9423.1036547074,1988,3,0,0,0,0,0,0,0,1,0,0,0,0,0,0,0,0,2,0,0,0,0,0,0
CD,"Congo, Dem. Rep.",country,Sub-Saharan Africa,-4.038333,21.758664,GP,Guadeloupe,country,Latin America and the Caribbean,16.995971,-62.067641,9495.12411576815,1988,15,0,0,0,0,0,0,0,0,0,0,0,15,0,0,0,0,0,0,0,0,0,0,0
DK,Denmark,country,Europe and Central Asia,56.26392,9.501785,GP,Guadeloupe,country,Latin America and the Caribbean,16.995971,-62.067641,7317.31886354839,1988,544,4,0,0,0,0,0,0,0,0,0,0,0,2,0,296,0,238,4,0,0,0,0,0
DM,Dominica,country,Latin America and the Caribbean,15.414999,-61.370976,GP,Guadeloupe,country,Latin America and the Caribbean,16.995971,-62.067641,191.099500424979,1988,178,0,8,0,0,0,0,0,146,0,0,0,0,24,0,0,0,0,0,0,0,0,0,0
DO,Dominican Republic,country,Latin America and the Caribbean,18.735693,-70.162651,GP,Guadeloupe,country,Latin America and the Caribbean,16.995971,-62.067641,879.162881932485,1988,567,122,0,0,0,0,0,17,428,0,0,0,0,0,0,0,0,0,0,0,0,0,0,0
EC,Ecuador,country,Latin America and the Caribbean,-1.831239,-78.183406,GP,Guadeloupe,country,Latin America and the Caribbean,16.995971,-62.067641,2743.07840254958,1988,18,0,0,0,0,0,0,0,0,0,0,0,18,0,0,0,0,0,0,0,0,0,0,0
EG,Egypt,country,Middle East and North Africa,26.820553,30.802498,GP,Guadeloupe,country,Latin America and the Caribbean,16.995971,-62.067641,9449.36878316386,1988,4,0,0,0,0,0,0,0,0,0,0,0,0,0,0,4,0,0,0,0,0,0,0,0
ET,Ethiopia,country,Sub-Saharan Africa,9.145,40.489673,GP,Guadeloupe,country,Latin America and the Caribbean,16.995971,-62.067641,11036.0422161074,1988,67,0,0,0,0,0,0,0,0,0,0,0,67,0,0,0,0,0,0,0,0,0,0,0
FR,France,country,Europe and Central Asia,46.227638,2.213749,GP,Guadeloupe,country,Latin America and the Caribbean,16.995971,-62.067641,6692.67180493721,1988,159743,66848,6567,1775,581,111,128,7982,4317,3,36,6439,594,2093,6004,23837,214,15044,17384,0,0,0,0,0
GF,French Guiana,country,Latin America and the Caribbean,3.933889,-53.125782,GP,Guadeloupe,country,Latin America and the Caribbean,16.995971,-62.067641,1751.51247101381,1988,2765,2664,0,0,0,0,0,0,94,0,0,0,0,0,0,0,0,7,0,0,0,0,0,0
GR,Greece,country,Europe and Central Asia,39.074208,21.824312,GP,Guadeloupe,country,Latin America and the Caribbean,16.995971,-62.067641,8319.72571234547,1988,27,0,0,0,0,0,0,0,27,0,0,0,0,0,0,0,0,0,0,0,0,0,0,0
HT,Haiti,country,Latin America and the Caribbean,18.971187,-72.285215,GP,Guadeloupe,country,Latin America and the Caribbean,16.995971,-62.067641,1103.76197810828,1988,22,0,0,0,0,0,0,1,21,0,0,0,0,0,0,0,0,0,0,0,0,0,0,0
HU,Hungary,country,Europe and Central Asia,47.162494,19.503304,GP,Guadeloupe,country,Latin America and the Caribbean,16.995971,-62.067641,8010.71987938199,1988,2,0,0,0,0,0,0,0,0,0,0,0,0,0,0,0,0,2,0,0,0,0,0,0
IN,India,country,South Asia,20.593684,78.96288,GP,Guadeloupe,country,Latin America and the Caribbean,16.995971,-62.067641,14069.0305521529,1988,12,0,0,0,0,4,1,0,0,0,7,0,0,0,0,0,0,0,0,0,0,0,0,0
ID,Indonesia,country,East Asia and Pacific,-0.789275,113.921327,GP,Guadeloupe,country,Latin America and the Caribbean,16.995971,-62.067641,18180.6132300637,1988,2,0,0,0,0,0,0,0,0,0,2,0,0,0,0,0,0,0,0,0,0,0,0,0
IR,Iran,country,Middle East and North Africa,32.427908,53.688046,GP,Guadeloupe,country,Latin America and the Caribbean,16.995971,-62.067641,11264.0912996677,1988,0,0,0,0,0,0,0,0,0,0,0,0,0,0,0,0,0,0,0,0,0,0,0,0
IE,Ireland,country,Europe and Central Asia,53.41291,-8.24389,GP,Guadeloupe,country,Latin America and the Caribbean,16.995971,-62.067641,6141.3057713192,1988,23,0,0,0,0,0,0,0,0,0,0,0,0,4,0,0,0,19,0,0,0,0,0,0
IL,Israel,country,Middle East and North Africa,31.046051,34.851612,GP,Guadeloupe,country,Latin America and the Caribbean,16.995971,-62.067641,9686.66253103265,1988,64,0,0,0,0,0,0,9,55,0,0,0,0,0,0,0,0,0,0,0,0,0,0,0
IT,Italy,country,Europe and Central Asia,41.87194,12.56738,GP,Guadeloupe,country,Latin America and the Caribbean,16.995971,-62.067641,7506.41664024834,1988,500,148,0,23,0,0,0,224,52,0,0,0,2,11,0,13,0,8,19,0,0,0,0,0
JM,Jamaica,country,Latin America and the Caribbean,18.109581,-77.297508,GP,Guadeloupe,country,Latin America and the Caribbean,16.995971,-62.067641,1620.72258136984,1988,1,0,0,0,0,0,0,0,0,0,1,0,0,0,0,0,0,0,0,0,0,0,0,0
JP,Japan,country,East Asia and Pacific,36.204824,138.252924,GP,Guadeloupe,country,Latin America and the Caribbean,16.995971,-62.067641,13740.6949629498,1988,1,0,0,0,0,0,0,0,0,0,0,0,0,1,0,0,0,0,0,0,0,0,0,0
KE,Kenya,country,Sub-Saharan Africa,-0.023559,37.906193,GP,Guadeloupe,country,Latin America and the Caribbean,16.995971,-62.067641,11080.8590588682,1988,3,0,0,0,0,0,0,3,0,0,0,0,0,0,0,0,0,0,0,0,0,0,0,0
LB,Lebanon,country,Middle East and North Africa,33.854721,35.862285,GP,Guadeloupe,country,Latin America and the Caribbean,16.995971,-62.067641,9678.81320137473,1988,4,3,0,0,0,0,0,0,0,0,0,0,0,1,0,0,0,0,0,0,0,0,0,0
MG,Madagascar,country,Sub-Saharan Africa,-18.766947,46.869107,GP,Guadeloupe,country,Latin America and the Caribbean,16.995971,-62.067641,12559.4356253887,1988,233,0,0,0,0,0,1,0,0,0,11,0,221,0,0,0,0,0,0,0,0,0,0,0
MY,Malaysia,country,East Asia and Pacific,4.210484,101.975766,GP,Guadeloupe,country,Latin America and the Caribbean,16.995971,-62.067641,17096.1466726557,1988,52,0,0,0,0,0,0,0,52,0,0,0,0,0,0,0,0,0,0,0,0,0,0,0
MU,Mauritius,country,Sub-Saharan Africa,-20.348404,57.552152,GP,Guadeloupe,country,Latin America and the Caribbean,16.995971,-62.067641,13693.5433324408,1988,0,0,0,0,0,0,0,0,0,0,0,0,0,0,0,0,0,0,0,0,0,0,0,0
MX,Mexico,country,Latin America and the Caribbean,23.634501,-102.552784,GP,Guadeloupe,country,Latin America and the Caribbean,16.995971,-62.067641,4276.32610671586,1988,152,0,0,0,2,0,0,150,0,0,0,0,0,0,0,0,0,0,0,0,0,0,0,0
MA,Morocco,country,Middle East and North Africa,31.791702,-7.09262,GP,Guadeloupe,country,Latin America and the Caribbean,16.995971,-62.067641,5749.22911612346,1988,90,0,0,0,0,0,17,22,29,0,10,0,0,12,0,0,0,0,0,0,0,0,0,0
NL,Netherlands,country,Europe and Central Asia,52.132633,5.291266,GP,Guadeloupe,country,Latin America and the Caribbean,16.995971,-62.067641,6993.46468732544,1988,9145,9,585,21,0,0,0,2171,79,0,0,0,31,240,484,4768,0,686,71,0,0,0,0,0
NZ,New Zealand,country,East Asia and Pacific,-40.900557,174.885971,GP,Guadeloupe,country,Latin America and the Caribbean,16.995971,-62.067641,14008.7379941618,1988,1951,0,0,0,0,0,0,0,251,0,0,0,0,0,0,0,0,1700,0,0,0,0,0,0
PG,Papua New Guinea,country,East Asia and Pacific,-6.314993,143.95555,GP,Guadeloupe,country,Latin America and the Caribbean,16.995971,-62.067641,16966.5161108476,1988,10,0,0,0,0,0,0,0,0,0,0,0,0,0,0,0,0,10,0,0,0,0,0,0
PE,Peru,country,Latin America and the Caribbean,-9.189967,-75.015152,GP,Guadeloupe,country,Latin America and the Caribbean,16.995971,-62.067641,3244.73483360558,1988,2,0,0,0,0,0,0,2,0,0,0,0,0,0,0,0,0,0,0,0,0,0,0,0
PL,Poland,country,Europe and Central Asia,51.919438,19.145136,GP,Guadeloupe,country,Latin America and the Caribbean,16.995971,-62.067641,7939.91630739586,1988,3,0,0,0,0,0,0,0,0,0,0,0,0,0,0,0,0,3,0,0,0,0,0,0
PT,Portugal,country,Europe and Central Asia,39.399872,-8.224454,GP,Guadeloupe,country,Latin America and the Caribbean,16.995971,-62.067641,5740.94362864755,1988,85,0,0,0,0,0,0,0,1,0,0,0,0,0,0,84,0,0,0,0,0,0,0,0
KR,"Korea, Rep.",country,East Asia and Pacific,35.907757,127.766922,GP,Guadeloupe,country,Latin America and the Caribbean,16.995971,-62.067641,14057.7555601897,1988,0,0,0,0,0,0,0,0,0,0,0,0,0,0,0,0,0,0,0,0,0,0,0,0
RE,Reunion,country,Sub-Saharan Africa,-21.115141,55.536384,GP,Guadeloupe,country,Latin America and the Caribbean,16.995971,-62.067641,13496.718745588,1988,0,0,0,0,0,0,0,0,0,0,0,0,0,0,0,0,0,0,0,0,0,0,0,0
VC,St. Vincent & Grenadines,country,Latin America and the Caribbean,12.984305,-61.287228,GP,Guadeloupe,country,Latin America and the Caribbean,16.995971,-62.067641,454.389198263739,1988,4089,0,0,0,0,0,0,0,0,0,0,4089,0,0,0,0,0,0,0,0,0,0,0,0
SN,Senegal,country,Sub-Saharan Africa,14.497401,-14.452362,GP,Guadeloupe,country,Latin America and the Caribbean,16.995971,-62.067641,5097.12832568338,1988,17,0,0,0,0,0,0,0,0,0,0,0,0,0,17,0,0,0,0,0,0,0,0,0
SG,Singapore,country,East Asia and Pacific,1.352083,103.819836,GP,Guadeloupe,country,Latin America and the Caribbean,16.995971,-62.067641,17473.928010512,1988,0,0,0,0,0,0,0,0,0,0,0,0,0,0,0,0,0,0,0,0,0,0,0,0
ZA,S. Africa,country,Sub-Saharan Africa,-30.559482,22.937506,GP,Guadeloupe,country,Latin America and the Caribbean,16.995971,-62.067641,10509.8367686556,1988,127,0,0,0,0,0,0,0,127,0,0,0,0,0,0,0,0,0,0,0,0,0,0,0
ES,Spain,country,Europe and Central Asia,40.463667,-3.74922,GP,Guadeloupe,country,Latin America and the Caribbean,16.995971,-62.067641,6136.20664341074,1988,715,96,0,21,0,0,0,215,141,0,0,0,0,0,0,239,0,3,0,0,0,0,0,0
LK,Sri Lanka,country,South Asia,7.873054,80.771797,GP,Guadeloupe,country,Latin America and the Caribbean,16.995971,-62.067641,15098.9665787968,1988,48,0,0,0,0,0,27,0,19,0,0,0,2,0,0,0,0,0,0,0,0,0,0,0
SR,Suriname,country,Latin America and the Caribbean,3.919305,-56.027783,GP,Guadeloupe,country,Latin America and the Caribbean,16.995971,-62.067641,1598.15068629132,1988,4962,4962,0,0,0,0,0,0,0,0,0,0,0,0,0,0,0,0,0,0,0,0,0,0
SE,Sweden,country,Europe and Central Asia,60.128161,18.643501,GP,Guadeloupe,country,Latin America and the Caribbean,16.995971,-62.067641,7871.3901256359,1988,0,0,0,0,0,0,0,0,0,0,0,0,0,0,0,0,0,0,0,0,0,0,0,0
CH,Switzerland,country,Europe and Central Asia,46.818188,8.227512,GP,Guadeloupe,country,Latin America and the Caribbean,16.995971,-62.067641,7156.83786682218,1988,39,3,0,0,0,0,0,0,2,0,0,0,0,0,0,34,0,0,0,0,0,0,0,0
TH,Thailand,country,East Asia and Pacific,15.870032,100.992541,GP,Guadeloupe,country,Latin America and the Caribbean,16.995971,-62.067641,15933.4877847672,1988,1361,1352,0,0,0,0,0,0,8,0,0,1,0,0,0,0,0,0,0,0,0,0,0,0
TT,Trinidad and Tobago,country,Latin America and the Caribbean,10.691803,-61.222503,GP,Guadeloupe,country,Latin America and the Caribbean,16.995971,-62.067641,707.689920966514,1988,186,0,0,0,0,0,0,0,0,0,0,9,0,0,0,177,0,0,0,0,0,0,0,0
TN,Tunisia,country,Middle East and North Africa,33.886917,9.537499,GP,Guadeloupe,country,Latin America and the Caribbean,16.995971,-62.067641,7299.80909576956,1988,0,0,0,0,0,0,0,0,0,0,0,0,0,0,0,0,0,0,0,0,0,0,0,0
TR,Turkey,country,Europe and Central Asia,38.963745,35.243322,GP,Guadeloupe,country,Latin America and the Caribbean,16.995971,-62.067641,9449.16378627562,1988,657,0,0,0,627,0,0,0,21,0,9,0,0,0,0,0,0,0,0,0,0,0,0,0
GB,United Kingdom,country,Europe and Central Asia,55.378051,-3.435973,GP,Guadeloupe,country,Latin America and the Caribbean,16.995971,-62.067641,6505.63680614062,1988,1073,3,0,0,0,25,0,3,4,0,0,0,2,41,0,954,0,41,0,0,0,0,0,0
TZ,Tanzania,country,Sub-Saharan Africa,-6.369028,34.888822,GP,Guadeloupe,country,Latin America and the Caribbean,16.995971,-62.067641,10963.2092973843,1988,13,0,0,0,13,0,0,0,0,0,0,0,0,0,0,0,0,0,0,0,0,0,0,0
US,USA,country,North America,37.09024,-95.712891,GP,Guadeloupe,country,Latin America and the Caribbean,16.995971,-62.067641,3982.23269396315,1988,6159,665,18,8,1210,3,5,407,180,0,1,2698,0,60,72,461,0,371,0,0,0,0,0,0
UY,Uruguay,country,Latin America and the Caribbean,-32.522779,-55.765835,GP,Guadeloupe,country,Latin America and the Caribbean,16.995971,-62.067641,5553.14843615094,1988,73,0,0,0,0,0,0,3,0,0,0,0,0,0,0,0,0,70,0,0,0,0,0,0
RU,Russian Federation,country,Europe and Central Asia,61.52401,105.318756,GP,Guadeloupe,country,Latin America and the Caribbean,16.995971,-62.067641,11225.1611337912,1988,2,0,0,0,0,0,0,0,0,0,0,0,0,0,0,2,0,0,0,0,0,0,0,0
VE,Venezuela,country,Latin America and the Caribbean,6.42375,-66.58973,GP,Guadeloupe,country,Latin America and the Caribbean,16.995971,-62.067641,1275.64335033501,1988,3,0,0,0,0,0,0,1,2,0,0,0,0,0,0,0,0,0,0,0,0,0,0,0
DZ,Algeria,country,Middle East and North Africa,28.033886,1.659626,GP,Guadeloupe,country,Latin America and the Caribbean,16.995971,-62.067641,6597.66121886657,1989,2,0,0,0,0,0,0,0,0,0,0,0,0,0,0,2,0,0,0,0,0,0,0,0
AO,Angola,country,Sub-Saharan Africa,-11.202692,17.873887,GP,Guadeloupe,country,Latin America and the Caribbean,16.995971,-62.067641,9334.6402811809,1989,3,0,0,0,3,0,0,0,0,0,0,0,0,0,0,0,0,0,0,0,0,0,0,0
AR,Argentina,country,Latin America and the Caribbean,-38.416097,-63.616672,GP,Guadeloupe,country,Latin America and the Caribbean,16.995971,-62.067641,6170.56439943012,1989,263,0,0,0,0,0,9,168,5,0,0,0,3,0,0,0,0,78,0,0,0,0,0,0
AU,Australia,country,East Asia and Pacific,-25.274398,133.775136,GP,Guadeloupe,country,Latin America and the Caribbean,16.995971,-62.067641,18154.3964808916,1989,108,0,0,0,0,0,0,0,35,0,0,0,0,0,0,0,0,73,0,0,0,0,0,0
AT,Austria,country,Europe and Central Asia,47.516231,14.550072,GP,Guadeloupe,country,Latin America and the Caribbean,16.995971,-62.067641,7635.30671235295,1989,0,0,0,0,0,0,0,0,0,0,0,0,0,0,0,0,0,0,0,0,0,0,0,0
BE,Belgium,country,Europe and Central Asia,50.503887,4.469936,GP,Guadeloupe,country,Latin America and the Caribbean,16.995971,-62.067641,6914.35191690583,1989,3429,376,8,9,0,0,0,142,125,0,0,0,21,55,46,2188,0,344,115,0,0,0,0,0
BW,Botswana,country,Sub-Saharan Africa,-22.328474,24.684866,GP,Guadeloupe,country,Latin America and the Caribbean,16.995971,-62.067641,10407.6668475724,1989,15,0,0,0,0,0,0,0,0,0,0,0,0,0,0,0,0,15,0,0,0,0,0,0
BR,Brazil,country,Latin America and the Caribbean,-14.235004,-51.92528,GP,Guadeloupe,country,Latin America and the Caribbean,16.995971,-62.067641,3650.90150224004,1989,189,0,0,0,0,4,0,2,21,0,24,0,0,0,0,23,0,115,0,0,0,0,0,0
CM,Cameroon,country,Sub-Saharan Africa,7.369722,12.354722,GP,Guadeloupe,country,Latin America and the Caribbean,16.995971,-62.067641,8127.54728057831,1989,6,0,0,0,0,0,0,0,0,0,0,0,6,0,0,0,0,0,0,0,0,0,0,0
CA,Canada,country,North America,56.130366,-106.346771,GP,Guadeloupe,country,Latin America and the Caribbean,16.995971,-62.067641,5718.5745838192,1989,24,0,0,0,0,0,0,0,0,0,0,0,0,19,0,1,0,4,0,0,0,0,0,0
CF,Central African Rep.,country,Sub-Saharan Africa,6.611111,20.939444,GP,Guadeloupe,country,Latin America and the Caribbean,16.995971,-62.067641,9062.87232890515,1989,72,0,0,0,0,0,0,0,0,0,0,0,72,0,0,0,0,0,0,0,0,0,0,0
TD,Chad,country,Sub-Saharan Africa,15.454166,18.732207,GP,Guadeloupe,country,Latin America and the Caribbean,16.995971,-62.067641,8569.56365053676,1989,4,0,0,0,0,0,0,0,0,4,0,0,0,0,0,0,0,0,0,0,0,0,0,0
CL,Chile,country,Latin America and the Caribbean,-35.675147,-71.542969,GP,Guadeloupe,country,Latin America and the Caribbean,16.995971,-62.067641,5947.91259429518,1989,150,0,0,0,1,0,0,1,125,0,0,0,0,0,0,0,0,23,0,0,0,0,0,0
HK,Hong Kong,country,East Asia and Pacific,22.396428,114.109497,GP,Guadeloupe,country,Latin America and the Caribbean,16.995971,-62.067641,15632.6312289924,1989,0,0,0,0,0,0,0,0,0,0,0,0,0,0,0,0,0,0,0,0,0,0,0,0
CN,China,country,East Asia and Pacific,35.86166,104.195397,GP,Guadeloupe,country,Latin America and the Caribbean,16.995971,-62.067641,13977.8503357284,1989,102,0,0,0,19,0,5,2,7,0,0,0,3,4,0,1,0,61,0,0,0,0,0,0
TW,Taiwan,country,East Asia and Pacific,23.69781,120.960515,GP,Guadeloupe,country,Latin America and the Caribbean,16.995971,-62.067641,15495.5494641406,1989,9,0,0,0,0,0,0,7,0,0,0,0,0,0,0,2,0,0,0,0,0,0,0,0
CO,Colombia,country,Latin America and the Caribbean,4.570868,-74.297333,GP,Guadeloupe,country,Latin America and the Caribbean,16.995971,-62.067641,1921.88282820051,1989,76,0,0,0,0,0,0,0,24,0,0,0,5,47,0,0,0,0,0,0,0,0,0,0
KM,Comoros,country,Sub-Saharan Africa,-11.875001,43.872219,GP,Guadeloupe,country,Latin America and the Caribbean,16.995971,-62.067641,12077.2110869612,1989,0,0,0,0,0,0,0,0,0,0,0,0,0,0,0,0,0,0,0,0,0,0,0,0
CI,Ivory Coast,country,Sub-Saharan Africa,7.539989,-5.54708,GP,Guadeloupe,country,Latin America and the Caribbean,16.995971,-62.067641,6217.36360789427,1989,31,0,1,0,0,0,0,0,0,0,0,0,30,0,0,0,0,0,0,0,0,0,0,0
CU,Cuba,country,Latin America and the Caribbean,21.521757,-77.781167,GP,Guadeloupe,country,Latin America and the Caribbean,16.995971,-62.067641,1725.37159765275,1989,467,0,0,0,0,0,0,0,457,0,0,0,10,0,0,0,0,0,0,0,0,0,0,0
CY,Cyprus,country,Europe and Central Asia,35.126413,33.429859,GP,Guadeloupe,country,Latin America and the Caribbean,16.995971,-62.067641,9423.1036547074,1989,7,0,0,0,0,0,0,0,0,0,0,0,0,0,0,0,0,7,0,0,0,0,0,0
CZ,Czech Republic,country,Europe and Central Asia,49.817492,15.472962,GP,Guadeloupe,country,Latin America and the Caribbean,16.995971,-62.067641,7694.18047845099,1989,22,0,0,0,22,0,0,0,0,0,0,0,0,0,0,0,0,0,0,0,0,0,0,0
DK,Denmark,country,Europe and Central Asia,56.26392,9.501785,GP,Guadeloupe,country,Latin America and the Caribbean,16.995971,-62.067641,7317.31886354839,1989,460,3,0,10,0,0,0,0,0,0,0,0,0,0,0,200,0,240,7,0,0,0,0,0
DM,Dominica,country,Latin America and the Caribbean,15.414999,-61.370976,GP,Guadeloupe,country,Latin America and the Caribbean,16.995971,-62.067641,191.099500424979,1989,569,0,81,0,0,0,0,0,446,0,0,0,0,42,0,0,0,0,0,0,0,0,0,0
DO,Dominican Republic,country,Latin America and the Caribbean,18.735693,-70.162651,GP,Guadeloupe,country,Latin America and the Caribbean,16.995971,-62.067641,879.162881932485,1989,1372,144,8,0,6,0,0,139,1065,0,0,0,0,10,0,0,0,0,0,0,0,0,0,0
EG,Egypt,country,Middle East and North Africa,26.820553,30.802498,GP,Guadeloupe,country,Latin America and the Caribbean,16.995971,-62.067641,9449.36878316386,1989,6,0,0,0,0,0,0,6,0,0,0,0,0,0,0,0,0,0,0,0,0,0,0,0
ET,Ethiopia,country,Sub-Saharan Africa,9.145,40.489673,GP,Guadeloupe,country,Latin America and the Caribbean,16.995971,-62.067641,11036.0422161074,1989,153,0,0,0,0,0,0,0,0,0,0,0,153,0,0,0,0,0,0,0,0,0,0,0
FR,France,country,Europe and Central Asia,46.227638,2.213749,GP,Guadeloupe,country,Latin America and the Caribbean,16.995971,-62.067641,6692.67180493721,1989,155936,53177,6543,2011,701,116,133,7983,4858,5,55,9475,756,2124,6206,25890,37,15627,20276,0,0,0,0,0
GF,French Guiana,country,Latin America and the Caribbean,3.933889,-53.125782,GP,Guadeloupe,country,Latin America and the Caribbean,16.995971,-62.067641,1751.51247101381,1989,3063,3001,0,0,0,0,0,0,62,0,0,0,0,0,0,0,0,0,0,0,0,0,0,0
GR,Greece,country,Europe and Central Asia,39.074208,21.824312,GP,Guadeloupe,country,Latin America and the Caribbean,16.995971,-62.067641,8319.72571234547,1989,47,16,0,0,0,0,0,0,30,0,0,0,0,0,0,0,0,1,0,0,0,0,0,0
GD,Grenada,country,Latin America and the Caribbean,12.262776,-61.604171,GP,Guadeloupe,country,Latin America and the Caribbean,16.995971,-62.067641,529.254810590803,1989,50,0,0,0,0,0,0,0,0,0,0,50,0,0,0,0,0,0,0,0,0,0,0,0
GT,Guatemala,country,Latin America and the Caribbean,15.783471,-90.230759,GP,Guadeloupe,country,Latin America and the Caribbean,16.995971,-62.067641,3008.20130194535,1989,9,0,0,0,0,0,0,0,0,0,0,0,9,0,0,0,0,0,0,0,0,0,0,0
HT,Haiti,country,Latin America and the Caribbean,18.971187,-72.285215,GP,Guadeloupe,country,Latin America and the Caribbean,16.995971,-62.067641,1103.76197810828,1989,13,0,2,0,0,0,0,9,0,0,0,0,2,0,0,0,0,0,0,0,0,0,0,0
HU,Hungary,country,Europe and Central Asia,47.162494,19.503304,GP,Guadeloupe,country,Latin America and the Caribbean,16.995971,-62.067641,8010.71987938199,1989,0,0,0,0,0,0,0,0,0,0,0,0,0,0,0,0,0,0,0,0,0,0,0,0
IN,India,country,South Asia,20.593684,78.96288,GP,Guadeloupe,country,Latin America and the Caribbean,16.995971,-62.067641,14069.0305521529,1989,12,0,0,0,0,4,0,0,4,0,4,0,0,0,0,0,0,0,0,0,0,0,0,0
ID,Indonesia,country,East Asia and Pacific,-0.789275,113.921327,GP,Guadeloupe,country,Latin America and the Caribbean,16.995971,-62.067641,18180.6132300637,1989,2,0,0,0,0,0,0,0,0,0,2,0,0,0,0,0,0,0,0,0,0,0,0,0
IR,Iran,country,Middle East and North Africa,32.427908,53.688046,GP,Guadeloupe,country,Latin America and the Caribbean,16.995971,-62.067641,11264.0912996677,1989,0,0,0,0,0,0,0,0,0,0,0,0,0,0,0,0,0,0,0,0,0,0,0,0
IQ,Iraq,country,Middle East and North Africa,33.223191,43.679291,GP,Guadeloupe,country,Latin America and the Caribbean,16.995971,-62.067641,10382.2421754358,1989,0,0,0,0,0,0,0,0,0,0,0,0,0,0,0,0,0,0,0,0,0,0,0,0
IE,Ireland,country,Europe and Central Asia,53.41291,-8.24389,GP,Guadeloupe,country,Latin America and the Caribbean,16.995971,-62.067641,6141.3057713192,1989,29,0,0,0,0,0,0,0,0,0,0,0,0,0,0,0,0,15,14,0,0,0,0,0
IL,Israel,country,Middle East and North Africa,31.046051,34.851612,GP,Guadeloupe,country,Latin America and the Caribbean,16.995971,-62.067641,9686.66253103265,1989,9,0,0,0,0,0,0,0,9,0,0,0,0,0,0,0,0,0,0,0,0,0,0,0
IT,Italy,country,Europe and Central Asia,41.87194,12.56738,GP,Guadeloupe,country,Latin America and the Caribbean,16.995971,-62.067641,7506.41664024834,1989,337,149,0,3,0,0,0,46,36,0,0,0,2,11,30,58,0,2,0,0,0,0,0,0
JP,Japan,country,East Asia and Pacific,36.204824,138.252924,GP,Guadeloupe,country,Latin America and the Caribbean,16.995971,-62.067641,13740.6949629498,1989,0,0,0,0,0,0,0,0,0,0,0,0,0,0,0,0,0,0,0,0,0,0,0,0
KE,Kenya,country,Sub-Saharan Africa,-0.023559,37.906193,GP,Guadeloupe,country,Latin America and the Caribbean,16.995971,-62.067641,11080.8590588682,1989,5,0,0,0,0,0,0,4,0,0,0,0,1,0,0,0,0,0,0,0,0,0,0,0
LB,Lebanon,country,Middle East and North Africa,33.854721,35.862285,GP,Guadeloupe,country,Latin America and the Caribbean,16.995971,-62.067641,9678.81320137473,1989,0,0,0,0,0,0,0,0,0,0,0,0,0,0,0,0,0,0,0,0,0,0,0,0
MG,Madagascar,country,Sub-Saharan Africa,-18.766947,46.869107,GP,Guadeloupe,country,Latin America and the Caribbean,16.995971,-62.067641,12559.4356253887,1989,189,0,0,0,0,0,0,0,0,0,14,0,175,0,0,0,0,0,0,0,0,0,0,0
MW,Malawi,country,Sub-Saharan Africa,-13.254308,34.301525,GP,Guadeloupe,country,Latin America and the Caribbean,16.995971,-62.067641,11110.1466320208,1989,29,0,0,0,29,0,0,0,0,0,0,0,0,0,0,0,0,0,0,0,0,0,0,0
MY,Malaysia,country,East Asia and Pacific,4.210484,101.975766,GP,Guadeloupe,country,Latin America and the Caribbean,16.995971,-62.067641,17096.1466726557,1989,0,0,0,0,0,0,0,0,0,0,0,0,0,0,0,0,0,0,0,0,0,0,0,0
MU,Mauritius,country,Sub-Saharan Africa,-20.348404,57.552152,GP,Guadeloupe,country,Latin America and the Caribbean,16.995971,-62.067641,13693.5433324408,1989,0,0,0,0,0,0,0,0,0,0,0,0,0,0,0,0,0,0,0,0,0,0,0,0
MX,Mexico,country,Latin America and the Caribbean,23.634501,-102.552784,GP,Guadeloupe,country,Latin America and the Caribbean,16.995971,-62.067641,4276.32610671586,1989,123,0,0,0,0,0,0,123,0,0,0,0,0,0,0,0,0,0,0,0,0,0,0,0
MA,Morocco,country,Middle East and North Africa,31.791702,-7.09262,GP,Guadeloupe,country,Latin America and the Caribbean,16.995971,-62.067641,5749.22911612346,1989,117,0,0,0,0,0,32,19,37,0,12,0,0,17,0,0,0,0,0,0,0,0,0,0
NL,Netherlands,country,Europe and Central Asia,52.132633,5.291266,GP,Guadeloupe,country,Latin America and the Caribbean,16.995971,-62.067641,6993.46468732544,1989,8657,7,604,8,0,1,0,1926,33,0,0,18,34,237,465,4532,0,751,41,0,0,0,0,0
NZ,New Zealand,country,East Asia and Pacific,-40.900557,174.885971,GP,Guadeloupe,country,Latin America and the Caribbean,16.995971,-62.067641,14008.7379941618,1989,1929,0,0,0,0,0,0,0,158,0,0,0,0,0,0,0,0,1771,0,0,0,0,0,0
NE,Niger,country,Sub-Saharan Africa,17.607789,8.081666,GP,Guadeloupe,country,Latin America and the Caribbean,16.995971,-62.067641,7408.32092371897,1989,2,0,0,0,0,0,0,2,0,0,0,0,0,0,0,0,0,0,0,0,0,0,0,0
PA,Panama,country,Latin America and the Caribbean,8.537981,-80.782127,GP,Guadeloupe,country,Latin America and the Caribbean,16.995971,-62.067641,2236.99523945263,1989,0,0,0,0,0,0,0,0,0,0,0,0,0,0,0,0,0,0,0,0,0,0,0,0
PL,Poland,country,Europe and Central Asia,51.919438,19.145136,GP,Guadeloupe,country,Latin America and the Caribbean,16.995971,-62.067641,7939.91630739586,1989,0,0,0,0,0,0,0,0,0,0,0,0,0,0,0,0,0,0,0,0,0,0,0,0
PT,Portugal,country,Europe and Central Asia,39.399872,-8.224454,GP,Guadeloupe,country,Latin America and the Caribbean,16.995971,-62.067641,5740.94362864755,1989,19,0,0,0,0,0,0,0,0,0,0,0,0,0,0,19,0,0,0,0,0,0,0,0
RE,Reunion,country,Sub-Saharan Africa,-21.115141,55.536384,GP,Guadeloupe,country,Latin America and the Caribbean,16.995971,-62.067641,13496.718745588,1989,0,0,0,0,0,0,0,0,0,0,0,0,0,0,0,0,0,0,0,0,0,0,0,0
RO,Romania,country,Europe and Central Asia,45.943161,24.96676,GP,Guadeloupe,country,Latin America and the Caribbean,16.995971,-62.067641,8443.52971744368,1989,9,0,0,0,0,0,0,0,0,0,0,0,0,0,0,0,0,9,0,0,0,0,0,0
VC,St. Vincent & Grenadines,country,Latin America and the Caribbean,12.984305,-61.287228,GP,Guadeloupe,country,Latin America and the Caribbean,16.995971,-62.067641,454.389198263739,1989,216,52,0,0,0,0,0,0,22,0,0,142,0,0,0,0,0,0,0,0,0,0,0,0
SN,Senegal,country,Sub-Saharan Africa,14.497401,-14.452362,GP,Guadeloupe,country,Latin America and the Caribbean,16.995971,-62.067641,5097.12832568338,1989,9,0,0,0,0,0,0,0,0,0,0,0,0,0,9,0,0,0,0,0,0,0,0,0
SG,Singapore,country,East Asia and Pacific,1.352083,103.819836,GP,Guadeloupe,country,Latin America and the Caribbean,16.995971,-62.067641,17473.928010512,1989,0,0,0,0,0,0,0,0,0,0,0,0,0,0,0,0,0,0,0,0,0,0,0,0
ZA,S. Africa,country,Sub-Saharan Africa,-30.559482,22.937506,GP,Guadeloupe,country,Latin America and the Caribbean,16.995971,-62.067641,10509.8367686556,1989,93,0,0,0,0,0,0,0,93,0,0,0,0,0,0,0,0,0,0,0,0,0,0,0
ES,Spain,country,Europe and Central Asia,40.463667,-3.74922,GP,Guadeloupe,country,Latin America and the Caribbean,16.995971,-62.067641,6136.20664341074,1989,1095,466,3,44,0,0,0,162,166,0,0,0,5,1,0,248,0,0,0,0,0,0,0,0
LK,Sri Lanka,country,South Asia,7.873054,80.771797,GP,Guadeloupe,country,Latin America and the Caribbean,16.995971,-62.067641,15098.9665787968,1989,35,0,0,0,0,0,17,0,16,0,0,0,2,0,0,0,0,0,0,0,0,0,0,0
SR,Suriname,country,Latin America and the Caribbean,3.919305,-56.027783,GP,Guadeloupe,country,Latin America and the Caribbean,16.995971,-62.067641,1598.15068629132,1989,5130,5130,0,0,0,0,0,0,0,0,0,0,0,0,0,0,0,0,0,0,0,0,0,0
SE,Sweden,country,Europe and Central Asia,60.128161,18.643501,GP,Guadeloupe,country,Latin America and the Caribbean,16.995971,-62.067641,7871.3901256359,1989,5,1,0,0,0,0,0,0,0,0,0,0,0,0,0,4,0,0,0,0,0,0,0,0
CH,Switzerland,country,Europe and Central Asia,46.818188,8.227512,GP,Guadeloupe,country,Latin America and the Caribbean,16.995971,-62.067641,7156.83786682218,1989,49,0,0,0,0,0,0,0,30,0,0,0,0,0,0,19,0,0,0,0,0,0,0,0
TH,Thailand,country,East Asia and Pacific,15.870032,100.992541,GP,Guadeloupe,country,Latin America and the Caribbean,16.995971,-62.067641,15933.4877847672,1989,1707,1663,0,0,0,0,0,1,29,0,0,4,0,5,0,5,0,0,0,0,0,0,0,0
TT,Trinidad and Tobago,country,Latin America and the Caribbean,10.691803,-61.222503,GP,Guadeloupe,country,Latin America and the Caribbean,16.995971,-62.067641,707.689920966514,1989,1595,0,0,0,0,0,0,0,0,0,0,1250,0,0,0,345,0,0,0,0,0,0,0,0
TN,Tunisia,country,Middle East and North Africa,33.886917,9.537499,GP,Guadeloupe,country,Latin America and the Caribbean,16.995971,-62.067641,7299.80909576956,1989,0,0,0,0,0,0,0,0,0,0,0,0,0,0,0,0,0,0,0,0,0,0,0,0
TR,Turkey,country,Europe and Central Asia,38.963745,35.243322,GP,Guadeloupe,country,Latin America and the Caribbean,16.995971,-62.067641,9449.16378627562,1989,779,0,0,0,769,0,0,0,2,0,6,0,0,2,0,0,0,0,0,0,0,0,0,0
GB,United Kingdom,country,Europe and Central Asia,55.378051,-3.435973,GP,Guadeloupe,country,Latin America and the Caribbean,16.995971,-62.067641,6505.63680614062,1989,784,13,0,0,0,24,0,0,0,0,0,0,0,53,0,683,0,11,0,0,0,0,0,0
TZ,Tanzania,country,Sub-Saharan Africa,-6.369028,34.888822,GP,Guadeloupe,country,Latin America and the Caribbean,16.995971,-62.067641,10963.2092973843,1989,1,0,0,0,1,0,0,0,0,0,0,0,0,0,0,0,0,0,0,0,0,0,0,0
US,USA,country,North America,37.09024,-95.712891,GP,Guadeloupe,country,Latin America and the Caribbean,16.995971,-62.067641,3982.23269396315,1989,4514,1922,0,15,918,3,5,227,48,2,0,850,0,65,122,297,32,40,0,0,0,0,0,0
UY,Uruguay,country,Latin America and the Caribbean,-32.522779,-55.765835,GP,Guadeloupe,country,Latin America and the Caribbean,16.995971,-62.067641,5553.14843615094,1989,3,0,0,0,0,0,0,0,2,0,0,0,0,0,0,0,0,1,0,0,0,0,0,0
RU,Russian Federation,country,Europe and Central Asia,61.52401,105.318756,GP,Guadeloupe,country,Latin America and the Caribbean,16.995971,-62.067641,11225.1611337912,1989,2,0,0,0,0,0,0,0,0,0,0,0,0,0,0,2,0,0,0,0,0,0,0,0
VE,Venezuela,country,Latin America and the Caribbean,6.42375,-66.58973,GP,Guadeloupe,country,Latin America and the Caribbean,16.995971,-62.067641,1275.64335033501,1989,5,3,0,0,0,0,0,0,2,0,0,0,0,0,0,0,0,0,0,0,0,0,0,0
VN,Vietnam,country,East Asia and Pacific,14.058324,108.277199,GP,Guadeloupe,country,Latin America and the Caribbean,16.995971,-62.067641,16421.3680245071,1989,0,0,0,0,0,0,0,0,0,0,0,0,0,0,0,0,0,0,0,0,0,0,0,0
DZ,Algeria,country,Middle East and North Africa,28.033886,1.659626,GP,Guadeloupe,country,Latin America and the Caribbean,16.995971,-62.067641,6597.66121886657,1991,0,0,0,0,0,0,0,0,0,0,0,0,0,0,0,0,0,0,0,0,0,0,0,0
AR,Argentina,country,Latin America and the Caribbean,-38.416097,-63.616672,GP,Guadeloupe,country,Latin America and the Caribbean,16.995971,-62.067641,6170.56439943012,1991,240,0,0,0,2,0,5,88,43,0,0,0,0,0,0,0,0,102,0,0,0,0,0,0
AU,Australia,country,East Asia and Pacific,-25.274398,133.775136,GP,Guadeloupe,country,Latin America and the Caribbean,16.995971,-62.067641,18154.3964808916,1991,71,0,0,0,0,0,0,0,2,0,0,0,0,0,0,0,0,69,0,0,0,0,0,0
AT,Austria,country,Europe and Central Asia,47.516231,14.550072,GP,Guadeloupe,country,Latin America and the Caribbean,16.995971,-62.067641,7635.30671235295,1991,3,0,0,0,0,0,0,0,0,0,0,0,0,3,0,0,0,0,0,0,0,0,0,0
BB,Barbados,country,Latin America and the Caribbean,13.193887,-59.543198,GP,Guadeloupe,country,Latin America and the Caribbean,16.995971,-62.067641,502.712483869139,1991,29,29,0,0,0,0,0,0,0,0,0,0,0,0,0,0,0,0,0,0,0,0,0,0
BE,Belgium,country,Europe and Central Asia,50.503887,4.469936,GP,Guadeloupe,country,Latin America and the Caribbean,16.995971,-62.067641,6914.35191690583,1991,3665,242,14,31,0,0,0,276,181,0,0,0,9,73,171,2105,0,448,115,0,0,0,0,0
BW,Botswana,country,Sub-Saharan Africa,-22.328474,24.684866,GP,Guadeloupe,country,Latin America and the Caribbean,16.995971,-62.067641,10407.6668475724,1991,17,0,0,0,0,0,0,0,0,0,0,0,0,0,0,0,0,17,0,0,0,0,0,0
BR,Brazil,country,Latin America and the Caribbean,-14.235004,-51.92528,GP,Guadeloupe,country,Latin America and the Caribbean,16.995971,-62.067641,3650.90150224004,1991,302,0,0,0,0,0,0,5,139,0,25,0,61,0,0,0,0,72,0,0,0,0,0,0
CA,Canada,country,North America,56.130366,-106.346771,GP,Guadeloupe,country,Latin America and the Caribbean,16.995971,-62.067641,5718.5745838192,1991,199,2,10,2,0,0,0,70,23,0,0,0,0,33,0,17,0,42,0,0,0,0,0,0
CF,Central African Rep.,country,Sub-Saharan Africa,6.611111,20.939444,GP,Guadeloupe,country,Latin America and the Caribbean,16.995971,-62.067641,9062.87232890515,1991,62,0,0,0,0,0,0,0,0,0,0,0,62,0,0,0,0,0,0,0,0,0,0,0
TD,Chad,country,Sub-Saharan Africa,15.454166,18.732207,GP,Guadeloupe,country,Latin America and the Caribbean,16.995971,-62.067641,8569.56365053676,1991,2,0,0,0,0,0,0,0,0,2,0,0,0,0,0,0,0,0,0,0,0,0,0,0
CL,Chile,country,Latin America and the Caribbean,-35.675147,-71.542969,GP,Guadeloupe,country,Latin America and the Caribbean,16.995971,-62.067641,5947.91259429518,1991,212,0,0,0,0,0,0,9,176,0,0,0,0,0,0,0,0,27,0,0,0,0,0,0
HK,Hong Kong,country,East Asia and Pacific,22.396428,114.109497,GP,Guadeloupe,country,Latin America and the Caribbean,16.995971,-62.067641,15632.6312289924,1991,7,0,0,0,0,0,0,0,0,0,0,0,0,7,0,0,0,0,0,0,0,0,0,0
CN,China,country,East Asia and Pacific,35.86166,104.195397,GP,Guadeloupe,country,Latin America and the Caribbean,16.995971,-62.067641,13977.8503357284,1991,41,3,0,0,1,0,3,11,0,0,0,0,2,5,1,0,0,15,0,0,0,0,0,0
TW,Taiwan,country,East Asia and Pacific,23.69781,120.960515,GP,Guadeloupe,country,Latin America and the Caribbean,16.995971,-62.067641,15495.5494641406,1991,2,1,0,0,0,0,0,1,0,0,0,0,0,0,0,0,0,0,0,0,0,0,0,0
CO,Colombia,country,Latin America and the Caribbean,4.570868,-74.297333,GP,Guadeloupe,country,Latin America and the Caribbean,16.995971,-62.067641,1921.88282820051,1991,100,53,0,0,0,0,0,0,8,0,0,0,39,0,0,0,0,0,0,0,0,0,0,0
KM,Comoros,country,Sub-Saharan Africa,-11.875001,43.872219,GP,Guadeloupe,country,Latin America and the Caribbean,16.995971,-62.067641,12077.2110869612,1991,0,0,0,0,0,0,0,0,0,0,0,0,0,0,0,0,0,0,0,0,0,0,0,0
CR,Costa Rica,country,Latin America and the Caribbean,9.748917,-83.753428,GP,Guadeloupe,country,Latin America and the Caribbean,16.995971,-62.067641,2480.83563357621,1991,42,0,0,0,0,0,0,0,0,0,0,0,42,0,0,0,0,0,0,0,0,0,0,0
CI,Ivory Coast,country,Sub-Saharan Africa,7.539989,-5.54708,GP,Guadeloupe,country,Latin America and the Caribbean,16.995971,-62.067641,6217.36360789427,1991,8,0,0,0,0,0,0,0,0,0,0,0,8,0,0,0,0,0,0,0,0,0,0,0
CU,Cuba,country,Latin America and the Caribbean,21.521757,-77.781167,GP,Guadeloupe,country,Latin America and the Caribbean,16.995971,-62.067641,1725.37159765275,1991,364,0,0,0,0,0,0,0,364,0,0,0,0,0,0,0,0,0,0,0,0,0,0,0
CZ,Czech Republic,country,Europe and Central Asia,49.817492,15.472962,GP,Guadeloupe,country,Latin America and the Caribbean,16.995971,-62.067641,7694.18047845099,1991,2,0,0,0,2,0,0,0,0,0,0,0,0,0,0,0,0,0,0,0,0,0,0,0
DK,Denmark,country,Europe and Central Asia,56.26392,9.501785,GP,Guadeloupe,country,Latin America and the Caribbean,16.995971,-62.067641,7317.31886354839,1991,680,20,0,15,0,0,0,0,0,0,0,0,0,0,0,464,0,175,6,0,0,0,0,0
DM,Dominica,country,Latin America and the Caribbean,15.414999,-61.370976,GP,Guadeloupe,country,Latin America and the Caribbean,16.995971,-62.067641,191.099500424979,1991,300,0,22,0,0,0,0,0,275,0,0,0,0,3,0,0,0,0,0,0,0,0,0,0
DO,Dominican Republic,country,Latin America and the Caribbean,18.735693,-70.162651,GP,Guadeloupe,country,Latin America and the Caribbean,16.995971,-62.067641,879.162881932485,1991,3180,113,43,0,5,6,0,110,2888,0,1,0,0,14,0,0,0,0,0,0,0,0,0,0
EG,Egypt,country,Middle East and North Africa,26.820553,30.802498,GP,Guadeloupe,country,Latin America and the Caribbean,16.995971,-62.067641,9449.36878316386,1991,10,0,0,0,0,0,0,0,10,0,0,0,0,0,0,0,0,0,0,0,0,0,0,0
SV,El Salvador,country,Latin America and the Caribbean,13.794185,-88.89653,GP,Guadeloupe,country,Latin America and the Caribbean,16.995971,-62.067641,2899.05332485055,1991,0,0,0,0,0,0,0,0,0,0,0,0,0,0,0,0,0,0,0,0,0,0,0,0
ET,Ethiopia,country,Sub-Saharan Africa,9.145,40.489673,GP,Guadeloupe,country,Latin America and the Caribbean,16.995971,-62.067641,11036.0422161074,1991,121,0,0,0,0,0,0,0,0,0,0,0,121,0,0,0,0,0,0,0,0,0,0,0
FR,France,country,Europe and Central Asia,46.227638,2.213749,GP,Guadeloupe,country,Latin America and the Caribbean,16.995971,-62.067641,6692.67180493721,1991,156641,59265,6921,5133,741,108,79,6257,4087,4,100,5389,867,2501,6275,19862,102,17530,21522,0,0,0,0,0
GF,French Guiana,country,Latin America and the Caribbean,3.933889,-53.125782,GP,Guadeloupe,country,Latin America and the Caribbean,16.995971,-62.067641,1751.51247101381,1991,6349,6241,0,0,0,0,0,0,108,0,0,0,0,0,0,0,0,0,0,0,0,0,0,0
DE,Germany,country,Europe and Central Asia,51.165691,10.451526,GP,Guadeloupe,country,Latin America and the Caribbean,16.995971,-62.067641,7339.4428268203,1991,890,68,0,17,0,16,0,12,71,0,0,0,6,78,0,619,0,3,0,0,0,0,0,0
GR,Greece,country,Europe and Central Asia,39.074208,21.824312,GP,Guadeloupe,country,Latin America and the Caribbean,16.995971,-62.067641,8319.72571234547,1991,61,0,0,0,0,0,0,0,61,0,0,0,0,0,0,0,0,0,0,0,0,0,0,0
GT,Guatemala,country,Latin America and the Caribbean,15.783471,-90.230759,GP,Guadeloupe,country,Latin America and the Caribbean,16.995971,-62.067641,3008.20130194535,1991,12,0,0,0,0,0,0,2,0,0,0,0,10,0,0,0,0,0,0,0,0,0,0,0
HT,Haiti,country,Latin America and the Caribbean,18.971187,-72.285215,GP,Guadeloupe,country,Latin America and the Caribbean,16.995971,-62.067641,1103.76197810828,1991,26,0,1,0,0,0,0,0,0,0,0,0,25,0,0,0,0,0,0,0,0,0,0,0
HN,Honduras,country,Latin America and the Caribbean,15.199999,-86.241905,GP,Guadeloupe,country,Latin America and the Caribbean,16.995971,-62.067641,2591.63831974408,1991,0,0,0,0,0,0,0,0,0,0,0,0,0,0,0,0,0,0,0,0,0,0,0,0
HU,Hungary,country,Europe and Central Asia,47.162494,19.503304,GP,Guadeloupe,country,Latin America and the Caribbean,16.995971,-62.067641,8010.71987938199,1991,30,0,0,0,0,0,0,18,5,0,0,0,0,0,0,0,0,7,0,0,0,0,0,0
IN,India,country,South Asia,20.593684,78.96288,GP,Guadeloupe,country,Latin America and the Caribbean,16.995971,-62.067641,14069.0305521529,1991,8,0,0,0,0,5,1,0,0,0,2,0,0,0,0,0,0,0,0,0,0,0,0,0
ID,Indonesia,country,East Asia and Pacific,-0.789275,113.921327,GP,Guadeloupe,country,Latin America and the Caribbean,16.995971,-62.067641,18180.6132300637,1991,2,0,0,0,0,0,0,0,0,0,2,0,0,0,0,0,0,0,0,0,0,0,0,0
IR,Iran,country,Middle East and North Africa,32.427908,53.688046,GP,Guadeloupe,country,Latin America and the Caribbean,16.995971,-62.067641,11264.0912996677,1991,2,0,0,0,0,2,0,0,0,0,0,0,0,0,0,0,0,0,0,0,0,0,0,0
IE,Ireland,country,Europe and Central Asia,53.41291,-8.24389,GP,Guadeloupe,country,Latin America and the Caribbean,16.995971,-62.067641,6141.3057713192,1991,72,0,0,0,0,0,0,0,0,0,0,0,0,0,0,0,0,58,14,0,0,0,0,0
IL,Israel,country,Middle East and North Africa,31.046051,34.851612,GP,Guadeloupe,country,Latin America and the Caribbean,16.995971,-62.067641,9686.66253103265,1991,63,0,0,0,0,0,0,4,10,0,0,0,0,3,0,46,0,0,0,0,0,0,0,0
IT,Italy,country,Europe and Central Asia,41.87194,12.56738,GP,Guadeloupe,country,Latin America and the Caribbean,16.995971,-62.067641,7506.41664024834,1991,459,185,15,6,0,0,0,156,53,0,0,0,15,22,0,7,0,0,0,0,0,0,0,0
JM,Jamaica,country,Latin America and the Caribbean,18.109581,-77.297508,GP,Guadeloupe,country,Latin America and the Caribbean,16.995971,-62.067641,1620.72258136984,1991,0,0,0,0,0,0,0,0,0,0,0,0,0,0,0,0,0,0,0,0,0,0,0,0
KE,Kenya,country,Sub-Saharan Africa,-0.023559,37.906193,GP,Guadeloupe,country,Latin America and the Caribbean,16.995971,-62.067641,11080.8590588682,1991,7,0,0,0,0,0,0,0,7,0,0,0,0,0,0,0,0,0,0,0,0,0,0,0
LB,Lebanon,country,Middle East and North Africa,33.854721,35.862285,GP,Guadeloupe,country,Latin America and the Caribbean,16.995971,-62.067641,9678.81320137473,1991,0,0,0,0,0,0,0,0,0,0,0,0,0,0,0,0,0,0,0,0,0,0,0,0
MG,Madagascar,country,Sub-Saharan Africa,-18.766947,46.869107,GP,Guadeloupe,country,Latin America and the Caribbean,16.995971,-62.067641,12559.4356253887,1991,223,0,0,0,0,0,1,0,1,0,13,0,208,0,0,0,0,0,0,0,0,0,0,0
MW,Malawi,country,Sub-Saharan Africa,-13.254308,34.301525,GP,Guadeloupe,country,Latin America and the Caribbean,16.995971,-62.067641,11110.1466320208,1991,27,0,0,21,6,0,0,0,0,0,0,0,0,0,0,0,0,0,0,0,0,0,0,0
MX,Mexico,country,Latin America and the Caribbean,23.634501,-102.552784,GP,Guadeloupe,country,Latin America and the Caribbean,16.995971,-62.067641,4276.32610671586,1991,104,0,0,0,0,0,0,85,12,0,0,0,7,0,0,0,0,0,0,0,0,0,0,0
MA,Morocco,country,Middle East and North Africa,31.791702,-7.09262,GP,Guadeloupe,country,Latin America and the Caribbean,16.995971,-62.067641,5749.22911612346,1991,120,0,1,0,0,0,20,54,26,0,7,0,0,12,0,0,0,0,0,0,0,0,0,0
NL,Netherlands,country,Europe and Central Asia,52.132633,5.291266,GP,Guadeloupe,country,Latin America and the Caribbean,16.995971,-62.067641,6993.46468732544,1991,7715,10,480,55,0,0,0,1523,91,0,0,46,87,165,329,4265,0,598,66,0,0,0,0,0
NZ,New Zealand,country,East Asia and Pacific,-40.900557,174.885971,GP,Guadeloupe,country,Latin America and the Caribbean,16.995971,-62.067641,14008.7379941618,1991,2415,0,3,0,0,0,0,0,143,0,0,0,0,0,0,0,0,2269,0,0,0,0,0,0
NI,Nicaragua,country,Latin America and the Caribbean,12.865416,-85.207229,GP,Guadeloupe,country,Latin America and the Caribbean,16.995971,-62.067641,2529.27088622263,1991,8,0,0,0,0,0,0,0,0,0,0,0,0,0,0,8,0,0,0,0,0,0,0,0
NO,Norway,country,Europe and Central Asia,60.472024,8.468946,GP,Guadeloupe,country,Latin America and the Caribbean,16.995971,-62.067641,7314.59014352622,1991,41,0,27,0,0,0,0,14,0,0,0,0,0,0,0,0,0,0,0,0,0,0,0,0
PG,Papua New Guinea,country,East Asia and Pacific,-6.314993,143.95555,GP,Guadeloupe,country,Latin America and the Caribbean,16.995971,-62.067641,16966.5161108476,1991,19,0,0,0,0,0,0,0,0,0,0,0,0,0,0,0,0,19,0,0,0,0,0,0
PE,Peru,country,Latin America and the Caribbean,-9.189967,-75.015152,GP,Guadeloupe,country,Latin America and the Caribbean,16.995971,-62.067641,3244.73483360558,1991,4,0,0,0,0,0,0,0,0,0,0,0,0,0,0,0,0,4,0,0,0,0,0,0
PH,Philippines,country,East Asia and Pacific,12.879721,121.774017,GP,Guadeloupe,country,Latin America and the Caribbean,16.995971,-62.067641,16685.0364606889,1991,1,0,0,0,0,0,0,0,1,0,0,0,0,0,0,0,0,0,0,0,0,0,0,0
PL,Poland,country,Europe and Central Asia,51.919438,19.145136,GP,Guadeloupe,country,Latin America and the Caribbean,16.995971,-62.067641,7939.91630739586,1991,0,0,0,0,0,0,0,0,0,0,0,0,0,0,0,0,0,0,0,0,0,0,0,0
PT,Portugal,country,Europe and Central Asia,39.399872,-8.224454,GP,Guadeloupe,country,Latin America and the Caribbean,16.995971,-62.067641,5740.94362864755,1991,14,0,0,0,0,0,0,0,0,0,0,0,0,0,0,14,0,0,0,0,0,0,0,0
KR,"Korea, Rep.",country,East Asia and Pacific,35.907757,127.766922,GP,Guadeloupe,country,Latin America and the Caribbean,16.995971,-62.067641,14057.7555601897,1991,0,0,0,0,0,0,0,0,0,0,0,0,0,0,0,0,0,0,0,0,0,0,0,0
RE,Reunion,country,Sub-Saharan Africa,-21.115141,55.536384,GP,Guadeloupe,country,Latin America and the Caribbean,16.995971,-62.067641,13496.718745588,1991,198,0,0,198,0,0,0,0,0,0,0,0,0,0,0,0,0,0,0,0,0,0,0,0
VC,St. Vincent & Grenadines,country,Latin America and the Caribbean,12.984305,-61.287228,GP,Guadeloupe,country,Latin America and the Caribbean,16.995971,-62.067641,454.389198263739,1991,8,0,0,0,0,0,0,0,8,0,0,0,0,0,0,0,0,0,0,0,0,0,0,0
SN,Senegal,country,Sub-Saharan Africa,14.497401,-14.452362,GP,Guadeloupe,country,Latin America and the Caribbean,16.995971,-62.067641,5097.12832568338,1991,4,0,0,0,0,0,0,0,0,0,0,0,0,0,4,0,0,0,0,0,0,0,0,0
SG,Singapore,country,East Asia and Pacific,1.352083,103.819836,GP,Guadeloupe,country,Latin America and the Caribbean,16.995971,-62.067641,17473.928010512,1991,0,0,0,0,0,0,0,0,0,0,0,0,0,0,0,0,0,0,0,0,0,0,0,0
ES,Spain,country,Europe and Central Asia,40.463667,-3.74922,GP,Guadeloupe,country,Latin America and the Caribbean,16.995971,-62.067641,6136.20664341074,1991,1666,575,0,7,0,0,4,115,246,0,0,0,0,5,0,704,0,10,0,0,0,0,0,0
LK,Sri Lanka,country,South Asia,7.873054,80.771797,GP,Guadeloupe,country,Latin America and the Caribbean,16.995971,-62.067641,15098.9665787968,1991,29,0,0,0,0,0,24,0,1,0,0,0,4,0,0,0,0,0,0,0,0,0,0,0
SR,Suriname,country,Latin America and the Caribbean,3.919305,-56.027783,GP,Guadeloupe,country,Latin America and the Caribbean,16.995971,-62.067641,1598.15068629132,1991,202,202,0,0,0,0,0,0,0,0,0,0,0,0,0,0,0,0,0,0,0,0,0,0
SE,Sweden,country,Europe and Central Asia,60.128161,18.643501,GP,Guadeloupe,country,Latin America and the Caribbean,16.995971,-62.067641,7871.3901256359,1991,1,1,0,0,0,0,0,0,0,0,0,0,0,0,0,0,0,0,0,0,0,0,0,0
CH,Switzerland,country,Europe and Central Asia,46.818188,8.227512,GP,Guadeloupe,country,Latin America and the Caribbean,16.995971,-62.067641,7156.83786682218,1991,33,0,0,0,0,0,0,0,6,0,0,0,0,0,0,27,0,0,0,0,0,0,0,0
TH,Thailand,country,East Asia and Pacific,15.870032,100.992541,GP,Guadeloupe,country,Latin America and the Caribbean,16.995971,-62.067641,15933.4877847672,1991,3169,3156,0,0,0,0,0,0,3,0,0,3,0,7,0,0,0,0,0,0,0,0,0,0
TT,Trinidad and Tobago,country,Latin America and the Caribbean,10.691803,-61.222503,GP,Guadeloupe,country,Latin America and the Caribbean,16.995971,-62.067641,707.689920966514,1991,247,32,0,0,0,0,0,6,0,0,0,0,0,1,0,208,0,0,0,0,0,0,0,0
TN,Tunisia,country,Middle East and North Africa,33.886917,9.537499,GP,Guadeloupe,country,Latin America and the Caribbean,16.995971,-62.067641,7299.80909576956,1991,2,0,0,0,0,0,0,0,0,0,0,0,0,0,0,2,0,0,0,0,0,0,0,0
TR,Turkey,country,Europe and Central Asia,38.963745,35.243322,GP,Guadeloupe,country,Latin America and the Caribbean,16.995971,-62.067641,9449.16378627562,1991,728,0,0,0,706,0,0,2,13,0,7,0,0,0,0,0,0,0,0,0,0,0,0,0
GB,United Kingdom,country,Europe and Central Asia,55.378051,-3.435973,GP,Guadeloupe,country,Latin America and the Caribbean,16.995971,-62.067641,6505.63680614062,1991,670,13,0,0,0,2,0,0,1,0,0,4,0,67,0,581,0,2,0,0,0,0,0,0
TZ,Tanzania,country,Sub-Saharan Africa,-6.369028,34.888822,GP,Guadeloupe,country,Latin America and the Caribbean,16.995971,-62.067641,10963.2092973843,1991,16,0,0,0,16,0,0,0,0,0,0,0,0,0,0,0,0,0,0,0,0,0,0,0
US,USA,country,North America,37.09024,-95.712891,GP,Guadeloupe,country,Latin America and the Caribbean,16.995971,-62.067641,3982.23269396315,1991,11664,5400,0,20,988,14,0,937,955,0,0,2735,0,49,59,503,0,4,0,0,0,0,0,0
UY,Uruguay,country,Latin America and the Caribbean,-32.522779,-55.765835,GP,Guadeloupe,country,Latin America and the Caribbean,16.995971,-62.067641,5553.14843615094,1991,10,0,0,0,0,0,0,0,0,0,0,0,0,0,0,0,0,10,0,0,0,0,0,0
RU,Russian Federation,country,Europe and Central Asia,61.52401,105.318756,GP,Guadeloupe,country,Latin America and the Caribbean,16.995971,-62.067641,11225.1611337912,1991,4,0,0,0,0,0,0,0,0,0,0,0,0,0,0,4,0,0,0,0,0,0,0,0
VE,Venezuela,country,Latin America and the Caribbean,6.42375,-66.58973,GP,Guadeloupe,country,Latin America and the Caribbean,16.995971,-62.067641,1275.64335033501,1991,158,0,0,0,0,0,0,10,133,0,0,0,0,0,0,15,0,0,0,0,0,0,0,0
VN,Vietnam,country,East Asia and Pacific,14.058324,108.277199,GP,Guadeloupe,country,Latin America and the Caribbean,16.995971,-62.067641,16421.3680245071,1991,2,0,0,0,0,2,0,0,0,0,0,0,0,0,0,0,0,0,0,0,0,0,0,0
DZ,Algeria,country,Middle East and North Africa,28.033886,1.659626,GP,Guadeloupe,country,Latin America and the Caribbean,16.995971,-62.067641,6597.66121886657,1992,0,0,0,0,0,0,0,0,0,0,0,0,0,0,0,0,0,0,0,0,0,0,0,0
AR,Argentina,country,Latin America and the Caribbean,-38.416097,-63.616672,GP,Guadeloupe,country,Latin America and the Caribbean,16.995971,-62.067641,6170.56439943012,1992,2195,2000,0,0,1,0,1,141,2,0,0,0,0,0,0,0,0,50,0,0,0,0,0,0
AU,Australia,country,East Asia and Pacific,-25.274398,133.775136,GP,Guadeloupe,country,Latin America and the Caribbean,16.995971,-62.067641,18154.3964808916,1992,118,0,0,0,0,0,0,0,18,0,0,0,0,0,0,0,0,100,0,0,0,0,0,0
AT,Austria,country,Europe and Central Asia,47.516231,14.550072,GP,Guadeloupe,country,Latin America and the Caribbean,16.995971,-62.067641,7635.30671235295,1992,0,0,0,0,0,0,0,0,0,0,0,0,0,0,0,0,0,0,0,0,0,0,0,0
BB,Barbados,country,Latin America and the Caribbean,13.193887,-59.543198,GP,Guadeloupe,country,Latin America and the Caribbean,16.995971,-62.067641,502.712483869139,1992,63,30,0,0,0,0,0,0,0,0,0,0,0,5,0,28,0,0,0,0,0,0,0,0
BE,Belgium,country,Europe and Central Asia,50.503887,4.469936,GP,Guadeloupe,country,Latin America and the Caribbean,16.995971,-62.067641,6914.35191690583,1992,4128,227,54,54,0,0,2,220,122,0,0,0,7,85,165,2560,0,602,30,0,0,0,0,0
BW,Botswana,country,Sub-Saharan Africa,-22.328474,24.684866,GP,Guadeloupe,country,Latin America and the Caribbean,16.995971,-62.067641,10407.6668475724,1992,23,0,0,0,0,0,0,0,0,0,0,0,0,0,0,0,0,23,0,0,0,0,0,0
BR,Brazil,country,Latin America and the Caribbean,-14.235004,-51.92528,GP,Guadeloupe,country,Latin America and the Caribbean,16.995971,-62.067641,3650.90150224004,1992,430,0,0,0,0,0,0,7,200,0,31,0,110,0,0,0,0,82,0,0,0,0,0,0
CM,Cameroon,country,Sub-Saharan Africa,7.369722,12.354722,GP,Guadeloupe,country,Latin America and the Caribbean,16.995971,-62.067641,8127.54728057831,1992,26,0,0,0,0,0,0,0,0,0,0,0,26,0,0,0,0,0,0,0,0,0,0,0
CA,Canada,country,North America,56.130366,-106.346771,GP,Guadeloupe,country,Latin America and the Caribbean,16.995971,-62.067641,5718.5745838192,1992,556,20,0,2,383,0,0,64,0,0,0,0,0,11,0,18,0,58,0,0,0,0,0,0
CF,Central African Rep.,country,Sub-Saharan Africa,6.611111,20.939444,GP,Guadeloupe,country,Latin America and the Caribbean,16.995971,-62.067641,9062.87232890515,1992,18,0,0,0,0,0,0,0,0,0,0,0,18,0,0,0,0,0,0,0,0,0,0,0
CL,Chile,country,Latin America and the Caribbean,-35.675147,-71.542969,GP,Guadeloupe,country,Latin America and the Caribbean,16.995971,-62.067641,5947.91259429518,1992,126,0,0,0,0,0,0,8,96,0,0,0,1,15,0,6,0,0,0,0,0,0,0,0
CN,China,country,East Asia and Pacific,35.86166,104.195397,GP,Guadeloupe,country,Latin America and the Caribbean,16.995971,-62.067641,13977.8503357284,1992,83,5,0,0,53,0,4,7,3,0,0,0,1,5,0,0,0,5,0,0,0,0,0,0
TW,Taiwan,country,East Asia and Pacific,23.69781,120.960515,GP,Guadeloupe,country,Latin America and the Caribbean,16.995971,-62.067641,15495.5494641406,1992,18,17,0,0,0,0,0,1,0,0,0,0,0,0,0,0,0,0,0,0,0,0,0,0
CO,Colombia,country,Latin America and the Caribbean,4.570868,-74.297333,GP,Guadeloupe,country,Latin America and the Caribbean,16.995971,-62.067641,1921.88282820051,1992,208,109,0,0,0,0,0,0,42,0,0,0,57,0,0,0,0,0,0,0,0,0,0,0
CR,Costa Rica,country,Latin America and the Caribbean,9.748917,-83.753428,GP,Guadeloupe,country,Latin America and the Caribbean,16.995971,-62.067641,2480.83563357621,1992,55,0,0,0,0,0,0,0,0,0,0,0,55,0,0,0,0,0,0,0,0,0,0,0
CI,Ivory Coast,country,Sub-Saharan Africa,7.539989,-5.54708,GP,Guadeloupe,country,Latin America and the Caribbean,16.995971,-62.067641,6217.36360789427,1992,2,0,0,0,0,0,0,0,0,0,0,0,2,0,0,0,0,0,0,0,0,0,0,0
CU,Cuba,country,Latin America and the Caribbean,21.521757,-77.781167,GP,Guadeloupe,country,Latin America and the Caribbean,16.995971,-62.067641,1725.37159765275,1992,254,0,0,0,0,0,0,0,254,0,0,0,0,0,0,0,0,0,0,0,0,0,0,0
CY,Cyprus,country,Europe and Central Asia,35.126413,33.429859,GP,Guadeloupe,country,Latin America and the Caribbean,16.995971,-62.067641,9423.1036547074,1992,1,0,0,0,0,0,0,0,1,0,0,0,0,0,0,0,0,0,0,0,0,0,0,0
DK,Denmark,country,Europe and Central Asia,56.26392,9.501785,GP,Guadeloupe,country,Latin America and the Caribbean,16.995971,-62.067641,7317.31886354839,1992,2336,17,0,25,0,0,0,0,0,0,0,0,0,3,0,2134,0,151,6,0,0,0,0,0
DM,Dominica,country,Latin America and the Caribbean,15.414999,-61.370976,GP,Guadeloupe,country,Latin America and the Caribbean,16.995971,-62.067641,191.099500424979,1992,778,0,221,0,0,0,19,0,530,0,0,0,0,8,0,0,0,0,0,0,0,0,0,0
DO,Dominican Republic,country,Latin America and the Caribbean,18.735693,-70.162651,GP,Guadeloupe,country,Latin America and the Caribbean,16.995971,-62.067641,879.162881932485,1992,3842,149,108,4,23,4,0,27,3477,0,0,0,0,50,0,0,0,0,0,0,0,0,0,0
EG,Egypt,country,Middle East and North Africa,26.820553,30.802498,GP,Guadeloupe,country,Latin America and the Caribbean,16.995971,-62.067641,9449.36878316386,1992,4,0,0,0,0,0,0,4,0,0,0,0,0,0,0,0,0,0,0,0,0,0,0,0
ET,Ethiopia,country,Sub-Saharan Africa,9.145,40.489673,GP,Guadeloupe,country,Latin America and the Caribbean,16.995971,-62.067641,11036.0422161074,1992,37,0,0,0,0,0,0,0,0,0,0,0,37,0,0,0,0,0,0,0,0,0,0,0
FI,Finland,country,Europe and Central Asia,61.92411,25.748151,GP,Guadeloupe,country,Latin America and the Caribbean,16.995971,-62.067641,8241.46380386273,1992,37,0,37,0,0,0,0,0,0,0,0,0,0,0,0,0,0,0,0,0,0,0,0,0
FR,France,country,Europe and Central Asia,46.227638,2.213749,GP,Guadeloupe,country,Latin America and the Caribbean,16.995971,-62.067641,6692.67180493721,1992,171188,73866,9804,3824,415,116,57,8843,4501,8,82,4811,846,2243,6324,16341,192,17339,21768,0,0,0,0,0
GF,French Guiana,country,Latin America and the Caribbean,3.933889,-53.125782,GP,Guadeloupe,country,Latin America and the Caribbean,16.995971,-62.067641,1751.51247101381,1992,6062,5882,0,0,0,0,0,0,180,0,0,0,0,0,0,0,0,0,0,0,0,0,0,0
DE,Germany,country,Europe and Central Asia,51.165691,10.451526,GP,Guadeloupe,country,Latin America and the Caribbean,16.995971,-62.067641,7339.4428268203,1992,461,69,0,3,0,26,0,2,72,0,0,2,7,80,0,198,0,2,0,0,0,0,0,0
GR,Greece,country,Europe and Central Asia,39.074208,21.824312,GP,Guadeloupe,country,Latin America and the Caribbean,16.995971,-62.067641,8319.72571234547,1992,78,5,0,0,0,0,0,0,71,0,0,0,0,2,0,0,0,0,0,0,0,0,0,0
GT,Guatemala,country,Latin America and the Caribbean,15.783471,-90.230759,GP,Guadeloupe,country,Latin America and the Caribbean,16.995971,-62.067641,3008.20130194535,1992,11,0,0,0,0,0,0,0,0,0,0,0,11,0,0,0,0,0,0,0,0,0,0,0
GY,Guyana,country,Latin America and the Caribbean,4.860416,-58.93018,GP,Guadeloupe,country,Latin America and the Caribbean,16.995971,-62.067641,1393.59376495843,1992,1727,1727,0,0,0,0,0,0,0,0,0,0,0,0,0,0,0,0,0,0,0,0,0,0
HT,Haiti,country,Latin America and the Caribbean,18.971187,-72.285215,GP,Guadeloupe,country,Latin America and the Caribbean,16.995971,-62.067641,1103.76197810828,1992,29,0,0,0,0,0,0,0,0,0,0,0,16,0,2,11,0,0,0,0,0,0,0,0
HN,Honduras,country,Latin America and the Caribbean,15.199999,-86.241905,GP,Guadeloupe,country,Latin America and the Caribbean,16.995971,-62.067641,2591.63831974408,1992,0,0,0,0,0,0,0,0,0,0,0,0,0,0,0,0,0,0,0,0,0,0,0,0
HU,Hungary,country,Europe and Central Asia,47.162494,19.503304,GP,Guadeloupe,country,Latin America and the Caribbean,16.995971,-62.067641,8010.71987938199,1992,1,0,0,1,0,0,0,0,0,0,0,0,0,0,0,0,0,0,0,0,0,0,0,0
IN,India,country,South Asia,20.593684,78.96288,GP,Guadeloupe,country,Latin America and the Caribbean,16.995971,-62.067641,14069.0305521529,1992,14,0,0,0,0,11,0,0,3,0,0,0,0,0,0,0,0,0,0,0,0,0,0,0
ID,Indonesia,country,East Asia and Pacific,-0.789275,113.921327,GP,Guadeloupe,country,Latin America and the Caribbean,16.995971,-62.067641,18180.6132300637,1992,2,0,0,0,0,0,0,0,0,0,2,0,0,0,0,0,0,0,0,0,0,0,0,0
IR,Iran,country,Middle East and North Africa,32.427908,53.688046,GP,Guadeloupe,country,Latin America and the Caribbean,16.995971,-62.067641,11264.0912996677,1992,8,0,0,0,0,4,0,0,4,0,0,0,0,0,0,0,0,0,0,0,0,0,0,0
IE,Ireland,country,Europe and Central Asia,53.41291,-8.24389,GP,Guadeloupe,country,Latin America and the Caribbean,16.995971,-62.067641,6141.3057713192,1992,11,0,0,0,0,0,0,0,0,0,0,0,0,0,0,0,0,11,0,0,0,0,0,0
IL,Israel,country,Middle East and North Africa,31.046051,34.851612,GP,Guadeloupe,country,Latin America and the Caribbean,16.995971,-62.067641,9686.66253103265,1992,18,0,0,0,0,0,0,2,6,0,0,0,0,10,0,0,0,0,0,0,0,0,0,0
IT,Italy,country,Europe and Central Asia,41.87194,12.56738,GP,Guadeloupe,country,Latin America and the Caribbean,16.995971,-62.067641,7506.41664024834,1992,453,141,0,1,0,10,0,162,108,0,0,0,14,5,0,12,0,0,0,0,0,0,0,0
JM,Jamaica,country,Latin America and the Caribbean,18.109581,-77.297508,GP,Guadeloupe,country,Latin America and the Caribbean,16.995971,-62.067641,1620.72258136984,1992,0,0,0,0,0,0,0,0,0,0,0,0,0,0,0,0,0,0,0,0,0,0,0,0
KE,Kenya,country,Sub-Saharan Africa,-0.023559,37.906193,GP,Guadeloupe,country,Latin America and the Caribbean,16.995971,-62.067641,11080.8590588682,1992,4,0,0,0,0,0,0,0,4,0,0,0,0,0,0,0,0,0,0,0,0,0,0,0
LB,Lebanon,country,Middle East and North Africa,33.854721,35.862285,GP,Guadeloupe,country,Latin America and the Caribbean,16.995971,-62.067641,9678.81320137473,1992,0,0,0,0,0,0,0,0,0,0,0,0,0,0,0,0,0,0,0,0,0,0,0,0
MG,Madagascar,country,Sub-Saharan Africa,-18.766947,46.869107,GP,Guadeloupe,country,Latin America and the Caribbean,16.995971,-62.067641,12559.4356253887,1992,250,0,0,0,0,0,0,0,1,0,20,0,229,0,0,0,0,0,0,0,0,0,0,0
MW,Malawi,country,Sub-Saharan Africa,-13.254308,34.301525,GP,Guadeloupe,country,Latin America and the Caribbean,16.995971,-62.067641,11110.1466320208,1992,0,0,0,0,0,0,0,0,0,0,0,0,0,0,0,0,0,0,0,0,0,0,0,0
MY,Malaysia,country,East Asia and Pacific,4.210484,101.975766,GP,Guadeloupe,country,Latin America and the Caribbean,16.995971,-62.067641,17096.1466726557,1992,0,0,0,0,0,0,0,0,0,0,0,0,0,0,0,0,0,0,0,0,0,0,0,0
MX,Mexico,country,Latin America and the Caribbean,23.634501,-102.552784,GP,Guadeloupe,country,Latin America and the Caribbean,16.995971,-62.067641,4276.32610671586,1992,75,0,0,0,0,0,0,57,14,0,0,0,4,0,0,0,0,0,0,0,0,0,0,0
MA,Morocco,country,Middle East and North Africa,31.791702,-7.09262,GP,Guadeloupe,country,Latin America and the Caribbean,16.995971,-62.067641,5749.22911612346,1992,112,0,3,0,0,0,2,81,4,0,5,0,0,15,0,2,0,0,0,0,0,0,0,0
NA,Namibia,country,Sub-Saharan Africa,-22.95764,18.49041,GP,Guadeloupe,country,Latin America and the Caribbean,16.995971,-62.067641,9824.54947913539,1992,19,0,0,0,0,0,0,0,19,0,0,0,0,0,0,0,0,0,0,0,0,0,0,0
NL,Netherlands,country,Europe and Central Asia,52.132633,5.291266,GP,Guadeloupe,country,Latin America and the Caribbean,16.995971,-62.067641,6993.46468732544,1992,8218,7,284,4,0,0,0,1593,103,0,0,52,67,190,458,4170,0,693,597,0,0,0,0,0
NZ,New Zealand,country,East Asia and Pacific,-40.900557,174.885971,GP,Guadeloupe,country,Latin America and the Caribbean,16.995971,-62.067641,14008.7379941618,1992,2142,0,0,0,0,0,0,0,65,0,0,0,0,0,0,0,0,2077,0,0,0,0,0,0
NG,Nigeria,country,Sub-Saharan Africa,9.081999,8.675277,GP,Guadeloupe,country,Latin America and the Caribbean,16.995971,-62.067641,7686.36802957532,1992,0,0,0,0,0,0,0,0,0,0,0,0,0,0,0,0,0,0,0,0,0,0,0,0
NO,Norway,country,Europe and Central Asia,60.472024,8.468946,GP,Guadeloupe,country,Latin America and the Caribbean,16.995971,-62.067641,7314.59014352622,1992,25,0,0,0,0,0,0,25,0,0,0,0,0,0,0,0,0,0,0,0,0,0,0,0
PK,Pakistan,country,South Asia,30.375321,69.345116,GP,Guadeloupe,country,Latin America and the Caribbean,16.995971,-62.067641,12629.1859756052,1992,2,2,0,0,0,0,0,0,0,0,0,0,0,0,0,0,0,0,0,0,0,0,0,0
PE,Peru,country,Latin America and the Caribbean,-9.189967,-75.015152,GP,Guadeloupe,country,Latin America and the Caribbean,16.995971,-62.067641,3244.73483360558,1992,2,0,0,0,0,0,0,2,0,0,0,0,0,0,0,0,0,0,0,0,0,0,0,0
PH,Philippines,country,East Asia and Pacific,12.879721,121.774017,GP,Guadeloupe,country,Latin America and the Caribbean,16.995971,-62.067641,16685.0364606889,1992,2,0,0,0,0,0,0,0,2,0,0,0,0,0,0,0,0,0,0,0,0,0,0,0
PL,Poland,country,Europe and Central Asia,51.919438,19.145136,GP,Guadeloupe,country,Latin America and the Caribbean,16.995971,-62.067641,7939.91630739586,1992,0,0,0,0,0,0,0,0,0,0,0,0,0,0,0,0,0,0,0,0,0,0,0,0
PT,Portugal,country,Europe and Central Asia,39.399872,-8.224454,GP,Guadeloupe,country,Latin America and the Caribbean,16.995971,-62.067641,5740.94362864755,1992,12,0,0,0,0,0,0,0,0,0,0,0,0,0,0,12,0,0,0,0,0,0,0,0
KR,"Korea, Rep.",country,East Asia and Pacific,35.907757,127.766922,GP,Guadeloupe,country,Latin America and the Caribbean,16.995971,-62.067641,14057.7555601897,1992,0,0,0,0,0,0,0,0,0,0,0,0,0,0,0,0,0,0,0,0,0,0,0,0
RE,Reunion,country,Sub-Saharan Africa,-21.115141,55.536384,GP,Guadeloupe,country,Latin America and the Caribbean,16.995971,-62.067641,13496.718745588,1992,63,0,0,63,0,0,0,0,0,0,0,0,0,0,0,0,0,0,0,0,0,0,0,0
RU,Russian Federation,country,Europe and Central Asia,61.52401,105.318756,GP,Guadeloupe,country,Latin America and the Caribbean,16.995971,-62.067641,11225.1611337912,1992,0,0,0,0,0,0,0,0,0,0,0,0,0,0,0,0,0,0,0,0,0,0,0,0
VC,St. Vincent & Grenadines,country,Latin America and the Caribbean,12.984305,-61.287228,GP,Guadeloupe,country,Latin America and the Caribbean,16.995971,-62.067641,454.389198263739,1992,13,0,8,0,0,0,0,0,0,0,0,0,0,5,0,0,0,0,0,0,0,0,0,0
ZA,S. Africa,country,Sub-Saharan Africa,-30.559482,22.937506,GP,Guadeloupe,country,Latin America and the Caribbean,16.995971,-62.067641,10509.8367686556,1992,88,0,0,0,0,0,0,0,88,0,0,0,0,0,0,0,0,0,0,0,0,0,0,0
ES,Spain,country,Europe and Central Asia,40.463667,-3.74922,GP,Guadeloupe,country,Latin America and the Caribbean,16.995971,-62.067641,6136.20664341074,1992,1559,262,0,8,0,0,1,148,364,0,0,0,1,2,0,748,0,25,0,0,0,0,0,0
LK,Sri Lanka,country,South Asia,7.873054,80.771797,GP,Guadeloupe,country,Latin America and the Caribbean,16.995971,-62.067641,15098.9665787968,1992,48,0,0,0,0,0,43,0,1,0,0,0,4,0,0,0,0,0,0,0,0,0,0,0
SR,Suriname,country,Latin America and the Caribbean,3.919305,-56.027783,GP,Guadeloupe,country,Latin America and the Caribbean,16.995971,-62.067641,1598.15068629132,1992,1658,1658,0,0,0,0,0,0,0,0,0,0,0,0,0,0,0,0,0,0,0,0,0,0
SE,Sweden,country,Europe and Central Asia,60.128161,18.643501,GP,Guadeloupe,country,Latin America and the Caribbean,16.995971,-62.067641,7871.3901256359,1992,3,2,0,0,0,0,0,0,0,0,0,0,1,0,0,0,0,0,0,0,0,0,0,0
CH,Switzerland,country,Europe and Central Asia,46.818188,8.227512,GP,Guadeloupe,country,Latin America and the Caribbean,16.995971,-62.067641,7156.83786682218,1992,58,0,0,0,0,0,0,0,7,0,0,0,1,3,0,47,0,0,0,0,0,0,0,0
TH,Thailand,country,East Asia and Pacific,15.870032,100.992541,GP,Guadeloupe,country,Latin America and the Caribbean,16.995971,-62.067641,15933.4877847672,1992,752,719,0,0,0,0,0,1,27,0,0,5,0,0,0,0,0,0,0,0,0,0,0,0
TT,Trinidad and Tobago,country,Latin America and the Caribbean,10.691803,-61.222503,GP,Guadeloupe,country,Latin America and the Caribbean,16.995971,-62.067641,707.689920966514,1992,450,31,0,0,0,0,0,0,2,0,0,0,0,38,0,379,0,0,0,0,0,0,0,0
TN,Tunisia,country,Middle East and North Africa,33.886917,9.537499,GP,Guadeloupe,country,Latin America and the Caribbean,16.995971,-62.067641,7299.80909576956,1992,0,0,0,0,0,0,0,0,0,0,0,0,0,0,0,0,0,0,0,0,0,0,0,0
TR,Turkey,country,Europe and Central Asia,38.963745,35.243322,GP,Guadeloupe,country,Latin America and the Caribbean,16.995971,-62.067641,9449.16378627562,1992,318,0,0,0,312,0,0,0,3,0,3,0,0,0,0,0,0,0,0,0,0,0,0,0
GB,United Kingdom,country,Europe and Central Asia,55.378051,-3.435973,GP,Guadeloupe,country,Latin America and the Caribbean,16.995971,-62.067641,6505.63680614062,1992,710,33,0,0,0,0,0,0,0,0,0,17,2,49,0,561,0,48,0,0,0,0,0,0
TZ,Tanzania,country,Sub-Saharan Africa,-6.369028,34.888822,GP,Guadeloupe,country,Latin America and the Caribbean,16.995971,-62.067641,10963.2092973843,1992,4,0,0,0,4,0,0,0,0,0,0,0,0,0,0,0,0,0,0,0,0,0,0,0
US,USA,country,North America,37.09024,-95.712891,GP,Guadeloupe,country,Latin America and the Caribbean,16.995971,-62.067641,3982.23269396315,1992,8191,2558,0,21,995,15,0,932,1032,0,2,2129,0,70,8,298,0,131,0,0,0,0,0,0
UY,Uruguay,country,Latin America and the Caribbean,-32.522779,-55.765835,GP,Guadeloupe,country,Latin America and the Caribbean,16.995971,-62.067641,5553.14843615094,1992,25,0,0,0,0,0,0,0,0,0,0,0,0,0,0,0,0,25,0,0,0,0,0,0
VE,Venezuela,country,Latin America and the Caribbean,6.42375,-66.58973,GP,Guadeloupe,country,Latin America and the Caribbean,16.995971,-62.067641,1275.64335033501,1992,263,12,19,0,0,0,0,4,88,0,0,0,99,0,0,41,0,0,0,0,0,0,0,0
AF,Afghanistan,country,South Asia,33.93911,67.709953,GP,Guadeloupe,country,Latin America and the Caribbean,16.995971,-62.067641,12261.4817313466,1993,0,0,0,0,0,0,0,0,0,0,0,0,0,0,0,0,0,0,0,0,0,0,0,0
DZ,Algeria,country,Middle East and North Africa,28.033886,1.659626,GP,Guadeloupe,country,Latin America and the Caribbean,16.995971,-62.067641,6597.66121886657,1993,0,0,0,0,0,0,0,0,0,0,0,0,0,0,0,0,0,0,0,0,0,0,0,0
AO,Angola,country,Sub-Saharan Africa,-11.202692,17.873887,GP,Guadeloupe,country,Latin America and the Caribbean,16.995971,-62.067641,9334.6402811809,1993,20,0,0,0,0,0,0,0,20,0,0,0,0,0,0,0,0,0,0,0,0,0,0,0
AR,Argentina,country,Latin America and the Caribbean,-38.416097,-63.616672,GP,Guadeloupe,country,Latin America and the Caribbean,16.995971,-62.067641,6170.56439943012,1993,180,0,0,0,1,0,0,126,10,0,0,0,0,0,0,0,0,43,0,0,0,0,0,0
AU,Australia,country,East Asia and Pacific,-25.274398,133.775136,GP,Guadeloupe,country,Latin America and the Caribbean,16.995971,-62.067641,18154.3964808916,1993,132,0,0,0,0,0,0,5,16,0,0,0,0,0,0,0,0,111,0,0,0,0,0,0
AT,Austria,country,Europe and Central Asia,47.516231,14.550072,GP,Guadeloupe,country,Latin America and the Caribbean,16.995971,-62.067641,7635.30671235295,1993,32,32,0,0,0,0,0,0,0,0,0,0,0,0,0,0,0,0,0,0,0,0,0,0
BB,Barbados,country,Latin America and the Caribbean,13.193887,-59.543198,GP,Guadeloupe,country,Latin America and the Caribbean,16.995971,-62.067641,502.712483869139,1993,56,25,0,0,0,0,0,0,0,0,0,0,0,0,0,31,0,0,0,0,0,0,0,0
BE,Belgium,country,Europe and Central Asia,50.503887,4.469936,GP,Guadeloupe,country,Latin America and the Caribbean,16.995971,-62.067641,6914.35191690583,1993,4483,228,14,33,0,2,0,392,138,0,0,1,2,90,57,3075,0,367,84,0,0,0,0,0
BW,Botswana,country,Sub-Saharan Africa,-22.328474,24.684866,GP,Guadeloupe,country,Latin America and the Caribbean,16.995971,-62.067641,10407.6668475724,1993,32,0,0,0,0,0,0,0,2,0,0,0,0,0,0,0,0,30,0,0,0,0,0,0
BR,Brazil,country,Latin America and the Caribbean,-14.235004,-51.92528,GP,Guadeloupe,country,Latin America and the Caribbean,16.995971,-62.067641,3650.90150224004,1993,520,0,0,0,0,2,0,3,355,0,32,0,53,2,0,3,0,70,0,0,0,0,0,0
BF,Burkina Faso,country,Sub-Saharan Africa,12.238333,-1.561593,GP,Guadeloupe,country,Latin America and the Caribbean,16.995971,-62.067641,6515.23377752215,1993,2,0,0,0,0,0,0,0,2,0,0,0,0,0,0,0,0,0,0,0,0,0,0,0
