sourceCode,sourceName,sourceGrouping,sourceRegion,sourceLat,sourceLong,destCode,destName,destGrouping,destRegion,destLat,destLong,distance,year,totalTons,cereals,roots,sugarCrops,pulses,nuts,oilCrops,vegetables,fruits,fibers,spices,fodderCrops,coffeeTea,tobaccoRubber,oilsFats,beverages,livestock,animalMeats,animalProducts,animalHides,nimalOther,pesticides,fertilizers,machinery
AF,Afghanistan,country,South Asia,33.93911,67.709953,ES,Spain,country,Europe and Central Asia,40.463667,-3.74922,6204.29653179016,1986,857,0,0,0,0,0,0,0,0,17,0,0,0,840,0,0,0,0,0,0,0,0,0,0
AL,Albania,country,Europe and Central Asia,41.153332,20.168331,ES,Spain,country,Europe and Central Asia,40.463667,-3.74922,2010.35405080444,1986,12,0,0,0,0,0,0,0,0,0,0,0,0,12,0,0,0,0,0,0,0,0,0,0
DZ,Algeria,country,Middle East and North Africa,28.033886,1.659626,ES,Spain,country,Europe and Central Asia,40.463667,-3.74922,1469.65473528297,1986,155,0,0,0,0,0,0,0,155,0,0,0,0,0,0,0,0,0,0,0,0,0,0,0
AD,Andorra,country,Europe and Central Asia,42.546245,1.601554,ES,Spain,country,Europe and Central Asia,40.463667,-3.74922,502.5877573869,1986,24505,0,0,0,0,0,0,0,0,0,0,0,23,4,80,24173,0,25,184,16,0,0,0,0
AO,Angola,country,Sub-Saharan Africa,-11.202692,17.873887,ES,Spain,country,Europe and Central Asia,40.463667,-3.74922,6168.0619990405,1986,1663,0,0,0,0,0,0,0,0,0,0,0,1663,0,0,0,0,0,0,0,0,0,0,0
AR,Argentina,country,Latin America and the Caribbean,-38.416097,-63.616672,ES,Spain,country,Europe and Central Asia,40.463667,-3.74922,10683.2530616728,1986,504762,56371,0,2858,11407,0,203195,0,216,2749,0,206893,88,3250,11496,1476,0,3573,6,1184,0,0,0,0
AU,Australia,country,East Asia and Pacific,-25.274398,133.775136,ES,Spain,country,Europe and Central Asia,40.463667,-3.74922,15771.2652786068,1986,54202,11522,0,751,75,0,36,0,1,12183,0,2,0,237,0,0,0,24,529,28842,0,0,0,0
AT,Austria,country,Europe and Central Asia,47.516231,14.550072,ES,Spain,country,Europe and Central Asia,40.463667,-3.74922,1656.86040247762,1986,9020,10,0,1005,2,0,295,1498,517,73,0,60,416,358,4,68,0,537,3275,902,0,0,0,0
BS,The Bahamas,country,Latin America and the Caribbean,25.03428,-77.39628,ES,Spain,country,Europe and Central Asia,40.463667,-3.74922,6907.35650890195,1986,9,0,0,0,0,0,0,0,0,0,0,0,0,0,0,9,0,0,0,0,0,0,0,0
BD,Bangladesh,country,South Asia,23.684994,90.356331,ES,Spain,country,Europe and Central Asia,40.463667,-3.74922,8663.99737618064,1986,1846,0,0,0,0,0,0,0,0,1838,0,0,8,0,0,0,0,0,0,0,0,0,0,0
BE,Belgium,country,Europe and Central Asia,50.503887,4.469936,ES,Spain,country,Europe and Central Asia,40.463667,-3.74922,1286.85828632885,1986,61507,2516,2664,619,236,15,406,1538,1016,3324,13,5867,473,3229,4619,1568,14,8340,24127,937,0,0,0,0
BZ,Belize,country,Latin America and the Caribbean,17.189877,-88.49765,ES,Spain,country,Europe and Central Asia,40.463667,-3.74922,8352.25007414087,1986,7583,0,0,7583,0,0,0,0,0,0,0,0,0,0,0,0,0,0,0,0,0,0,0,0
BJ,Benin,country,Sub-Saharan Africa,9.30769,2.315834,ES,Spain,country,Europe and Central Asia,40.463667,-3.74922,3519.73370468441,1986,4361,0,0,0,0,0,0,0,0,4247,0,0,100,0,0,0,0,0,0,14,0,0,0,0
BM,Bermuda,country,North America,32.321384,-64.75737,ES,Spain,country,Europe and Central Asia,40.463667,-3.74922,5433.11753491473,1986,17,0,0,0,0,0,0,0,0,0,0,0,17,0,0,0,0,0,0,0,0,0,0,0
BO,Bolivia,country,Latin America and the Caribbean,-16.290154,-63.588653,ES,Spain,country,Europe and Central Asia,40.463667,-3.74922,8832.79548638246,1986,5070,0,0,0,0,0,2827,0,0,5,0,0,2238,0,0,0,0,0,0,0,0,0,0,0
BW,Botswana,country,Sub-Saharan Africa,-22.328474,24.684866,ES,Spain,country,Europe and Central Asia,40.463667,-3.74922,7585.44252182133,1986,46,0,0,0,0,0,0,0,0,0,0,0,0,0,0,0,0,46,0,0,0,0,0,0
BR,Brazil,country,Latin America and the Caribbean,-14.235004,-51.92528,ES,Spain,country,Europe and Central Asia,40.463667,-3.74922,7858.97258557232,1986,1232723,0,2,129761,18,48,210998,46,4928,537,361,794851,52761,13110,2656,2174,0,20449,6,0,17,0,0,0
BG,Bulgaria,country,Europe and Central Asia,42.733883,25.48583,ES,Spain,country,Europe and Central Asia,40.463667,-3.74922,2434.52686910138,1986,334,0,0,0,0,0,0,4,0,0,0,37,0,293,0,0,0,0,0,0,0,0,0,0
BF,Burkina Faso,country,Sub-Saharan Africa,12.238333,-1.561593,ES,Spain,country,Europe and Central Asia,40.463667,-3.74922,3149.33010175919,1986,2201,0,0,0,0,0,0,0,0,1951,0,0,0,0,0,0,0,0,0,250,0,0,0,0
BI,Burundi,country,Sub-Saharan Africa,-3.373056,29.918886,ES,Spain,country,Europe and Central Asia,40.463667,-3.74922,5962.7516098146,1986,479,0,0,0,0,0,0,0,0,0,0,0,479,0,0,0,0,0,0,0,0,0,0,0
CM,Cameroon,country,Sub-Saharan Africa,7.369722,12.354722,ES,Spain,country,Europe and Central Asia,40.463667,-3.74922,4016.69837817166,1986,9391,0,0,0,0,0,0,0,0,0,0,0,7280,1859,0,0,0,0,0,252,0,0,0,0
CA,Canada,country,North America,56.130366,-106.346771,ES,Spain,country,Europe and Central Asia,40.463667,-3.74922,7067.59909592,1986,78884,48116,1661,12,6640,0,5275,40,0,36,0,0,0,552,15658,43,7,8,21,822,0,0,0,0
CF,Central African Rep.,country,Sub-Saharan Africa,6.611111,20.939444,ES,Spain,country,Europe and Central Asia,40.463667,-3.74922,4498.76097084119,1986,50,0,0,0,0,0,0,0,0,0,7,0,0,43,0,0,0,0,0,0,0,0,0,0
TD,Chad,country,Sub-Saharan Africa,15.454166,18.732207,ES,Spain,country,Europe and Central Asia,40.463667,-3.74922,3532.49596131115,1986,4163,0,0,0,0,0,0,0,0,4159,0,0,0,3,0,1,0,0,0,0,0,0,0,0
CL,Chile,country,Latin America and the Caribbean,-35.675147,-71.542969,ES,Spain,country,Europe and Central Asia,40.463667,-3.74922,10946.1239296351,1986,3724,0,0,56,1469,0,0,390,73,758,37,0,0,405,0,62,0,235,0,239,0,0,0,0
HK,Hong Kong,country,East Asia and Pacific,22.396428,114.109497,ES,Spain,country,Europe and Central Asia,40.463667,-3.74922,10538.7859760622,1986,352,2,0,0,0,0,0,1,0,34,0,0,0,299,0,0,0,16,0,0,0,0,0,0
CN,China,country,East Asia and Pacific,35.86166,104.195397,ES,Spain,country,Europe and Central Asia,40.463667,-3.74922,8798.11130984792,1986,18003,77,0,1029,0,259,4641,360,60,6228,94,3529,647,706,0,32,0,306,18,17,0,0,0,0
TW,Taiwan,country,East Asia and Pacific,23.69781,120.960515,ES,Spain,country,Europe and Central Asia,40.463667,-3.74922,10888.0160050819,1986,335,11,0,0,3,0,0,95,83,0,0,0,21,113,0,9,0,0,0,0,0,0,0,0
CO,Colombia,country,Latin America and the Caribbean,4.570868,-74.297333,ES,Spain,country,Europe and Central Asia,40.463667,-3.74922,8046.77630995853,1986,38850,0,0,1,0,0,0,0,27,10461,0,0,23309,5038,0,14,0,0,0,0,0,0,0,0
KM,Comoros,country,Sub-Saharan Africa,-11.875001,43.872219,ES,Spain,country,Europe and Central Asia,40.463667,-3.74922,7613.09218139501,1986,0,0,0,0,0,0,0,0,0,0,0,0,0,0,0,0,0,0,0,0,0,0,0,0
CR,Costa Rica,country,Latin America and the Caribbean,9.748917,-83.753428,ES,Spain,country,Europe and Central Asia,40.463667,-3.74922,8472.63256627805,1986,3327,0,0,0,0,0,40,0,0,0,0,0,3227,42,0,0,0,18,0,0,0,0,0,0
CI,Ivory Coast,country,Sub-Saharan Africa,7.539989,-5.54708,ES,Spain,country,Europe and Central Asia,40.463667,-3.74922,3669.4017707212,1986,48658,0,0,0,0,0,1601,0,13371,2682,0,0,25746,5250,8,0,0,0,0,0,0,0,0,0
CU,Cuba,country,Latin America and the Caribbean,21.521757,-77.781167,ES,Spain,country,Europe and Central Asia,40.463667,-3.74922,7164.02841032118,1986,16845,2,0,152,0,0,0,0,99,557,0,0,3989,11631,0,400,0,0,15,0,0,0,0,0
CY,Cyprus,country,Europe and Central Asia,35.126413,33.429859,ES,Spain,country,Europe and Central Asia,40.463667,-3.74922,3298.98878195067,1986,279,0,0,0,0,0,0,0,151,0,0,0,0,0,0,0,0,0,0,128,0,0,0,0
CZ,Czech Republic,country,Europe and Central Asia,49.817492,15.472962,ES,Spain,country,Europe and Central Asia,40.463667,-3.74922,1825.15575110468,1986,7318,2896,0,628,0,0,0,0,19,25,0,0,38,93,0,246,0,30,3343,0,0,0,0,0
KP,"Korea, Dem. Rep.",country,East Asia and Pacific,40.339852,127.510093,ES,Spain,country,Europe and Central Asia,40.463667,-3.74922,9778.51558868329,1986,0,0,0,0,0,0,0,0,0,0,0,0,0,0,0,0,0,0,0,0,0,0,0,0
CD,"Congo, Dem. Rep.",country,Sub-Saharan Africa,-4.038333,21.758664,ES,Spain,country,Europe and Central Asia,40.463667,-3.74922,5595.37052461465,1986,10926,0,0,0,0,0,0,0,0,0,0,0,6124,4792,0,0,0,0,0,10,0,0,0,0
DK,Denmark,country,Europe and Central Asia,56.26392,9.501785,ES,Spain,country,Europe and Central Asia,40.463667,-3.74922,2005.59916675212,1986,37134,1527,0,77,0,0,82,205,607,1,0,1190,57,2565,792,7264,0,19557,3210,0,0,0,0,0
DJ,Djibouti,country,Middle East and North Africa,11.825138,42.590275,ES,Spain,country,Europe and Central Asia,40.463667,-3.74922,5529.99507992335,1986,4541,0,0,4533,0,0,0,0,0,0,0,0,0,0,0,0,0,0,0,8,0,0,0,0
DO,Dominican Republic,country,Latin America and the Caribbean,18.735693,-70.162651,ES,Spain,country,Europe and Central Asia,40.463667,-3.74922,6703.09906544524,1986,9478,0,0,0,0,0,491,0,0,0,0,0,164,8823,0,0,0,0,0,0,0,0,0,0
EC,Ecuador,country,Latin America and the Caribbean,-1.831239,-78.183406,ES,Spain,country,Europe and Central Asia,40.463667,-3.74922,8842.86890558783,1986,3884,26,49,0,0,0,0,0,69,0,0,0,3673,48,0,0,0,17,0,2,0,0,0,0
EG,Egypt,country,Middle East and North Africa,26.820553,30.802498,ES,Spain,country,Europe and Central Asia,40.463667,-3.74922,3514.08997283512,1986,31960,0,0,27219,0,0,0,9,0,4564,51,2,0,75,0,0,0,40,0,0,0,0,0,0
SV,El Salvador,country,Latin America and the Caribbean,13.794185,-88.89653,ES,Spain,country,Europe and Central Asia,40.463667,-3.74922,8622.02742160897,1986,4970,0,0,144,0,0,0,0,0,926,0,0,3899,1,0,0,0,0,0,0,0,0,0,0
GQ,Equatorial Guinea,country,Sub-Saharan Africa,1.650801,10.267895,ES,Spain,country,Europe and Central Asia,40.463667,-3.74922,4546.15736297061,1986,6244,25,0,0,0,0,0,0,0,0,0,0,6218,0,0,0,0,1,0,0,0,0,0,0
ET,Ethiopia,country,Sub-Saharan Africa,9.145,40.489673,ES,Spain,country,Europe and Central Asia,40.463667,-3.74922,5578.41569228763,1986,1205,0,0,1009,0,0,0,0,0,0,0,0,178,0,0,0,0,0,0,18,0,0,0,0
FK,Falkland Islands,country,,-51.796253,-59.523613,ES,Spain,country,Europe and Central Asia,40.463667,-3.74922,11599.5348815506,1986,37,0,0,0,0,0,0,0,0,14,0,0,0,0,0,0,0,0,0,23,0,0,0,0
FO,Faroe Islands,country,Europe and Central Asia,61.892635,-6.911806,ES,Spain,country,Europe and Central Asia,40.463667,-3.74922,2394.97397784906,1986,150,0,0,0,0,0,0,0,150,0,0,0,0,0,0,0,0,0,0,0,0,0,0,0
FI,Finland,country,Europe and Central Asia,61.92411,25.748151,ES,Spain,country,Europe and Central Asia,40.463667,-3.74922,3099.11616735237,1986,5321,29,29,1365,0,0,0,0,0,0,0,0,256,25,339,116,0,1054,1727,381,0,0,0,0
FR,France,country,Europe and Central Asia,46.227638,2.213749,ES,Spain,country,Europe and Central Asia,40.463667,-3.74922,802.440409032589,1986,1242361,710009,34141,31531,2480,1127,6357,5773,11053,4192,99,42281,3133,28188,54856,63917,4182,27764,198968,16468,24,0,0,0
GH,Ghana,country,Sub-Saharan Africa,7.946527,-1.023194,ES,Spain,country,Europe and Central Asia,40.463667,-3.74922,3629.8962557209,1986,3828,0,0,0,0,0,0,0,13,0,0,0,3792,23,0,0,0,0,0,0,0,0,0,0
GI,Gibraltar,country,Europe and Central Asia,36.137741,-5.345374,ES,Spain,country,Europe and Central Asia,40.463667,-3.74922,501.314720077424,1986,0,0,0,0,0,0,0,0,0,0,0,0,0,0,0,0,0,0,0,0,0,0,0,0
GR,Greece,country,Europe and Central Asia,39.074208,21.824312,ES,Spain,country,Europe and Central Asia,40.463667,-3.74922,2185.96234127089,1986,20078,17357,0,0,0,87,0,0,263,1247,0,0,0,723,0,0,0,212,0,189,0,0,0,0
GD,Grenada,country,Latin America and the Caribbean,12.262776,-61.604171,ES,Spain,country,Europe and Central Asia,40.463667,-3.74922,6430.27768207903,1986,119,0,0,0,0,0,0,0,0,0,119,0,0,0,0,0,0,0,0,0,0,0,0,0
GP,Guadeloupe,country,Latin America and the Caribbean,16.995971,-62.067641,ES,Spain,country,Europe and Central Asia,40.463667,-3.74922,6136.20664341074,1986,2,0,0,0,0,0,0,0,0,0,0,0,0,2,0,0,0,0,0,0,0,0,0,0
GT,Guatemala,country,Latin America and the Caribbean,15.783471,-90.230759,ES,Spain,country,Europe and Central Asia,40.463667,-3.74922,8594.49944266129,1986,1530,0,0,38,0,0,0,0,0,45,6,0,1334,107,0,0,0,0,0,0,0,0,0,0
GN,Guinea,country,Sub-Saharan Africa,9.945587,-9.696645,ES,Spain,country,Europe and Central Asia,40.463667,-3.74922,3447.58367554001,1986,42,0,0,0,0,0,0,0,0,0,0,0,38,4,0,0,0,0,0,0,0,0,0,0
GY,Guyana,country,Latin America and the Caribbean,4.860416,-58.93018,ES,Spain,country,Europe and Central Asia,40.463667,-3.74922,6768.36621989291,1986,23,0,0,0,0,0,0,0,0,0,0,0,23,0,0,0,0,0,0,0,0,0,0,0
HT,Haiti,country,Latin America and the Caribbean,18.971187,-72.285215,ES,Spain,country,Europe and Central Asia,40.463667,-3.74922,6867.25535293376,1986,347,0,0,0,0,0,0,0,95,0,0,0,223,29,0,0,0,0,0,0,0,0,0,0
HN,Honduras,country,Latin America and the Caribbean,15.199999,-86.241905,ES,Spain,country,Europe and Central Asia,40.463667,-3.74922,8300.98612358819,1986,5071,0,0,0,0,0,0,0,0,1620,0,0,3409,42,0,0,0,0,0,0,0,0,0,0
HU,Hungary,country,Europe and Central Asia,47.162494,19.503304,ES,Spain,country,Europe and Central Asia,40.463667,-3.74922,2001.71630049066,1986,12763,44,0,552,0,5,22,300,151,559,0,7229,0,395,30,0,0,3472,4,0,0,0,0,0
IS,Iceland,country,Europe and Central Asia,64.963051,-19.020835,ES,Spain,country,Europe and Central Asia,40.463667,-3.74922,2897.18723718784,1986,60,0,0,0,0,0,0,0,0,0,0,0,24,16,0,0,0,0,0,20,0,0,0,0
IN,India,country,South Asia,20.593684,78.96288,ES,Spain,country,Europe and Central Asia,40.463667,-3.74922,7950.54577847508,1986,4598,6,0,0,8,22,82,17,33,812,396,0,862,2313,47,0,0,0,0,0,0,0,0,0
ID,Indonesia,country,East Asia and Pacific,-0.789275,113.921327,ES,Spain,country,Europe and Central Asia,40.463667,-3.74922,12382.7992061042,1986,70495,0,13906,7008,0,0,128,0,200,0,126,1092,3763,36487,7746,0,0,37,0,2,0,0,0,0
IR,Iran,country,Middle East and North Africa,32.427908,53.688046,ES,Spain,country,Europe and Central Asia,40.463667,-3.74922,5129.75135980238,1986,1697,0,0,0,0,1312,0,0,1,0,0,0,0,27,0,0,0,0,0,357,0,0,0,0
IQ,Iraq,country,Middle East and North Africa,33.223191,43.679291,ES,Spain,country,Europe and Central Asia,40.463667,-3.74922,4249.50050193147,1986,144,0,0,0,0,0,0,0,137,0,0,0,0,0,0,0,0,0,0,7,0,0,0,0
IE,Ireland,country,Europe and Central Asia,53.41291,-8.24389,ES,Spain,country,Europe and Central Asia,40.463667,-3.74922,1480.6749116579,1986,24989,209,5733,76,0,0,0,36,0,0,0,2,0,11344,0,2284,0,1913,1825,1567,0,0,0,0
IL,Israel,country,Middle East and North Africa,31.046051,34.851612,ES,Spain,country,Europe and Central Asia,40.463667,-3.74922,3609.41775173455,1986,13393,0,0,0,0,2,2677,198,651,9622,0,0,0,238,0,5,7,0,0,0,0,0,0,0
IT,Italy,country,Europe and Central Asia,41.87194,12.56738,ES,Spain,country,Europe and Central Asia,40.463667,-3.74922,1374.17267084231,1986,36252,3335,39,227,193,9,0,568,710,22,1,979,745,7142,13914,414,0,5318,313,2323,0,0,0,0
JM,Jamaica,country,Latin America and the Caribbean,18.109581,-77.297508,ES,Spain,country,Europe and Central Asia,40.463667,-3.74922,7348.61989392951,1986,103,0,0,0,0,0,0,0,0,0,4,0,3,4,0,92,0,0,0,0,0,0,0,0
JP,Japan,country,East Asia and Pacific,36.204824,138.252924,ES,Spain,country,Europe and Central Asia,40.463667,-3.74922,10660.5609647911,1986,515,23,0,38,0,0,0,20,2,56,4,6,15,261,8,69,0,3,10,0,0,0,0,0
JO,Jordan,country,Middle East and North Africa,30.585164,36.238414,ES,Spain,country,Europe and Central Asia,40.463667,-3.74922,3750.58051913514,1986,0,0,0,0,0,0,0,0,0,0,0,0,0,0,0,0,0,0,0,0,0,0,0,0
KE,Kenya,country,Sub-Saharan Africa,-0.023559,37.906193,ES,Spain,country,Europe and Central Asia,40.463667,-3.74922,6164.47610647024,1986,1517,0,0,1005,0,0,0,0,274,0,0,0,136,20,0,0,0,0,0,82,0,0,0,0
KW,Kuwait,country,Middle East and North Africa,29.31166,47.481766,ES,Spain,country,Europe and Central Asia,40.463667,-3.74922,4770.16727908527,1986,1,0,0,0,0,0,0,1,0,0,0,0,0,0,0,0,0,0,0,0,0,0,0,0
LB,Lebanon,country,Middle East and North Africa,33.854721,35.862285,ES,Spain,country,Europe and Central Asia,40.463667,-3.74922,3559.44496302283,1986,641,0,0,0,632,0,0,3,0,0,0,0,0,6,0,0,0,0,0,0,0,0,0,0
LR,Liberia,country,Sub-Saharan Africa,6.428055,-9.429499,ES,Spain,country,Europe and Central Asia,40.463667,-3.74922,3830.92567783329,1986,4664,0,0,0,0,0,0,0,0,0,0,0,149,4515,0,0,0,0,0,0,0,0,0,0
MG,Madagascar,country,Sub-Saharan Africa,-18.766947,46.869107,ES,Spain,country,Europe and Central Asia,40.463667,-3.74922,8418.47208315338,1986,5334,0,0,0,0,0,0,0,0,128,60,0,5111,35,0,0,0,0,0,0,0,0,0,0
MW,Malawi,country,Sub-Saharan Africa,-13.254308,34.301525,ES,Spain,country,Europe and Central Asia,40.463667,-3.74922,7152.82837737316,1986,1081,0,0,0,2,14,0,0,0,0,5,0,17,1043,0,0,0,0,0,0,0,0,0,0
MY,Malaysia,country,East Asia and Pacific,4.210484,101.975766,ES,Spain,country,Europe and Central Asia,40.463667,-3.74922,11030.6950469228,1986,94833,2,0,0,0,0,55,0,200,0,1200,5990,817,50010,36559,0,0,0,0,0,0,0,0,0
ML,Mali,country,Sub-Saharan Africa,17.570692,-3.996166,ES,Spain,country,Europe and Central Asia,40.463667,-3.74922,2548.5447738533,1986,2638,0,0,0,62,0,0,0,50,2443,0,0,0,0,0,0,0,0,0,83,0,0,0,0
MT,Malta,country,Middle East and North Africa,35.937496,14.375416,ES,Spain,country,Europe and Central Asia,40.463667,-3.74922,1660.13398626115,1986,6,0,0,0,0,0,0,0,0,0,0,0,0,6,0,0,0,0,0,0,0,0,0,0
MR,Mauritania,country,Sub-Saharan Africa,21.00789,-10.940835,ES,Spain,country,Europe and Central Asia,40.463667,-3.74922,2270.38003152045,1986,12,0,0,0,0,0,0,0,0,0,0,0,0,0,0,0,0,0,0,12,0,0,0,0
MU,Mauritius,country,Sub-Saharan Africa,-20.348404,57.552152,ES,Spain,country,Europe and Central Asia,40.463667,-3.74922,9271.54527019537,1986,179,0,0,179,0,0,0,0,0,0,0,0,0,0,0,0,0,0,0,0,0,0,0,0
MX,Mexico,country,Latin America and the Caribbean,23.634501,-102.552784,ES,Spain,country,Europe and Central Asia,40.463667,-3.74922,9035.84561037374,1986,37987,1,0,597,34428,0,52,18,16,282,7,114,2156,221,0,55,0,0,40,0,0,0,0,0
MN,Mongolia,country,East Asia and Pacific,46.862496,103.846656,ES,Spain,country,Europe and Central Asia,40.463667,-3.74922,7966.10136535764,1986,0,0,0,0,0,0,0,0,0,0,0,0,0,0,0,0,0,0,0,0,0,0,0,0
MA,Morocco,country,Middle East and North Africa,31.791702,-7.09262,ES,Spain,country,Europe and Central Asia,40.463667,-3.74922,1010.85595531353,1986,34171,199,0,6347,875,38,15,95,6583,0,121,6,0,19869,0,0,0,0,10,13,0,0,0,0
NP,Nepal,country,South Asia,28.394857,84.124008,ES,Spain,country,Europe and Central Asia,40.463667,-3.74922,7850.43749907654,1986,109,0,0,0,0,0,85,0,0,0,0,0,24,0,0,0,0,0,0,0,0,0,0,0
NL,Netherlands,country,Europe and Central Asia,52.132633,5.291266,ES,Spain,country,Europe and Central Asia,40.463667,-3.74922,1470.75431483959,1986,227429,12252,56863,4023,673,2,354,2148,6158,22,25,28490,2789,14776,6334,22451,454,33287,35627,1155,0,0,0,0
NZ,New Zealand,country,East Asia and Pacific,-40.900557,174.885971,ES,Spain,country,Europe and Central Asia,40.463667,-3.74922,19912.4518342504,1986,14573,0,0,0,49,0,0,0,169,2737,0,0,0,343,0,0,0,4542,712,6021,0,0,0,0
NI,Nicaragua,country,Latin America and the Caribbean,12.865416,-85.207229,ES,Spain,country,Europe and Central Asia,40.463667,-3.74922,8376.34091883409,1986,5623,0,0,0,0,0,0,0,0,18,0,0,5590,14,0,1,0,0,0,0,0,0,0,0
NE,Niger,country,Sub-Saharan Africa,17.607789,8.081666,ES,Spain,country,Europe and Central Asia,40.463667,-3.74922,2786.42387917796,1986,212,0,0,0,0,0,0,0,0,0,0,0,49,32,0,0,0,0,0,131,0,0,0,0
NG,Nigeria,country,Sub-Saharan Africa,9.081999,8.675277,ES,Spain,country,Europe and Central Asia,40.463667,-3.74922,3703.27327942395,1986,6654,0,0,0,0,0,0,0,0,0,0,0,437,5149,0,0,0,0,0,1068,0,0,0,0
NO,Norway,country,Europe and Central Asia,60.472024,8.468946,ES,Spain,country,Europe and Central Asia,40.463667,-3.74922,2380.60296833506,1986,3170,30,0,0,0,0,0,0,6,0,0,412,2,57,844,0,0,28,241,1550,0,0,0,0
PK,Pakistan,country,South Asia,30.375321,69.345116,ES,Spain,country,Europe and Central Asia,40.463667,-3.74922,6538.0967622052,1986,39022,13,0,16908,0,0,0,0,0,20869,202,0,0,1030,0,0,0,0,0,0,0,0,0,0
PA,Panama,country,Latin America and the Caribbean,8.537981,-80.782127,ES,Spain,country,Europe and Central Asia,40.463667,-3.74922,8306.93774942058,1986,63,0,0,0,0,0,0,0,4,0,0,0,43,16,0,0,0,0,0,0,0,0,0,0
PG,Papua New Guinea,country,East Asia and Pacific,-6.314993,143.95555,ES,Spain,country,Europe and Central Asia,40.463667,-3.74922,15059.7568355185,1986,452,0,0,0,0,0,0,0,0,0,0,0,367,70,0,0,0,0,0,15,0,0,0,0
PY,Paraguay,country,Latin America and the Caribbean,-23.442503,-58.443832,ES,Spain,country,Europe and Central Asia,40.463667,-3.74922,9089.15443257981,1986,160522,0,0,0,0,0,154467,0,0,907,0,1265,3215,303,0,0,0,365,0,0,0,0,0,0
PE,Peru,country,Latin America and the Caribbean,-9.189967,-75.015152,ES,Spain,country,Europe and Central Asia,40.463667,-3.74922,9138.4917842534,1986,2761,421,0,0,126,0,0,0,10,50,15,444,1454,199,0,0,0,0,0,42,0,0,0,0
PH,Philippines,country,East Asia and Pacific,12.879721,121.774017,ES,Spain,country,Europe and Central Asia,40.463667,-3.74922,11870.5976014295,1986,23986,0,0,0,0,2,366,0,3976,0,0,770,641,4136,14095,0,0,0,0,0,0,0,0,0
PL,Poland,country,Europe and Central Asia,51.919438,19.145136,ES,Spain,country,Europe and Central Asia,40.463667,-3.74922,2161.70936554664,1986,1854,0,54,3,0,0,0,761,46,0,2,20,287,55,0,50,0,576,0,0,0,0,0,0
PT,Portugal,country,Europe and Central Asia,39.399872,-8.224454,ES,Spain,country,Europe and Central Asia,40.463667,-3.74922,399.889203367549,1986,108406,76,2541,164,20,827,126,1474,431,2023,6,82046,599,2275,13017,1798,22,21,458,504,0,0,0,0
QA,Qatar,country,Middle East and North Africa,25.354826,51.183884,ES,Spain,country,Europe and Central Asia,40.463667,-3.74922,5310.81937791307,1986,118,0,0,0,0,0,0,0,0,0,0,0,0,0,0,0,0,0,0,118,0,0,0,0
KR,"Korea, Rep.",country,East Asia and Pacific,35.907757,127.766922,ES,Spain,country,Europe and Central Asia,40.463667,-3.74922,10196.4210430804,1986,511,120,0,1,0,0,0,57,0,0,2,0,3,317,0,11,0,0,0,0,0,0,0,0
RE,Reunion,country,Sub-Saharan Africa,-21.115141,55.536384,ES,Spain,country,Europe and Central Asia,40.463667,-3.74922,9195.48914938552,1986,0,0,0,0,0,0,0,0,0,0,0,0,0,0,0,0,0,0,0,0,0,0,0,0
RO,Romania,country,Europe and Central Asia,45.943161,24.96676,ES,Spain,country,Europe and Central Asia,40.463667,-3.74922,2394.3078208419,1986,2677,0,0,0,0,0,0,0,39,0,0,0,0,0,0,0,0,2638,0,0,0,0,0,0
RW,Rwanda,country,Sub-Saharan Africa,-1.940278,29.873888,ES,Spain,country,Europe and Central Asia,40.463667,-3.74922,5824.68100820973,1986,390,0,0,0,0,0,0,0,0,0,0,0,382,0,0,0,0,0,0,8,0,0,0,0
SA,Saudi Arabia,country,Middle East and North Africa,23.885942,45.079162,ES,Spain,country,Europe and Central Asia,40.463667,-3.74922,4885.19295909301,1986,858,0,0,0,0,0,0,0,0,0,0,0,0,0,0,0,0,0,0,858,0,0,0,0
SN,Senegal,country,Sub-Saharan Africa,14.497401,-14.452362,ES,Spain,country,Europe and Central Asia,40.463667,-3.74922,3071.95497278311,1986,21581,0,0,0,0,0,0,0,0,0,0,21559,0,10,0,0,0,0,0,12,0,0,0,0
SL,Sierra Leone,country,Sub-Saharan Africa,8.460555,-11.779889,ES,Spain,country,Europe and Central Asia,40.463667,-3.74922,3650.42095094484,1986,256,0,0,0,0,0,0,0,0,0,0,0,254,2,0,0,0,0,0,0,0,0,0,0
SG,Singapore,country,East Asia and Pacific,1.352083,103.819836,ES,Spain,country,Europe and Central Asia,40.463667,-3.74922,11396.1401666691,1986,1600,0,0,0,0,0,21,0,0,0,109,0,45,1423,2,0,0,0,0,0,0,0,0,0
SO,Somalia,country,Sub-Saharan Africa,5.152149,46.199616,ES,Spain,country,Europe and Central Asia,40.463667,-3.74922,6335.88984106657,1986,6326,0,0,6298,0,0,0,0,0,0,0,0,0,0,0,0,0,0,0,28,0,0,0,0
ZA,S. Africa,country,Sub-Saharan Africa,-30.559482,22.937506,ES,Spain,country,Europe and Central Asia,40.463667,-3.74922,8371.54423950228,1986,37521,0,0,18435,0,0,0,114,12681,2127,0,56,4,203,0,0,0,346,0,3555,0,0,0,0
LK,Sri Lanka,country,South Asia,7.873054,80.771797,ES,Spain,country,Europe and Central Asia,40.463667,-3.74922,8988.33469484139,1986,9697,0,0,0,0,0,5497,0,5,96,459,989,176,1845,630,0,0,0,0,0,0,0,0,0
SD,Sudan,country,Sub-Saharan Africa,12.862807,30.217636,ES,Spain,country,Europe and Central Asia,40.463667,-3.74922,4516.06214628501,1986,28955,0,0,27628,0,0,0,0,0,977,0,0,0,162,0,0,0,34,0,154,0,0,0,0
SR,Suriname,country,Latin America and the Caribbean,3.919305,-56.027783,ES,Spain,country,Europe and Central Asia,40.463667,-3.74922,6614.50083923575,1986,127,0,0,0,0,0,0,0,0,0,0,0,127,0,0,0,0,0,0,0,0,0,0,0
SZ,Swaziland,country,Sub-Saharan Africa,-26.522503,31.465866,ES,Spain,country,Europe and Central Asia,40.463667,-3.74922,8299.03817906041,1986,17644,0,0,17580,0,0,0,0,64,0,0,0,0,0,0,0,0,0,0,0,0,0,0,0
SE,Sweden,country,Europe and Central Asia,60.128161,18.643501,ES,Spain,country,Europe and Central Asia,40.463667,-3.74922,2678.55810202692,1986,26477,123,162,15080,0,0,1057,5388,9,0,0,8,31,117,913,112,0,2959,260,258,0,0,0,0
CH,Switzerland,country,Europe and Central Asia,46.818188,8.227512,ES,Spain,country,Europe and Central Asia,40.463667,-3.74922,1194.20682726533,1986,4052,29,48,165,0,0,0,49,40,1,3,14,221,1701,3,42,0,104,1557,75,0,0,0,0
SY,Syrian Arab Rep.,country,Middle East and North Africa,34.802075,38.996815,ES,Spain,country,Europe and Central Asia,40.463667,-3.74922,3783.29701945685,1986,6586,0,0,0,0,0,0,8,0,6578,0,0,0,0,0,0,0,0,0,0,0,0,0,0
TH,Thailand,country,East Asia and Pacific,15.870032,100.992541,ES,Spain,country,Europe and Central Asia,40.463667,-3.74922,10074.6083895738,1986,182591,180,169249,3800,24,0,87,0,5109,163,30,66,0,3883,0,0,0,0,0,0,0,0,0,0
TG,Togo,country,Sub-Saharan Africa,8.619543,0.824782,ES,Spain,country,Europe and Central Asia,40.463667,-3.74922,3573.72776077565,1986,3053,0,0,0,0,0,0,0,0,2042,0,0,964,7,0,0,0,0,0,40,0,0,0,0
TT,Trinidad and Tobago,country,Latin America and the Caribbean,10.691803,-61.222503,ES,Spain,country,Europe and Central Asia,40.463667,-3.74922,6513.04549669805,1986,2,0,0,0,0,0,0,0,0,0,0,0,0,0,0,2,0,0,0,0,0,0,0,0
TN,Tunisia,country,Middle East and North Africa,33.886917,9.537499,ES,Spain,country,Europe and Central Asia,40.463667,-3.74922,1385.07968041442,1986,1279,0,0,0,0,0,0,0,1241,0,0,0,0,21,0,0,0,0,0,17,0,0,0,0
TR,Turkey,country,Europe and Central Asia,38.963745,35.243322,ES,Spain,country,Europe and Central Asia,40.463667,-3.74922,3315.95022920572,1986,45725,0,0,0,22137,5944,159,44,4405,4093,196,40,8,8699,0,0,0,0,0,0,0,0,0,0
UG,Uganda,country,Sub-Saharan Africa,1.373333,32.290275,ES,Spain,country,Europe and Central Asia,40.463667,-3.74922,5666.92504107279,1986,16153,0,0,0,0,0,0,0,24,18,0,0,15821,3,0,0,0,0,0,287,0,0,0,0
AE,United Arab Emirates,country,Middle East and North Africa,23.424076,53.847818,ES,Spain,country,Europe and Central Asia,40.463667,-3.74922,5654.5649550044,1986,306,0,0,0,0,0,0,0,0,0,0,0,0,0,0,0,0,0,0,306,0,0,0,0
GB,United Kingdom,country,Europe and Central Asia,55.378051,-3.435973,ES,Spain,country,Europe and Central Asia,40.463667,-3.74922,1660.4217187434,1986,1391545,1225153,53405,595,612,111,42,8729,380,2187,58,1834,2147,3545,711,50496,96,7558,2493,31489,0,0,0,0
TZ,Tanzania,country,Sub-Saharan Africa,-6.369028,34.888822,ES,Spain,country,Europe and Central Asia,40.463667,-3.74922,6541.15950528669,1986,1104,0,0,0,0,0,0,0,0,611,6,0,96,2,0,0,0,0,0,389,0,0,0,0
US,USA,country,North America,37.09024,-95.712891,ES,Spain,country,Europe and Central Asia,40.463667,-3.74922,7597.41810045668,1986,3521279,1181185,336,133,17553,12571,1834623,625,2294,9606,10,274246,1,25342,112286,428,301,4240,41634,4166,0,0,0,0
UY,Uruguay,country,Latin America and the Caribbean,-32.522779,-55.765835,ES,Spain,country,Europe and Central Asia,40.463667,-3.74922,9725.91770321313,1986,7253,0,0,136,18,0,0,0,0,320,0,0,0,1472,253,0,0,3970,0,1084,0,0,0,0
RU,Russian Federation,country,Europe and Central Asia,61.52401,105.318756,ES,Spain,country,Europe and Central Asia,40.463667,-3.74922,7027.76165748881,1986,13009,0,0,60,0,11,0,430,0,10143,0,0,0,1860,0,434,0,0,0,71,0,0,0,0
VE,Venezuela,country,Latin America and the Caribbean,6.42375,-66.58973,ES,Spain,country,Europe and Central Asia,40.463667,-3.74922,7270.22281403742,1986,1102,290,0,0,0,0,0,0,4,0,17,0,152,85,0,482,0,72,0,0,0,0,0,0
VN,Vietnam,country,East Asia and Pacific,14.058324,108.277199,ES,Spain,country,Europe and Central Asia,40.463667,-3.74922,10780.4971654608,1986,1155,0,0,0,0,13,61,0,0,0,65,0,1016,0,0,0,0,0,0,0,0,0,0,0
BA,Bosnia & Herzegovina,country,Europe and Central Asia,43.915886,17.679076,ES,Spain,country,Europe and Central Asia,40.463667,-3.74922,1803.21143309203,1986,17087,14899,0,11,0,0,0,70,17,0,65,677,44,856,0,1,0,316,131,0,0,0,0,0
ZM,Zambia,country,Sub-Saharan Africa,-13.133897,27.849332,ES,Spain,country,Europe and Central Asia,40.463667,-3.74922,6799.26996912012,1986,0,0,0,0,0,0,0,0,0,0,0,0,0,0,0,0,0,0,0,0,0,0,0,0
ZW,Zimbabwe,country,Sub-Saharan Africa,-19.015438,29.154857,ES,Spain,country,Europe and Central Asia,40.463667,-3.74922,7446.3993079135,1986,1792,4,0,0,0,0,0,0,1622,140,0,0,0,11,0,0,0,15,0,0,0,0,0,0
AF,Afghanistan,country,South Asia,33.93911,67.709953,ES,Spain,country,Europe and Central Asia,40.463667,-3.74922,6204.29653179016,1987,230,0,0,0,0,0,0,0,0,61,0,0,0,169,0,0,0,0,0,0,0,0,0,0
AL,Albania,country,Europe and Central Asia,41.153332,20.168331,ES,Spain,country,Europe and Central Asia,40.463667,-3.74922,2010.35405080444,1987,227,0,0,0,0,0,0,0,0,0,0,0,0,30,197,0,0,0,0,0,0,0,0,0
DZ,Algeria,country,Middle East and North Africa,28.033886,1.659626,ES,Spain,country,Europe and Central Asia,40.463667,-3.74922,1469.65473528297,1987,220,0,0,0,0,0,0,0,184,0,0,0,24,11,0,1,0,0,0,0,0,0,0,0
AD,Andorra,country,Europe and Central Asia,42.546245,1.601554,ES,Spain,country,Europe and Central Asia,40.463667,-3.74922,502.5877573869,1987,19273,0,0,64,0,0,0,6,0,0,0,0,0,8,58,18936,0,153,28,20,0,0,0,0
AO,Angola,country,Sub-Saharan Africa,-11.202692,17.873887,ES,Spain,country,Europe and Central Asia,40.463667,-3.74922,6168.0619990405,1987,3820,0,0,0,0,0,0,0,0,0,0,0,3820,0,0,0,0,0,0,0,0,0,0,0
AR,Argentina,country,Latin America and the Caribbean,-38.416097,-63.616672,ES,Spain,country,Europe and Central Asia,40.463667,-3.74922,10683.2530616728,1987,179597,23541,0,3653,15732,0,2161,170,162,886,0,110397,85,3709,9767,1718,0,5623,2,1991,0,0,0,0
AU,Australia,country,East Asia and Pacific,-25.274398,133.775136,ES,Spain,country,Europe and Central Asia,40.463667,-3.74922,15771.2652786068,1987,48249,1171,0,1254,367,0,67,0,10,17300,0,25362,0,78,13,0,0,103,647,1877,0,0,0,0
AT,Austria,country,Europe and Central Asia,47.516231,14.550072,ES,Spain,country,Europe and Central Asia,40.463667,-3.74922,1656.86040247762,1987,7638,20,552,640,0,0,60,786,27,75,0,80,2220,242,2,187,0,345,1637,765,0,0,0,0
BS,The Bahamas,country,Latin America and the Caribbean,25.03428,-77.39628,ES,Spain,country,Europe and Central Asia,40.463667,-3.74922,6907.35650890195,1987,0,0,0,0,0,0,0,0,0,0,0,0,0,0,0,0,0,0,0,0,0,0,0,0
BD,Bangladesh,country,South Asia,23.684994,90.356331,ES,Spain,country,Europe and Central Asia,40.463667,-3.74922,8663.99737618064,1987,4402,0,0,3943,0,0,0,0,0,439,0,0,18,0,0,0,0,2,0,0,0,0,0,0
BB,Barbados,country,Latin America and the Caribbean,13.193887,-59.543198,ES,Spain,country,Europe and Central Asia,40.463667,-3.74922,6192.63727087304,1987,6000,0,0,6000,0,0,0,0,0,0,0,0,0,0,0,0,0,0,0,0,0,0,0,0
BE,Belgium,country,Europe and Central Asia,50.503887,4.469936,ES,Spain,country,Europe and Central Asia,40.463667,-3.74922,1286.85828632885,1987,94461,723,16821,183,58,2,255,4232,3023,3066,7,12199,768,3144,14342,1539,29,8691,23909,1499,0,0,0,0
BJ,Benin,country,Sub-Saharan Africa,9.30769,2.315834,ES,Spain,country,Europe and Central Asia,40.463667,-3.74922,3519.73370468441,1987,2910,0,0,0,0,0,535,0,0,2181,0,0,194,0,0,0,0,0,0,0,0,0,0,0
BO,Bolivia,country,Latin America and the Caribbean,-16.290154,-63.588653,ES,Spain,country,Europe and Central Asia,40.463667,-3.74922,8832.79548638246,1987,969,0,0,0,0,0,0,0,0,14,0,0,955,0,0,0,0,0,0,0,0,0,0,0
BW,Botswana,country,Sub-Saharan Africa,-22.328474,24.684866,ES,Spain,country,Europe and Central Asia,40.463667,-3.74922,7585.44252182133,1987,8,0,0,0,0,0,0,0,0,0,0,0,0,0,0,0,0,0,0,8,0,0,0,0
BR,Brazil,country,Latin America and the Caribbean,-14.235004,-51.92528,ES,Spain,country,Europe and Central Asia,40.463667,-3.74922,7858.97258557232,1987,1194241,16,12656,82578,35,60,456523,198,5881,273,547,551343,52523,13901,3453,547,0,13690,5,12,0,0,0,0
BG,Bulgaria,country,Europe and Central Asia,42.733883,25.48583,ES,Spain,country,Europe and Central Asia,40.463667,-3.74922,2434.52686910138,1987,545,27,0,0,0,0,0,0,0,0,1,193,0,321,0,1,0,0,0,2,0,0,0,0
BF,Burkina Faso,country,Sub-Saharan Africa,12.238333,-1.561593,ES,Spain,country,Europe and Central Asia,40.463667,-3.74922,3149.33010175919,1987,1802,0,0,0,0,0,0,23,0,1484,0,0,0,0,0,0,0,0,0,295,0,0,0,0
BI,Burundi,country,Sub-Saharan Africa,-3.373056,29.918886,ES,Spain,country,Europe and Central Asia,40.463667,-3.74922,5962.7516098146,1987,159,0,0,0,0,0,0,0,0,0,0,0,133,0,0,0,0,0,0,26,0,0,0,0
KH,Cambodia,country,East Asia and Pacific,12.565679,104.990963,ES,Spain,country,Europe and Central Asia,40.463667,-3.74922,10640.9099235847,1987,24,0,24,0,0,0,0,0,0,0,0,0,0,0,0,0,0,0,0,0,0,0,0,0
CM,Cameroon,country,Sub-Saharan Africa,7.369722,12.354722,ES,Spain,country,Europe and Central Asia,40.463667,-3.74922,4016.69837817166,1987,8092,0,0,0,0,0,0,0,0,412,0,0,6262,1290,0,0,0,0,0,128,0,0,0,0
CA,Canada,country,North America,56.130366,-106.346771,ES,Spain,country,Europe and Central Asia,40.463667,-3.74922,7067.59909592,1987,132221,15424,36,38,8476,0,66756,0,66,32,0,32922,0,787,6717,87,0,66,20,794,0,0,0,0
KY,Cayman Islands,country,Latin America and the Caribbean,19.513469,-80.566956,ES,Spain,country,Europe and Central Asia,40.463667,-3.74922,7530.43172504753,1987,17,0,0,0,0,0,0,0,0,0,0,0,17,0,0,0,0,0,0,0,0,0,0,0
CF,Central African Rep.,country,Sub-Saharan Africa,6.611111,20.939444,ES,Spain,country,Europe and Central Asia,40.463667,-3.74922,4498.76097084119,1987,342,0,0,0,0,0,0,0,0,328,0,0,0,14,0,0,0,0,0,0,0,0,0,0
TD,Chad,country,Sub-Saharan Africa,15.454166,18.732207,ES,Spain,country,Europe and Central Asia,40.463667,-3.74922,3532.49596131115,1987,1047,0,0,0,0,0,0,0,0,989,0,0,0,0,0,0,0,0,0,58,0,0,0,0
CL,Chile,country,Latin America and the Caribbean,-35.675147,-71.542969,ES,Spain,country,Europe and Central Asia,40.463667,-3.74922,10946.1239296351,1987,5465,0,0,4,546,0,0,390,2784,819,0,0,0,604,0,66,0,178,0,74,0,0,0,0
HK,Hong Kong,country,East Asia and Pacific,22.396428,114.109497,ES,Spain,country,Europe and Central Asia,40.463667,-3.74922,10538.7859760622,1987,861,2,0,0,0,0,0,0,0,529,5,0,0,241,84,0,0,0,0,0,0,0,0,0
CN,China,country,East Asia and Pacific,35.86166,104.195397,ES,Spain,country,Europe and Central Asia,40.463667,-3.74922,8798.11130984792,1987,56544,104,16551,789,379,274,4494,531,79,22166,116,8288,778,1040,5,62,0,155,0,733,0,0,0,0
TW,Taiwan,country,East Asia and Pacific,23.69781,120.960515,ES,Spain,country,Europe and Central Asia,40.463667,-3.74922,10888.0160050819,1987,350,26,0,0,2,0,0,59,84,0,3,5,18,150,0,3,0,0,0,0,0,0,0,0
CO,Colombia,country,Latin America and the Caribbean,4.570868,-74.297333,ES,Spain,country,Europe and Central Asia,40.463667,-3.74922,8046.77630995853,1987,32611,0,22,0,0,0,0,0,20,4606,0,0,23424,4539,0,0,0,0,0,0,0,0,0,0
KM,Comoros,country,Sub-Saharan Africa,-11.875001,43.872219,ES,Spain,country,Europe and Central Asia,40.463667,-3.74922,7613.09218139501,1987,19,0,0,0,0,0,0,0,0,0,19,0,0,0,0,0,0,0,0,0,0,0,0,0
CG,"Congo, Rep.",country,Sub-Saharan Africa,-0.228021,15.827659,ES,Spain,country,Europe and Central Asia,40.463667,-3.74922,4944.62871151535,1987,16,0,0,0,0,0,0,0,0,0,0,0,0,16,0,0,0,0,0,0,0,0,0,0
CR,Costa Rica,country,Latin America and the Caribbean,9.748917,-83.753428,ES,Spain,country,Europe and Central Asia,40.463667,-3.74922,8472.63256627805,1987,5146,0,0,0,0,0,0,18,663,0,0,0,4400,65,0,0,0,0,0,0,0,0,0,0
CI,Ivory Coast,country,Sub-Saharan Africa,7.539989,-5.54708,ES,Spain,country,Europe and Central Asia,40.463667,-3.74922,3669.4017707212,1987,41337,0,0,0,0,0,900,0,14856,1482,0,0,19498,4561,19,0,0,0,0,21,0,0,0,0
CU,Cuba,country,Latin America and the Caribbean,21.521757,-77.781167,ES,Spain,country,Europe and Central Asia,40.463667,-3.74922,7164.02841032118,1987,17430,2,0,551,0,0,0,0,284,861,0,0,4237,10906,0,576,0,13,0,0,0,0,0,0
CY,Cyprus,country,Europe and Central Asia,35.126413,33.429859,ES,Spain,country,Europe and Central Asia,40.463667,-3.74922,3298.98878195067,1987,3429,0,2922,0,0,0,0,0,252,0,0,0,0,0,0,0,0,7,0,248,0,0,0,0
CZ,Czech Republic,country,Europe and Central Asia,49.817492,15.472962,ES,Spain,country,Europe and Central Asia,40.463667,-3.74922,1825.15575110468,1987,7069,3114,0,84,0,0,0,0,0,85,0,0,77,138,0,371,0,2001,1199,0,0,0,0,0
KP,"Korea, Dem. Rep.",country,East Asia and Pacific,40.339852,127.510093,ES,Spain,country,Europe and Central Asia,40.463667,-3.74922,9778.51558868329,1987,10,0,0,0,0,0,0,0,0,0,0,0,0,10,0,0,0,0,0,0,0,0,0,0
CD,"Congo, Dem. Rep.",country,Sub-Saharan Africa,-4.038333,21.758664,ES,Spain,country,Europe and Central Asia,40.463667,-3.74922,5595.37052461465,1987,11812,0,0,0,0,0,0,0,0,0,0,0,6649,5163,0,0,0,0,0,0,0,0,0,0
DK,Denmark,country,Europe and Central Asia,56.26392,9.501785,ES,Spain,country,Europe and Central Asia,40.463667,-3.74922,2005.59916675212,1987,92305,45394,455,171,0,0,105,71,918,2,5,3,70,25614,636,2042,0,13620,3085,114,0,0,0,0
DJ,Djibouti,country,Middle East and North Africa,11.825138,42.590275,ES,Spain,country,Europe and Central Asia,40.463667,-3.74922,5529.99507992335,1987,69,0,0,0,0,0,0,0,0,0,0,0,0,0,0,0,0,0,0,69,0,0,0,0
DO,Dominican Republic,country,Latin America and the Caribbean,18.735693,-70.162651,ES,Spain,country,Europe and Central Asia,40.463667,-3.74922,6703.09906544524,1987,28393,0,16,19837,0,0,930,0,92,0,0,0,1359,6159,0,0,0,0,0,0,0,0,0,0
EC,Ecuador,country,Latin America and the Caribbean,-1.831239,-78.183406,ES,Spain,country,Europe and Central Asia,40.463667,-3.74922,8842.86890558783,1987,3506,0,0,0,0,0,0,0,56,5,0,0,3393,52,0,0,0,0,0,0,0,0,0,0
EG,Egypt,country,Middle East and North Africa,26.820553,30.802498,ES,Spain,country,Europe and Central Asia,40.463667,-3.74922,3514.08997283512,1987,12194,0,0,7601,0,0,0,0,0,4305,60,0,0,227,0,0,0,1,0,0,0,0,0,0
SV,El Salvador,country,Latin America and the Caribbean,13.794185,-88.89653,ES,Spain,country,Europe and Central Asia,40.463667,-3.74922,8622.02742160897,1987,8004,0,0,0,0,0,0,0,0,76,0,0,7928,0,0,0,0,0,0,0,0,0,0,0
GQ,Equatorial Guinea,country,Sub-Saharan Africa,1.650801,10.267895,ES,Spain,country,Europe and Central Asia,40.463667,-3.74922,4546.15736297061,1987,4507,0,0,0,0,0,0,0,0,0,0,0,4484,23,0,0,0,0,0,0,0,0,0,0
ET,Ethiopia,country,Sub-Saharan Africa,9.145,40.489673,ES,Spain,country,Europe and Central Asia,40.463667,-3.74922,5578.41569228763,1987,4974,0,0,4930,0,0,34,0,0,0,0,0,0,10,0,0,0,0,0,0,0,0,0,0
FK,Falkland Islands,country,,-51.796253,-59.523613,ES,Spain,country,Europe and Central Asia,40.463667,-3.74922,11599.5348815506,1987,25,0,0,0,0,0,0,0,0,0,0,0,0,0,0,0,0,0,0,25,0,0,0,0
FO,Faroe Islands,country,Europe and Central Asia,61.892635,-6.911806,ES,Spain,country,Europe and Central Asia,40.463667,-3.74922,2394.97397784906,1987,1,0,0,0,0,0,0,0,0,0,0,0,0,0,0,0,0,1,0,0,0,0,0,0
FI,Finland,country,Europe and Central Asia,61.92411,25.748151,ES,Spain,country,Europe and Central Asia,40.463667,-3.74922,3099.11616735237,1987,6989,33,0,3281,0,16,0,0,0,0,0,0,65,6,380,106,0,1259,1764,79,0,0,0,0
FR,France,country,Europe and Central Asia,46.227638,2.213749,ES,Spain,country,Europe and Central Asia,40.463667,-3.74922,802.440409032589,1987,3366804,862398,149874,81077,1221,955,2404,7170,31762,5030,93,50633,3784,30123,84639,1847219,2348,31113,153784,23195,330,0,0,0
GA,Gabon,country,Sub-Saharan Africa,-0.803689,11.609444,ES,Spain,country,Europe and Central Asia,40.463667,-3.74922,4850.75845064193,1987,1147,1100,0,0,0,0,0,0,0,0,0,0,47,0,0,0,0,0,0,0,0,0,0,0
GM,The Gambia,country,Sub-Saharan Africa,13.443182,-15.310139,ES,Spain,country,Europe and Central Asia,40.463667,-3.74922,3212.28376389658,1987,975,0,0,0,0,0,975,0,0,0,0,0,0,0,0,0,0,0,0,0,0,0,0,0
GH,Ghana,country,Sub-Saharan Africa,7.946527,-1.023194,ES,Spain,country,Europe and Central Asia,40.463667,-3.74922,3629.8962557209,1987,4409,0,0,0,0,0,0,0,10,0,0,0,4399,0,0,0,0,0,0,0,0,0,0,0
GI,Gibraltar,country,Europe and Central Asia,36.137741,-5.345374,ES,Spain,country,Europe and Central Asia,40.463667,-3.74922,501.314720077424,1987,41,41,0,0,0,0,0,0,0,0,0,0,0,0,0,0,0,0,0,0,0,0,0,0
GR,Greece,country,Europe and Central Asia,39.074208,21.824312,ES,Spain,country,Europe and Central Asia,40.463667,-3.74922,2185.96234127089,1987,11680,6784,0,46,38,1,0,611,108,1643,0,0,3,711,0,0,0,449,15,1271,0,0,0,0
GL,Greenland,country,Europe and Central Asia,71.706936,-42.604303,ES,Spain,country,Europe and Central Asia,40.463667,-3.74922,4081.59935582454,1987,93,0,0,0,0,0,0,0,0,0,0,0,0,0,0,0,0,0,0,93,0,0,0,0
GD,Grenada,country,Latin America and the Caribbean,12.262776,-61.604171,ES,Spain,country,Europe and Central Asia,40.463667,-3.74922,6430.27768207903,1987,153,0,0,0,0,0,0,0,0,0,153,0,0,0,0,0,0,0,0,0,0,0,0,0
GP,Guadeloupe,country,Latin America and the Caribbean,16.995971,-62.067641,ES,Spain,country,Europe and Central Asia,40.463667,-3.74922,6136.20664341074,1987,98,0,0,0,0,0,0,2,0,0,0,0,0,96,0,0,0,0,0,0,0,0,0,0
GT,Guatemala,country,Latin America and the Caribbean,15.783471,-90.230759,ES,Spain,country,Europe and Central Asia,40.463667,-3.74922,8594.49944266129,1987,8237,0,0,6180,0,13,19,0,0,0,10,0,1773,242,0,0,0,0,0,0,0,0,0,0
GN,Guinea,country,Sub-Saharan Africa,9.945587,-9.696645,ES,Spain,country,Europe and Central Asia,40.463667,-3.74922,3447.58367554001,1987,47,0,0,0,0,0,0,0,0,0,0,0,47,0,0,0,0,0,0,0,0,0,0,0
GW,Guinea-Bissau,country,Sub-Saharan Africa,11.803749,-15.180413,ES,Spain,country,Europe and Central Asia,40.463667,-3.74922,3381.64957918352,1987,17,0,0,0,0,0,0,0,17,0,0,0,0,0,0,0,0,0,0,0,0,0,0,0
GY,Guyana,country,Latin America and the Caribbean,4.860416,-58.93018,ES,Spain,country,Europe and Central Asia,40.463667,-3.74922,6768.36621989291,1987,3963,1952,0,2011,0,0,0,0,0,0,0,0,0,0,0,0,0,0,0,0,0,0,0,0
HT,Haiti,country,Latin America and the Caribbean,18.971187,-72.285215,ES,Spain,country,Europe and Central Asia,40.463667,-3.74922,6867.25535293376,1987,98,0,0,0,0,0,0,0,69,0,0,0,0,29,0,0,0,0,0,0,0,0,0,0
HN,Honduras,country,Latin America and the Caribbean,15.199999,-86.241905,ES,Spain,country,Europe and Central Asia,40.463667,-3.74922,8300.98612358819,1987,3194,0,0,0,0,0,0,0,3,1255,0,0,1936,0,0,0,0,0,0,0,0,0,0,0
HU,Hungary,country,Europe and Central Asia,47.162494,19.503304,ES,Spain,country,Europe and Central Asia,40.463667,-3.74922,2001.71630049066,1987,8780,0,0,56,134,0,47,513,0,343,0,231,8,374,370,3,0,6701,0,0,0,0,0,0
IS,Iceland,country,Europe and Central Asia,64.963051,-19.020835,ES,Spain,country,Europe and Central Asia,40.463667,-3.74922,2897.18723718784,1987,0,0,0,0,0,0,0,0,0,0,0,0,0,0,0,0,0,0,0,0,0,0,0,0
IN,India,country,South Asia,20.593684,78.96288,ES,Spain,country,Europe and Central Asia,40.463667,-3.74922,7950.54577847508,1987,5103,11,0,0,2,2,188,8,17,1216,345,0,979,2335,0,0,0,0,0,0,0,0,0,0
ID,Indonesia,country,East Asia and Pacific,-0.789275,113.921327,ES,Spain,country,Europe and Central Asia,40.463667,-3.74922,12382.7992061042,1987,65498,1,0,18475,0,0,0,0,381,0,448,0,5589,36103,4467,0,0,34,0,0,0,0,0,0
IR,Iran,country,Middle East and North Africa,32.427908,53.688046,ES,Spain,country,Europe and Central Asia,40.463667,-3.74922,5129.75135980238,1987,7231,0,0,0,0,6716,0,0,287,0,5,0,0,4,0,0,0,0,0,219,0,0,0,0
IQ,Iraq,country,Middle East and North Africa,33.223191,43.679291,ES,Spain,country,Europe and Central Asia,40.463667,-3.74922,4249.50050193147,1987,211,0,0,0,0,0,0,0,196,0,0,0,0,0,0,0,0,0,0,15,0,0,0,0
IE,Ireland,country,Europe and Central Asia,53.41291,-8.24389,ES,Spain,country,Europe and Central Asia,40.463667,-3.74922,1480.6749116579,1987,27443,1133,4949,65,0,0,0,19,28,16,0,2,0,12889,0,3595,0,1880,2562,305,0,0,0,0
IL,Israel,country,Middle East and North Africa,31.046051,34.851612,ES,Spain,country,Europe and Central Asia,40.463667,-3.74922,3609.41775173455,1987,8027,0,0,0,0,4,1849,111,843,4875,0,0,34,305,0,4,0,2,0,0,0,0,0,0
IT,Italy,country,Europe and Central Asia,41.87194,12.56738,ES,Spain,country,Europe and Central Asia,40.463667,-3.74922,1374.17267084231,1987,123809,50475,24,2624,108,54,12,1104,3864,23,33,5162,1829,9212,37794,844,5,6060,412,4175,0,0,0,0
JM,Jamaica,country,Latin America and the Caribbean,18.109581,-77.297508,ES,Spain,country,Europe and Central Asia,40.463667,-3.74922,7348.61989392951,1987,175,0,0,0,0,0,0,0,0,0,3,0,6,4,0,162,0,0,0,0,0,0,0,0
JP,Japan,country,East Asia and Pacific,36.204824,138.252924,ES,Spain,country,Europe and Central Asia,40.463667,-3.74922,10660.5609647911,1987,506,9,0,0,1,0,0,15,10,158,0,8,3,245,5,52,0,0,0,0,0,0,0,0
JO,Jordan,country,Middle East and North Africa,30.585164,36.238414,ES,Spain,country,Europe and Central Asia,40.463667,-3.74922,3750.58051913514,1987,0,0,0,0,0,0,0,0,0,0,0,0,0,0,0,0,0,0,0,0,0,0,0,0
KE,Kenya,country,Sub-Saharan Africa,-0.023559,37.906193,ES,Spain,country,Europe and Central Asia,40.463667,-3.74922,6164.47610647024,1987,6645,0,0,5462,0,0,0,5,605,0,0,0,439,13,0,0,0,0,0,121,0,0,0,0
KW,Kuwait,country,Middle East and North Africa,29.31166,47.481766,ES,Spain,country,Europe and Central Asia,40.463667,-3.74922,4770.16727908527,1987,4,0,0,0,0,0,0,0,0,0,0,0,0,0,4,0,0,0,0,0,0,0,0,0
LB,Lebanon,country,Middle East and North Africa,33.854721,35.862285,ES,Spain,country,Europe and Central Asia,40.463667,-3.74922,3559.44496302283,1987,15,0,0,0,0,0,0,7,0,0,0,0,0,5,0,3,0,0,0,0,0,0,0,0
LR,Liberia,country,Sub-Saharan Africa,6.428055,-9.429499,ES,Spain,country,Europe and Central Asia,40.463667,-3.74922,3830.92567783329,1987,3432,0,0,0,0,0,0,0,0,0,0,0,0,3432,0,0,0,0,0,0,0,0,0,0
LY,Libya,country,Middle East and North Africa,26.3351,17.228331,ES,Spain,country,Europe and Central Asia,40.463667,-3.74922,2493.36409623275,1987,243,0,0,0,0,0,0,0,0,243,0,0,0,0,0,0,0,0,0,0,0,0,0,0
MG,Madagascar,country,Sub-Saharan Africa,-18.766947,46.869107,ES,Spain,country,Europe and Central Asia,40.463667,-3.74922,8418.47208315338,1987,5899,0,0,0,0,0,0,0,15,1674,116,0,3982,112,0,0,0,0,0,0,0,0,0,0
MW,Malawi,country,Sub-Saharan Africa,-13.254308,34.301525,ES,Spain,country,Europe and Central Asia,40.463667,-3.74922,7152.82837737316,1987,1324,0,0,44,0,0,18,0,0,0,4,0,0,1253,0,0,0,0,0,5,0,0,0,0
MY,Malaysia,country,East Asia and Pacific,4.210484,101.975766,ES,Spain,country,Europe and Central Asia,40.463667,-3.74922,11030.6950469228,1987,99532,0,0,0,0,0,210,0,136,0,665,1695,1860,52826,42140,0,0,0,0,0,0,0,0,0
ML,Mali,country,Sub-Saharan Africa,17.570692,-3.996166,ES,Spain,country,Europe and Central Asia,40.463667,-3.74922,2548.5447738533,1987,2770,0,0,0,0,0,0,0,0,2544,0,0,125,0,0,0,0,0,0,101,0,0,0,0
MT,Malta,country,Middle East and North Africa,35.937496,14.375416,ES,Spain,country,Europe and Central Asia,40.463667,-3.74922,1660.13398626115,1987,0,0,0,0,0,0,0,0,0,0,0,0,0,0,0,0,0,0,0,0,0,0,0,0
MR,Mauritania,country,Sub-Saharan Africa,21.00789,-10.940835,ES,Spain,country,Europe and Central Asia,40.463667,-3.74922,2270.38003152045,1987,11,0,0,0,0,0,0,0,0,0,0,0,0,0,0,0,0,0,0,11,0,0,0,0
MU,Mauritius,country,Sub-Saharan Africa,-20.348404,57.552152,ES,Spain,country,Europe and Central Asia,40.463667,-3.74922,9271.54527019537,1987,4758,0,0,4755,0,0,0,0,0,0,0,0,0,3,0,0,0,0,0,0,0,0,0,0
MX,Mexico,country,Latin America and the Caribbean,23.634501,-102.552784,ES,Spain,country,Europe and Central Asia,40.463667,-3.74922,9035.84561037374,1987,55083,12,0,13614,36201,0,72,12,462,97,12,271,3899,296,0,105,0,0,30,0,0,0,0,0
MN,Mongolia,country,East Asia and Pacific,46.862496,103.846656,ES,Spain,country,Europe and Central Asia,40.463667,-3.74922,7966.10136535764,1987,0,0,0,0,0,0,0,0,0,0,0,0,0,0,0,0,0,0,0,0,0,0,0,0
MA,Morocco,country,Middle East and North Africa,31.791702,-7.09262,ES,Spain,country,Europe and Central Asia,40.463667,-3.74922,1010.85595531353,1987,2465,80,114,0,123,15,0,437,0,33,46,25,0,1416,7,26,0,0,0,143,0,0,0,0
MZ,Mozambique,country,Sub-Saharan Africa,-18.665695,35.529562,ES,Spain,country,Europe and Central Asia,40.463667,-3.74922,7736.38401620109,1987,22,0,0,0,0,0,0,0,0,0,0,0,0,22,0,0,0,0,0,0,0,0,0,0
MM,Myanmar,country,East Asia and Pacific,21.913965,95.956223,ES,Spain,country,Europe and Central Asia,40.463667,-3.74922,9230.90475951961,1987,19,0,0,0,0,0,0,0,0,0,0,0,0,0,0,0,0,0,0,19,0,0,0,0
NP,Nepal,country,South Asia,28.394857,84.124008,ES,Spain,country,Europe and Central Asia,40.463667,-3.74922,7850.43749907654,1987,75,0,0,0,0,0,75,0,0,0,0,0,0,0,0,0,0,0,0,0,0,0,0,0
NL,Netherlands,country,Europe and Central Asia,52.132633,5.291266,ES,Spain,country,Europe and Central Asia,40.463667,-3.74922,1470.75431483959,1987,335274,13994,118987,5091,358,42,1010,13602,15783,123,65,27428,3959,19243,10816,34853,48,33964,34751,1205,0,0,0,0
NC,New Caledonia,country,East Asia and Pacific,-20.904305,165.618042,ES,Spain,country,Europe and Central Asia,40.463667,-3.74922,17638.4766195136,1987,44,0,0,0,0,0,0,0,15,0,0,0,0,29,0,0,0,0,0,0,0,0,0,0
NZ,New Zealand,country,East Asia and Pacific,-40.900557,174.885971,ES,Spain,country,Europe and Central Asia,40.463667,-3.74922,19912.4518342504,1987,23520,6,0,0,54,0,0,2,4431,2098,0,0,0,470,0,0,0,8137,711,7611,0,0,0,0
NI,Nicaragua,country,Latin America and the Caribbean,12.865416,-85.207229,ES,Spain,country,Europe and Central Asia,40.463667,-3.74922,8376.34091883409,1987,3590,0,0,0,0,0,0,0,0,0,0,0,3555,25,0,10,0,0,0,0,0,0,0,0
NE,Niger,country,Sub-Saharan Africa,17.607789,8.081666,ES,Spain,country,Europe and Central Asia,40.463667,-3.74922,2786.42387917796,1987,56,0,0,0,0,0,0,0,0,0,0,0,14,0,0,17,0,0,0,25,0,0,0,0
NG,Nigeria,country,Sub-Saharan Africa,9.081999,8.675277,ES,Spain,country,Europe and Central Asia,40.463667,-3.74922,3703.27327942395,1987,2413,0,0,0,0,0,0,0,0,0,0,0,1585,25,0,0,0,0,0,803,0,0,0,0
NO,Norway,country,Europe and Central Asia,60.472024,8.468946,ES,Spain,country,Europe and Central Asia,40.463667,-3.74922,2380.60296833506,1987,3412,32,0,0,0,0,0,0,12,0,0,295,5,49,807,45,0,383,275,1509,0,0,0,0
PK,Pakistan,country,South Asia,30.375321,69.345116,ES,Spain,country,Europe and Central Asia,40.463667,-3.74922,6538.0967622052,1987,60292,10,0,31075,0,0,0,0,0,28337,32,0,0,830,0,0,0,0,0,8,0,0,0,0
PA,Panama,country,Latin America and the Caribbean,8.537981,-80.782127,ES,Spain,country,Europe and Central Asia,40.463667,-3.74922,8306.93774942058,1987,156,0,0,0,0,0,0,0,0,0,0,1,137,0,0,0,0,0,0,18,0,0,0,0
PG,Papua New Guinea,country,East Asia and Pacific,-6.314993,143.95555,ES,Spain,country,Europe and Central Asia,40.463667,-3.74922,15059.7568355185,1987,86,0,0,0,0,0,0,0,0,0,2,0,26,43,0,0,0,15,0,0,0,0,0,0
PY,Paraguay,country,Latin America and the Caribbean,-23.442503,-58.443832,ES,Spain,country,Europe and Central Asia,40.463667,-3.74922,9089.15443257981,1987,448417,0,0,0,36,0,430843,0,0,3428,0,0,12235,516,0,0,0,1359,0,0,0,0,0,0
PE,Peru,country,Latin America and the Caribbean,-9.189967,-75.015152,ES,Spain,country,Europe and Central Asia,40.463667,-3.74922,9138.4917842534,1987,2135,392,0,0,197,0,0,1,14,30,0,210,1143,148,0,0,0,0,0,0,0,0,0,0
PH,Philippines,country,East Asia and Pacific,12.879721,121.774017,ES,Spain,country,Europe and Central Asia,40.463667,-3.74922,11870.5976014295,1987,32125,2,0,0,0,5,527,0,5342,0,0,698,122,3923,21506,0,0,0,0,0,0,0,0,0
PL,Poland,country,Europe and Central Asia,51.919438,19.145136,ES,Spain,country,Europe and Central Asia,40.463667,-3.74922,2161.70936554664,1987,5005,231,130,986,0,0,0,1175,28,75,0,40,0,70,0,71,0,2184,15,0,0,0,0,0
PT,Portugal,country,Europe and Central Asia,39.399872,-8.224454,ES,Spain,country,Europe and Central Asia,40.463667,-3.74922,399.889203367549,1987,116193,340,669,5516,0,5562,166,3533,630,2131,6,73609,942,1544,14782,4150,99,394,1592,604,23,0,0,0
KR,"Korea, Rep.",country,East Asia and Pacific,35.907757,127.766922,ES,Spain,country,Europe and Central Asia,40.463667,-3.74922,10196.4210430804,1987,884,103,0,0,0,0,0,161,2,7,0,3,2,594,0,12,0,0,0,0,0,0,0,0
RE,Reunion,country,Sub-Saharan Africa,-21.115141,55.536384,ES,Spain,country,Europe and Central Asia,40.463667,-3.74922,9195.48914938552,1987,7,0,0,0,0,0,0,0,7,0,0,0,0,0,0,0,0,0,0,0,0,0,0,0
RO,Romania,country,Europe and Central Asia,45.943161,24.96676,ES,Spain,country,Europe and Central Asia,40.463667,-3.74922,2394.3078208419,1987,4242,202,0,0,0,0,205,94,0,0,0,0,0,73,0,8,0,3645,15,0,0,0,0,0
RW,Rwanda,country,Sub-Saharan Africa,-1.940278,29.873888,ES,Spain,country,Europe and Central Asia,40.463667,-3.74922,5824.68100820973,1987,509,0,0,0,0,0,0,0,3,0,0,0,370,4,0,0,0,0,0,132,0,0,0,0
SA,Saudi Arabia,country,Middle East and North Africa,23.885942,45.079162,ES,Spain,country,Europe and Central Asia,40.463667,-3.74922,4885.19295909301,1987,609,0,0,0,0,0,0,0,0,0,0,0,0,0,0,0,0,0,0,609,0,0,0,0
SN,Senegal,country,Sub-Saharan Africa,14.497401,-14.452362,ES,Spain,country,Europe and Central Asia,40.463667,-3.74922,3071.95497278311,1987,16918,0,0,0,0,0,0,0,0,220,0,16663,0,8,0,0,0,0,0,27,0,0,0,0
SC,Seychelles,country,Sub-Saharan Africa,-4.679574,55.491977,ES,Spain,country,Europe and Central Asia,40.463667,-3.74922,7840.90026988078,1987,4,0,0,0,0,0,0,0,0,0,4,0,0,0,0,0,0,0,0,0,0,0,0,0
SL,Sierra Leone,country,Sub-Saharan Africa,8.460555,-11.779889,ES,Spain,country,Europe and Central Asia,40.463667,-3.74922,3650.42095094484,1987,49,0,0,0,0,0,0,0,0,0,0,0,49,0,0,0,0,0,0,0,0,0,0,0
SG,Singapore,country,East Asia and Pacific,1.352083,103.819836,ES,Spain,country,Europe and Central Asia,40.463667,-3.74922,11396.1401666691,1987,3899,0,0,0,0,0,12,0,77,0,70,0,1456,2282,2,0,0,0,0,0,0,0,0,0
SO,Somalia,country,Sub-Saharan Africa,5.152149,46.199616,ES,Spain,country,Europe and Central Asia,40.463667,-3.74922,6335.88984106657,1987,3612,0,0,3300,0,0,0,0,0,0,0,0,0,24,0,0,0,0,0,288,0,0,0,0
ZA,S. Africa,country,Sub-Saharan Africa,-30.559482,22.937506,ES,Spain,country,Europe and Central Asia,40.463667,-3.74922,8371.54423950228,1987,35065,3,0,4430,0,0,12,584,15624,1889,0,8037,22,307,0,4,0,75,0,4078,0,0,0,0
LK,Sri Lanka,country,South Asia,7.873054,80.771797,ES,Spain,country,Europe and Central Asia,40.463667,-3.74922,8988.33469484139,1987,7791,0,0,0,0,0,5183,0,0,0,484,0,102,2022,0,0,0,0,0,0,0,0,0,0
SD,Sudan,country,Sub-Saharan Africa,12.862807,30.217636,ES,Spain,country,Europe and Central Asia,40.463667,-3.74922,4516.06214628501,1987,35802,22502,0,10988,0,0,0,0,0,1993,0,0,0,269,0,0,0,0,0,50,0,0,0,0
SR,Suriname,country,Latin America and the Caribbean,3.919305,-56.027783,ES,Spain,country,Europe and Central Asia,40.463667,-3.74922,6614.50083923575,1987,162,48,0,0,0,0,0,0,0,0,0,0,114,0,0,0,0,0,0,0,0,0,0,0
SZ,Swaziland,country,Sub-Saharan Africa,-26.522503,31.465866,ES,Spain,country,Europe and Central Asia,40.463667,-3.74922,8299.03817906041,1987,3301,0,0,3301,0,0,0,0,0,0,0,0,0,0,0,0,0,0,0,0,0,0,0,0
SE,Sweden,country,Europe and Central Asia,60.128161,18.643501,ES,Spain,country,Europe and Central Asia,40.463667,-3.74922,2678.55810202692,1987,38969,189,0,23912,0,0,1405,3648,4,49,0,3,602,573,6375,207,0,1419,307,276,0,0,0,0
CH,Switzerland,country,Europe and Central Asia,46.818188,8.227512,ES,Spain,country,Europe and Central Asia,40.463667,-3.74922,1194.20682726533,1987,5607,57,58,218,0,20,0,355,31,172,2,2,783,2269,48,137,0,52,1244,159,0,0,0,0
SY,Syrian Arab Rep.,country,Middle East and North Africa,34.802075,38.996815,ES,Spain,country,Europe and Central Asia,40.463667,-3.74922,3783.29701945685,1987,5393,0,23,0,0,0,0,0,0,5298,0,0,72,0,0,0,0,0,0,0,0,0,0,0
TH,Thailand,country,East Asia and Pacific,15.870032,100.992541,ES,Spain,country,Europe and Central Asia,40.463667,-3.74922,10074.6083895738,1987,658790,22,637664,7518,50,0,66,15,5774,0,8,199,290,5962,1219,3,0,0,0,0,0,0,0,0
TG,Togo,country,Sub-Saharan Africa,8.619543,0.824782,ES,Spain,country,Europe and Central Asia,40.463667,-3.74922,3573.72776077565,1987,4327,0,0,0,0,0,1000,0,0,3124,0,0,199,4,0,0,0,0,0,0,0,0,0,0
TT,Trinidad and Tobago,country,Latin America and the Caribbean,10.691803,-61.222503,ES,Spain,country,Europe and Central Asia,40.463667,-3.74922,6513.04549669805,1987,5,0,0,0,0,0,0,0,0,0,0,0,0,0,0,5,0,0,0,0,0,0,0,0
TN,Tunisia,country,Middle East and North Africa,33.886917,9.537499,ES,Spain,country,Europe and Central Asia,40.463667,-3.74922,1385.07968041442,1987,1107,0,0,0,0,0,0,69,975,10,0,0,0,53,0,0,0,0,0,0,0,0,0,0
TR,Turkey,country,Europe and Central Asia,38.963745,35.243322,ES,Spain,country,Europe and Central Asia,40.463667,-3.74922,3315.95022920572,1987,46147,0,6,1,16873,2561,179,453,3592,7889,320,325,0,13948,0,0,0,0,0,0,0,0,0,0
UG,Uganda,country,Sub-Saharan Africa,1.373333,32.290275,ES,Spain,country,Europe and Central Asia,40.463667,-3.74922,5666.92504107279,1987,12737,0,0,0,0,0,0,0,0,0,0,0,12581,0,0,0,0,0,0,156,0,0,0,0
AE,United Arab Emirates,country,Middle East and North Africa,23.424076,53.847818,ES,Spain,country,Europe and Central Asia,40.463667,-3.74922,5654.5649550044,1987,717,0,0,0,0,385,0,0,0,0,0,0,0,0,0,0,0,0,0,332,0,0,0,0
GB,United Kingdom,country,Europe and Central Asia,55.378051,-3.435973,ES,Spain,country,Europe and Central Asia,40.463667,-3.74922,1660.4217187434,1987,540817,352304,68477,1248,181,178,39,17767,501,2052,73,9465,2780,4303,1048,45199,34,9768,2004,23430,0,0,0,0
TZ,Tanzania,country,Sub-Saharan Africa,-6.369028,34.888822,ES,Spain,country,Europe and Central Asia,40.463667,-3.74922,6541.15950528669,1987,1920,0,0,0,0,0,0,0,0,1328,19,0,0,5,0,0,0,0,0,568,0,0,0,0
US,USA,country,North America,37.09024,-95.712891,ES,Spain,country,Europe and Central Asia,40.463667,-3.74922,7597.41810045668,1987,3231157,609681,10129,97,12678,15776,1834439,749,2711,19587,23,588993,284,28957,96179,569,23,5888,68,4349,0,0,0,0
UY,Uruguay,country,Latin America and the Caribbean,-32.522779,-55.765835,ES,Spain,country,Europe and Central Asia,40.463667,-3.74922,9725.91770321313,1987,9287,321,0,484,0,0,0,6,0,547,0,0,133,1183,564,1,0,4369,12,1667,0,0,0,0
RU,Russian Federation,country,Europe and Central Asia,61.52401,105.318756,ES,Spain,country,Europe and Central Asia,40.463667,-3.74922,7027.76165748881,1987,14291,0,0,877,0,0,0,0,0,8995,0,24,0,2470,0,398,0,0,0,1527,0,0,0,0
VE,Venezuela,country,Latin America and the Caribbean,6.42375,-66.58973,ES,Spain,country,Europe and Central Asia,40.463667,-3.74922,7270.22281403742,1987,1724,503,0,0,0,0,0,0,340,0,0,0,35,23,0,697,0,126,0,0,0,0,0,0
VN,Vietnam,country,East Asia and Pacific,14.058324,108.277199,ES,Spain,country,Europe and Central Asia,40.463667,-3.74922,10780.4971654608,1987,2589,0,0,0,0,0,0,0,0,0,0,0,2589,0,0,0,0,0,0,0,0,0,0,0
BA,Bosnia & Herzegovina,country,Europe and Central Asia,43.915886,17.679076,ES,Spain,country,Europe and Central Asia,40.463667,-3.74922,1803.21143309203,1987,3523,0,0,7,0,0,20,223,49,0,58,170,30,1229,0,0,0,1737,0,0,0,0,0,0
ZM,Zambia,country,Sub-Saharan Africa,-13.133897,27.849332,ES,Spain,country,Europe and Central Asia,40.463667,-3.74922,6799.26996912012,1987,0,0,0,0,0,0,0,0,0,0,0,0,0,0,0,0,0,0,0,0,0,0,0,0
ZW,Zimbabwe,country,Sub-Saharan Africa,-19.015438,29.154857,ES,Spain,country,Europe and Central Asia,40.463667,-3.74922,7446.3993079135,1987,535,0,0,0,0,0,0,0,2,103,0,0,0,2,0,0,0,428,0,0,0,0,0,0
AL,Albania,country,Europe and Central Asia,41.153332,20.168331,ES,Spain,country,Europe and Central Asia,40.463667,-3.74922,2010.35405080444,1988,442,0,0,0,0,0,0,0,0,21,0,0,30,391,0,0,0,0,0,0,0,0,0,0
DZ,Algeria,country,Middle East and North Africa,28.033886,1.659626,ES,Spain,country,Europe and Central Asia,40.463667,-3.74922,1469.65473528297,1988,12002,0,0,0,0,0,0,0,250,0,0,11719,0,30,0,3,0,0,0,0,0,0,0,0
AD,Andorra,country,Europe and Central Asia,42.546245,1.601554,ES,Spain,country,Europe and Central Asia,40.463667,-3.74922,502.5877573869,1988,21437,2,0,1,0,0,3452,77,5,0,0,0,1,11,91,17774,0,0,0,23,0,0,0,0
AO,Angola,country,Sub-Saharan Africa,-11.202692,17.873887,ES,Spain,country,Europe and Central Asia,40.463667,-3.74922,6168.0619990405,1988,4420,0,0,0,0,0,0,0,0,0,0,0,4420,0,0,0,0,0,0,0,0,0,0,0
AR,Argentina,country,Latin America and the Caribbean,-38.416097,-63.616672,ES,Spain,country,Europe and Central Asia,40.463667,-3.74922,10683.2530616728,1988,350432,143893,0,3954,22374,0,5089,207,108,994,6,153223,80,3267,9649,5,0,5786,51,1746,0,0,0,0
AU,Australia,country,East Asia and Pacific,-25.274398,133.775136,ES,Spain,country,Europe and Central Asia,40.463667,-3.74922,15771.2652786068,1988,76907,184,0,1042,9080,0,94,0,1,18770,1,29583,0,91,0,250,0,45,791,16975,0,0,0,0
AT,Austria,country,Europe and Central Asia,47.516231,14.550072,ES,Spain,country,Europe and Central Asia,40.463667,-3.74922,1656.86040247762,1988,8148,130,433,525,17,0,7,1674,20,49,23,207,1831,162,2,640,0,162,1555,711,0,0,0,0
BS,The Bahamas,country,Latin America and the Caribbean,25.03428,-77.39628,ES,Spain,country,Europe and Central Asia,40.463667,-3.74922,6907.35650890195,1988,36,0,0,0,0,0,0,0,0,0,0,0,0,2,0,34,0,0,0,0,0,0,0,0
BH,Bahrain,country,Middle East and North Africa,25.930414,50.637772,ES,Spain,country,Europe and Central Asia,40.463667,-3.74922,5230.1926553803,1988,2,0,0,0,0,0,2,0,0,0,0,0,0,0,0,0,0,0,0,0,0,0,0,0
BD,Bangladesh,country,South Asia,23.684994,90.356331,ES,Spain,country,Europe and Central Asia,40.463667,-3.74922,8663.99737618064,1988,27965,0,0,27745,0,0,0,0,0,217,0,0,0,0,0,0,0,3,0,0,0,0,0,0
BE,Belgium,country,Europe and Central Asia,50.503887,4.469936,ES,Spain,country,Europe and Central Asia,40.463667,-3.74922,1286.85828632885,1988,142893,1932,53977,397,167,5,98,8084,4703,2506,0,6493,867,2907,18665,1846,6,12189,26372,1685,0,0,0,0
BZ,Belize,country,Latin America and the Caribbean,17.189877,-88.49765,ES,Spain,country,Europe and Central Asia,40.463667,-3.74922,8352.25007414087,1988,3969,0,0,3969,0,0,0,0,0,0,0,0,0,0,0,0,0,0,0,0,0,0,0,0
BJ,Benin,country,Sub-Saharan Africa,9.30769,2.315834,ES,Spain,country,Europe and Central Asia,40.463667,-3.74922,3519.73370468441,1988,1293,0,0,0,0,0,0,0,0,1293,0,0,0,0,0,0,0,0,0,0,0,0,0,0
BM,Bermuda,country,North America,32.321384,-64.75737,ES,Spain,country,Europe and Central Asia,40.463667,-3.74922,5433.11753491473,1988,0,0,0,0,0,0,0,0,0,0,0,0,0,0,0,0,0,0,0,0,0,0,0,0
BO,Bolivia,country,Latin America and the Caribbean,-16.290154,-63.588653,ES,Spain,country,Europe and Central Asia,40.463667,-3.74922,8832.79548638246,1988,1258,0,0,0,0,0,0,0,0,0,0,0,1256,0,0,0,0,0,0,2,0,0,0,0
BW,Botswana,country,Sub-Saharan Africa,-22.328474,24.684866,ES,Spain,country,Europe and Central Asia,40.463667,-3.74922,7585.44252182133,1988,0,0,0,0,0,0,0,0,0,0,0,0,0,0,0,0,0,0,0,0,0,0,0,0
BR,Brazil,country,Latin America and the Caribbean,-14.235004,-51.92528,ES,Spain,country,Europe and Central Asia,40.463667,-3.74922,7858.97258557232,1988,1567874,0,2,48074,0,97,355511,84,5817,10,1242,1071200,49502,17573,2999,1265,0,14430,68,0,0,0,0,0
BG,Bulgaria,country,Europe and Central Asia,42.733883,25.48583,ES,Spain,country,Europe and Central Asia,40.463667,-3.74922,2434.52686910138,1988,944,0,0,0,0,0,0,132,163,0,0,244,0,186,0,219,0,0,0,0,0,0,0,0
BF,Burkina Faso,country,Sub-Saharan Africa,12.238333,-1.561593,ES,Spain,country,Europe and Central Asia,40.463667,-3.74922,3149.33010175919,1988,2977,0,0,0,0,0,0,34,0,2627,0,0,0,0,2,0,0,0,0,314,0,0,0,0
BI,Burundi,country,Sub-Saharan Africa,-3.373056,29.918886,ES,Spain,country,Europe and Central Asia,40.463667,-3.74922,5962.7516098146,1988,2572,0,0,0,0,0,0,0,0,0,0,0,2523,0,0,0,0,0,0,49,0,0,0,0
KH,Cambodia,country,East Asia and Pacific,12.565679,104.990963,ES,Spain,country,Europe and Central Asia,40.463667,-3.74922,10640.9099235847,1988,48,0,0,0,0,0,0,0,0,0,0,0,0,48,0,0,0,0,0,0,0,0,0,0
CM,Cameroon,country,Sub-Saharan Africa,7.369722,12.354722,ES,Spain,country,Europe and Central Asia,40.463667,-3.74922,4016.69837817166,1988,13555,0,0,0,0,0,0,0,0,112,0,0,11256,2037,0,0,0,0,0,150,0,0,0,0
CA,Canada,country,North America,56.130366,-106.346771,ES,Spain,country,Europe and Central Asia,40.463667,-3.74922,7067.59909592,1988,32745,6478,0,38,5978,0,2658,111,58,0,0,76,0,628,15978,90,0,144,1,507,0,0,0,0
CF,Central African Rep.,country,Sub-Saharan Africa,6.611111,20.939444,ES,Spain,country,Europe and Central Asia,40.463667,-3.74922,4498.76097084119,1988,596,0,0,0,0,0,0,0,0,77,0,0,508,11,0,0,0,0,0,0,0,0,0,0
TD,Chad,country,Sub-Saharan Africa,15.454166,18.732207,ES,Spain,country,Europe and Central Asia,40.463667,-3.74922,3532.49596131115,1988,2044,0,0,0,0,0,0,0,0,1996,0,0,0,0,0,0,0,0,0,48,0,0,0,0
CL,Chile,country,Latin America and the Caribbean,-35.675147,-71.542969,ES,Spain,country,Europe and Central Asia,40.463667,-3.74922,10946.1239296351,1988,14941,0,0,22,2530,15,14,173,9383,576,0,0,0,912,0,130,0,859,26,301,0,0,0,0
HK,Hong Kong,country,East Asia and Pacific,22.396428,114.109497,ES,Spain,country,Europe and Central Asia,40.463667,-3.74922,10538.7859760622,1988,662,2,0,0,0,0,16,6,5,384,0,30,0,214,5,0,0,0,0,0,0,0,0,0
MO,"Macao SAR, China",country,East Asia and Pacific,22.198745,113.543873,ES,Spain,country,Europe and Central Asia,40.463667,-3.74922,10515.5787120567,1988,0,0,0,0,0,0,0,0,0,0,0,0,0,0,0,0,0,0,0,0,0,0,0,0
CN,China,country,East Asia and Pacific,35.86166,104.195397,ES,Spain,country,Europe and Central Asia,40.463667,-3.74922,8798.11130984792,1988,74661,71,0,290,11,134,8690,700,112,16329,176,44665,853,899,22,48,0,1049,0,612,0,0,0,0
TW,Taiwan,country,East Asia and Pacific,23.69781,120.960515,ES,Spain,country,Europe and Central Asia,40.463667,-3.74922,10888.0160050819,1988,372,6,0,0,3,0,30,96,58,0,0,12,50,108,0,9,0,0,0,0,0,0,0,0
CO,Colombia,country,Latin America and the Caribbean,4.570868,-74.297333,ES,Spain,country,Europe and Central Asia,40.463667,-3.74922,8046.77630995853,1988,26870,0,0,0,0,0,18,0,94,3531,0,15,17215,5997,0,0,0,0,0,0,0,0,0,0
KM,Comoros,country,Sub-Saharan Africa,-11.875001,43.872219,ES,Spain,country,Europe and Central Asia,40.463667,-3.74922,7613.09218139501,1988,1,0,0,0,0,0,0,0,0,0,1,0,0,0,0,0,0,0,0,0,0,0,0,0
CG,"Congo, Rep.",country,Sub-Saharan Africa,-0.228021,15.827659,ES,Spain,country,Europe and Central Asia,40.463667,-3.74922,4944.62871151535,1988,1,0,0,0,0,0,0,0,0,0,0,0,0,1,0,0,0,0,0,0,0,0,0,0
CR,Costa Rica,country,Latin America and the Caribbean,9.748917,-83.753428,ES,Spain,country,Europe and Central Asia,40.463667,-3.74922,8472.63256627805,1988,3453,0,0,0,0,0,24,0,2273,0,0,0,852,304,0,0,0,0,0,0,0,0,0,0
CI,Ivory Coast,country,Sub-Saharan Africa,7.539989,-5.54708,ES,Spain,country,Europe and Central Asia,40.463667,-3.74922,3669.4017707212,1988,55968,0,0,7402,0,0,543,0,15149,622,0,0,27999,4185,16,0,0,0,0,52,0,0,0,0
CU,Cuba,country,Latin America and the Caribbean,21.521757,-77.781167,ES,Spain,country,Europe and Central Asia,40.463667,-3.74922,7164.02841032118,1988,16401,5,0,440,0,0,0,0,305,403,0,0,4282,10568,0,398,0,0,0,0,0,0,0,0
CY,Cyprus,country,Europe and Central Asia,35.126413,33.429859,ES,Spain,country,Europe and Central Asia,40.463667,-3.74922,3298.98878195067,1988,1625,0,238,7,0,0,0,0,226,4,0,1019,0,0,0,0,0,0,0,131,0,0,0,0
CZ,Czech Republic,country,Europe and Central Asia,49.817492,15.472962,ES,Spain,country,Europe and Central Asia,40.463667,-3.74922,1825.15575110468,1988,8301,2763,0,745,112,40,0,0,261,0,0,0,77,39,0,508,0,1928,1828,0,0,0,0,0
CD,"Congo, Dem. Rep.",country,Sub-Saharan Africa,-4.038333,21.758664,ES,Spain,country,Europe and Central Asia,40.463667,-3.74922,5595.37052461465,1988,7094,0,0,0,0,0,0,0,0,0,0,0,3607,3465,0,0,0,0,0,22,0,0,0,0
DK,Denmark,country,Europe and Central Asia,56.26392,9.501785,ES,Spain,country,Europe and Central Asia,40.463667,-3.74922,2005.59916675212,1988,29949,2349,1031,228,20,0,191,174,1245,6,0,83,157,3747,989,2289,0,13444,3830,166,0,0,0,0
DJ,Djibouti,country,Middle East and North Africa,11.825138,42.590275,ES,Spain,country,Europe and Central Asia,40.463667,-3.74922,5529.99507992335,1988,2,0,0,0,0,0,0,0,0,0,0,0,0,0,0,0,0,0,0,2,0,0,0,0
DM,Dominica,country,Latin America and the Caribbean,15.414999,-61.370976,ES,Spain,country,Europe and Central Asia,40.463667,-3.74922,6187.04865099674,1988,44,0,0,0,0,0,12,0,32,0,0,0,0,0,0,0,0,0,0,0,0,0,0,0
DO,Dominican Republic,country,Latin America and the Caribbean,18.735693,-70.162651,ES,Spain,country,Europe and Central Asia,40.463667,-3.74922,6703.09906544524,1988,16540,0,13,0,0,0,2696,0,22,0,0,0,1087,12630,0,92,0,0,0,0,0,0,0,0
EC,Ecuador,country,Latin America and the Caribbean,-1.831239,-78.183406,ES,Spain,country,Europe and Central Asia,40.463667,-3.74922,8842.86890558783,1988,3200,0,0,0,0,0,0,0,73,0,0,0,3087,23,0,0,0,0,0,17,0,0,0,0
EG,Egypt,country,Middle East and North Africa,26.820553,30.802498,ES,Spain,country,Europe and Central Asia,40.463667,-3.74922,3514.08997283512,1988,7080,0,0,3789,0,0,0,0,0,2659,37,0,0,592,0,0,0,3,0,0,0,0,0,0
SV,El Salvador,country,Latin America and the Caribbean,13.794185,-88.89653,ES,Spain,country,Europe and Central Asia,40.463667,-3.74922,8622.02742160897,1988,993,0,0,0,0,0,0,0,0,0,0,0,992,1,0,0,0,0,0,0,0,0,0,0
GQ,Equatorial Guinea,country,Sub-Saharan Africa,1.650801,10.267895,ES,Spain,country,Europe and Central Asia,40.463667,-3.74922,4546.15736297061,1988,5887,0,0,0,0,0,0,0,0,0,0,0,5887,0,0,0,0,0,0,0,0,0,0,0
ET,Ethiopia,country,Sub-Saharan Africa,9.145,40.489673,ES,Spain,country,Europe and Central Asia,40.463667,-3.74922,5578.41569228763,1988,5308,0,0,5000,0,0,0,0,0,296,0,0,0,8,0,0,0,0,0,4,0,0,0,0
FK,Falkland Islands,country,,-51.796253,-59.523613,ES,Spain,country,Europe and Central Asia,40.463667,-3.74922,11599.5348815506,1988,56,0,0,0,18,0,0,0,0,0,0,0,0,25,0,0,0,0,0,13,0,0,0,0
FO,Faroe Islands,country,Europe and Central Asia,61.892635,-6.911806,ES,Spain,country,Europe and Central Asia,40.463667,-3.74922,2394.97397784906,1988,126,0,0,0,0,0,0,0,0,0,0,0,0,0,0,0,0,0,0,126,0,0,0,0
FI,Finland,country,Europe and Central Asia,61.92411,25.748151,ES,Spain,country,Europe and Central Asia,40.463667,-3.74922,3099.11616735237,1988,3748,18,0,916,0,0,2,0,0,0,5,8,29,19,517,174,0,111,1527,422,0,0,0,0
FR,France,country,Europe and Central Asia,46.227638,2.213749,ES,Spain,country,Europe and Central Asia,40.463667,-3.74922,802.440409032589,1988,1805869,781365,279989,96366,6221,505,4170,22362,38274,5090,94,60480,4030,36330,77528,130663,4402,44654,200737,16911,100,0,0,0
GF,French Guiana,country,Latin America and the Caribbean,3.933889,-53.125782,ES,Spain,country,Europe and Central Asia,40.463667,-3.74922,6390.1823507732,1988,8,0,0,0,0,0,0,0,0,0,8,0,0,0,0,0,0,0,0,0,0,0,0,0
GA,Gabon,country,Sub-Saharan Africa,-0.803689,11.609444,ES,Spain,country,Europe and Central Asia,40.463667,-3.74922,4850.75845064193,1988,101,0,0,0,0,0,0,0,0,101,0,0,0,0,0,0,0,0,0,0,0,0,0,0
GH,Ghana,country,Sub-Saharan Africa,7.946527,-1.023194,ES,Spain,country,Europe and Central Asia,40.463667,-3.74922,3629.8962557209,1988,5519,0,0,0,0,0,0,0,6,0,0,0,5513,0,0,0,0,0,0,0,0,0,0,0
GI,Gibraltar,country,Europe and Central Asia,36.137741,-5.345374,ES,Spain,country,Europe and Central Asia,40.463667,-3.74922,501.314720077424,1988,29,0,0,0,0,0,0,0,0,0,0,0,18,0,0,11,0,0,0,0,0,0,0,0
GR,Greece,country,Europe and Central Asia,39.074208,21.824312,ES,Spain,country,Europe and Central Asia,40.463667,-3.74922,2185.96234127089,1988,18971,12163,0,91,0,1,0,1913,175,610,0,0,0,1171,1944,6,0,0,49,848,0,0,0,0
GD,Grenada,country,Latin America and the Caribbean,12.262776,-61.604171,ES,Spain,country,Europe and Central Asia,40.463667,-3.74922,6430.27768207903,1988,135,0,0,0,0,0,0,0,0,0,135,0,0,0,0,0,0,0,0,0,0,0,0,0
GP,Guadeloupe,country,Latin America and the Caribbean,16.995971,-62.067641,ES,Spain,country,Europe and Central Asia,40.463667,-3.74922,6136.20664341074,1988,0,0,0,0,0,0,0,0,0,0,0,0,0,0,0,0,0,0,0,0,0,0,0,0
GT,Guatemala,country,Latin America and the Caribbean,15.783471,-90.230759,ES,Spain,country,Europe and Central Asia,40.463667,-3.74922,8594.49944266129,1988,1847,0,0,24,0,0,16,14,0,120,0,0,1212,461,0,0,0,0,0,0,0,0,0,0
GN,Guinea,country,Sub-Saharan Africa,9.945587,-9.696645,ES,Spain,country,Europe and Central Asia,40.463667,-3.74922,3447.58367554001,1988,834,0,0,0,0,0,0,0,0,0,0,0,830,4,0,0,0,0,0,0,0,0,0,0
HT,Haiti,country,Latin America and the Caribbean,18.971187,-72.285215,ES,Spain,country,Europe and Central Asia,40.463667,-3.74922,6867.25535293376,1988,208,0,0,0,0,0,0,0,72,0,0,0,111,25,0,0,0,0,0,0,0,0,0,0
VA,Vatican City,country,Europe and Central Asia,41.902916,12.453389,ES,Spain,country,Europe and Central Asia,40.463667,-3.74922,1364.80137737687,1988,24,0,0,0,0,0,0,0,0,0,0,0,0,0,24,0,0,0,0,0,0,0,0,0
HN,Honduras,country,Latin America and the Caribbean,15.199999,-86.241905,ES,Spain,country,Europe and Central Asia,40.463667,-3.74922,8300.98612358819,1988,3234,0,0,0,0,0,0,0,128,108,0,0,2873,76,0,0,0,49,0,0,0,0,0,0
HU,Hungary,country,Europe and Central Asia,47.162494,19.503304,ES,Spain,country,Europe and Central Asia,40.463667,-3.74922,2001.71630049066,1988,10968,301,1,80,185,0,241,616,30,69,759,287,3,453,1308,8,0,6626,1,0,0,0,0,0
IS,Iceland,country,Europe and Central Asia,64.963051,-19.020835,ES,Spain,country,Europe and Central Asia,40.463667,-3.74922,2897.18723718784,1988,136,40,0,0,0,0,0,0,0,51,0,0,0,45,0,0,0,0,0,0,0,0,0,0
IN,India,country,South Asia,20.593684,78.96288,ES,Spain,country,Europe and Central Asia,40.463667,-3.74922,7950.54577847508,1988,24269,12,0,0,7,0,123,4,10,347,839,19684,1191,2044,0,8,0,0,0,0,0,0,0,0
ID,Indonesia,country,East Asia and Pacific,-0.789275,113.921327,ES,Spain,country,Europe and Central Asia,40.463667,-3.74922,12382.7992061042,1988,139927,2,75088,0,0,0,61,0,347,0,320,1000,6634,40398,16018,0,0,59,0,0,0,0,0,0
IR,Iran,country,Middle East and North Africa,32.427908,53.688046,ES,Spain,country,Europe and Central Asia,40.463667,-3.74922,5129.75135980238,1988,5124,0,0,0,0,4750,0,0,101,0,1,0,0,7,0,0,0,0,0,265,0,0,0,0
IQ,Iraq,country,Middle East and North Africa,33.223191,43.679291,ES,Spain,country,Europe and Central Asia,40.463667,-3.74922,4249.50050193147,1988,225,0,0,0,0,0,0,0,173,0,0,0,0,0,0,0,0,0,0,52,0,0,0,0
IE,Ireland,country,Europe and Central Asia,53.41291,-8.24389,ES,Spain,country,Europe and Central Asia,40.463667,-3.74922,1480.6749116579,1988,32617,11732,5870,140,0,0,0,29,40,0,0,1682,34,2559,24,5726,0,2306,1717,758,0,0,0,0
IL,Israel,country,Middle East and North Africa,31.046051,34.851612,ES,Spain,country,Europe and Central Asia,40.463667,-3.74922,3609.41775173455,1988,9740,39,0,0,0,32,1592,372,1054,6208,0,0,5,399,0,19,2,20,0,0,0,0,0,0
IT,Italy,country,Europe and Central Asia,41.87194,12.56738,ES,Spain,country,Europe and Central Asia,40.463667,-3.74922,1374.17267084231,1988,93291,27051,39,424,276,91,205,3282,3949,244,15,8437,2091,11806,22882,1699,18,6995,814,2445,546,0,0,0
JM,Jamaica,country,Latin America and the Caribbean,18.109581,-77.297508,ES,Spain,country,Europe and Central Asia,40.463667,-3.74922,7348.61989392951,1988,121,0,0,0,0,0,0,0,0,0,1,0,17,0,0,103,0,0,0,0,0,0,0,0
JP,Japan,country,East Asia and Pacific,36.204824,138.252924,ES,Spain,country,Europe and Central Asia,40.463667,-3.74922,10660.5609647911,1988,616,16,0,0,0,0,25,31,2,195,11,45,0,236,4,50,0,1,0,0,0,0,0,0
JO,Jordan,country,Middle East and North Africa,30.585164,36.238414,ES,Spain,country,Europe and Central Asia,40.463667,-3.74922,3750.58051913514,1988,36,0,0,0,0,0,36,0,0,0,0,0,0,0,0,0,0,0,0,0,0,0,0,0
KE,Kenya,country,Sub-Saharan Africa,-0.023559,37.906193,ES,Spain,country,Europe and Central Asia,40.463667,-3.74922,6164.47610647024,1988,10563,0,0,7500,0,0,0,0,2795,0,0,0,129,23,0,0,0,0,0,116,0,0,0,0
KW,Kuwait,country,Middle East and North Africa,29.31166,47.481766,ES,Spain,country,Europe and Central Asia,40.463667,-3.74922,4770.16727908527,1988,43,0,9,13,0,0,0,7,0,0,0,0,0,0,0,0,0,0,0,14,0,0,0,0
LB,Lebanon,country,Middle East and North Africa,33.854721,35.862285,ES,Spain,country,Europe and Central Asia,40.463667,-3.74922,3559.44496302283,1988,77,7,0,0,0,2,0,25,3,0,1,0,0,17,0,0,0,0,0,22,0,0,0,0
LR,Liberia,country,Sub-Saharan Africa,6.428055,-9.429499,ES,Spain,country,Europe and Central Asia,40.463667,-3.74922,3830.92567783329,1988,2965,0,0,0,0,0,0,0,0,0,0,0,101,2864,0,0,0,0,0,0,0,0,0,0
LY,Libya,country,Middle East and North Africa,26.3351,17.228331,ES,Spain,country,Europe and Central Asia,40.463667,-3.74922,2493.36409623275,1988,115,0,0,0,0,0,0,0,0,83,0,0,0,0,0,0,0,0,0,32,0,0,0,0
MG,Madagascar,country,Sub-Saharan Africa,-18.766947,46.869107,ES,Spain,country,Europe and Central Asia,40.463667,-3.74922,8418.47208315338,1988,4437,0,0,72,0,0,0,0,0,401,198,0,3632,123,0,0,0,0,0,11,0,0,0,0
MW,Malawi,country,Sub-Saharan Africa,-13.254308,34.301525,ES,Spain,country,Europe and Central Asia,40.463667,-3.74922,7152.82837737316,1988,2162,0,0,30,0,0,176,0,0,0,7,0,0,1949,0,0,0,0,0,0,0,0,0,0
MY,Malaysia,country,East Asia and Pacific,4.210484,101.975766,ES,Spain,country,Europe and Central Asia,40.463667,-3.74922,11030.6950469228,1988,103106,0,0,0,0,0,542,0,454,0,992,0,2228,54831,44059,0,0,0,0,0,0,0,0,0
ML,Mali,country,Sub-Saharan Africa,17.570692,-3.996166,ES,Spain,country,Europe and Central Asia,40.463667,-3.74922,2548.5447738533,1988,1340,0,0,0,0,0,0,0,0,1155,0,0,0,0,0,0,0,0,0,185,0,0,0,0
MT,Malta,country,Middle East and North Africa,35.937496,14.375416,ES,Spain,country,Europe and Central Asia,40.463667,-3.74922,1660.13398626115,1988,25,0,0,0,0,2,0,0,0,0,0,0,0,8,0,0,0,0,0,15,0,0,0,0
MR,Mauritania,country,Sub-Saharan Africa,21.00789,-10.940835,ES,Spain,country,Europe and Central Asia,40.463667,-3.74922,2270.38003152045,1988,57,0,0,0,0,0,0,0,0,0,0,0,0,0,0,0,0,0,0,57,0,0,0,0
MU,Mauritius,country,Sub-Saharan Africa,-20.348404,57.552152,ES,Spain,country,Europe and Central Asia,40.463667,-3.74922,9271.54527019537,1988,3285,0,0,3280,0,0,0,0,0,0,0,0,0,5,0,0,0,0,0,0,0,0,0,0
MX,Mexico,country,Latin America and the Caribbean,23.634501,-102.552784,ES,Spain,country,Europe and Central Asia,40.463667,-3.74922,9035.84561037374,1988,43240,6,0,641,37746,0,138,20,274,308,18,293,3217,390,0,155,0,0,34,0,0,0,0,0
MN,Mongolia,country,East Asia and Pacific,46.862496,103.846656,ES,Spain,country,Europe and Central Asia,40.463667,-3.74922,7966.10136535764,1988,1,0,0,0,0,0,0,0,0,1,0,0,0,0,0,0,0,0,0,0,0,0,0,0
MA,Morocco,country,Middle East and North Africa,31.791702,-7.09262,ES,Spain,country,Europe and Central Asia,40.463667,-3.74922,1010.85595531353,1988,14504,4553,110,5369,193,15,0,625,28,77,50,81,0,2084,0,0,0,0,33,1286,0,0,0,0
MZ,Mozambique,country,Sub-Saharan Africa,-18.665695,35.529562,ES,Spain,country,Europe and Central Asia,40.463667,-3.74922,7736.38401620109,1988,32,0,0,0,0,0,0,0,0,0,0,0,7,25,0,0,0,0,0,0,0,0,0,0
NP,Nepal,country,South Asia,28.394857,84.124008,ES,Spain,country,Europe and Central Asia,40.463667,-3.74922,7850.43749907654,1988,51,0,0,0,0,0,51,0,0,0,0,0,0,0,0,0,0,0,0,0,0,0,0,0
NL,Netherlands,country,Europe and Central Asia,52.132633,5.291266,ES,Spain,country,Europe and Central Asia,40.463667,-3.74922,1470.75431483959,1988,301943,17881,83288,6017,311,54,336,25933,12703,56,15,12269,4387,26526,12851,30000,928,30408,37785,1123,0,0,0,0
NC,New Caledonia,country,East Asia and Pacific,-20.904305,165.618042,ES,Spain,country,Europe and Central Asia,40.463667,-3.74922,17638.4766195136,1988,8,0,0,0,0,0,0,0,0,0,0,0,0,8,0,0,0,0,0,0,0,0,0,0
NZ,New Zealand,country,East Asia and Pacific,-40.900557,174.885971,ES,Spain,country,Europe and Central Asia,40.463667,-3.74922,19912.4518342504,1988,26459,0,0,0,495,0,0,360,5610,1031,0,0,0,647,0,0,0,9838,616,7862,0,0,0,0
NI,Nicaragua,country,Latin America and the Caribbean,12.865416,-85.207229,ES,Spain,country,Europe and Central Asia,40.463667,-3.74922,8376.34091883409,1988,4443,0,0,0,0,0,0,0,0,0,0,0,4319,25,0,99,0,0,0,0,0,0,0,0
NE,Niger,country,Sub-Saharan Africa,17.607789,8.081666,ES,Spain,country,Europe and Central Asia,40.463667,-3.74922,2786.42387917796,1988,35,0,0,0,0,0,0,0,0,0,5,0,0,0,0,0,0,0,0,30,0,0,0,0
NG,Nigeria,country,Sub-Saharan Africa,9.081999,8.675277,ES,Spain,country,Europe and Central Asia,40.463667,-3.74922,3703.27327942395,1988,11473,0,0,0,0,0,0,0,0,0,10,0,5257,4769,0,0,0,0,0,1437,0,0,0,0
NO,Norway,country,Europe and Central Asia,60.472024,8.468946,ES,Spain,country,Europe and Central Asia,40.463667,-3.74922,2380.60296833506,1988,6021,34,0,0,0,20,17,28,0,0,0,346,96,266,825,1711,0,748,390,1540,0,0,0,0
PK,Pakistan,country,South Asia,30.375321,69.345116,ES,Spain,country,Europe and Central Asia,40.463667,-3.74922,6538.0967622052,1988,44486,12,0,26844,0,0,0,0,0,16670,135,0,0,825,0,0,0,0,0,0,0,0,0,0
PA,Panama,country,Latin America and the Caribbean,8.537981,-80.782127,ES,Spain,country,Europe and Central Asia,40.463667,-3.74922,8306.93774942058,1988,2635,0,0,0,0,0,0,0,20,0,0,0,79,10,0,2526,0,0,0,0,0,0,0,0
PG,Papua New Guinea,country,East Asia and Pacific,-6.314993,143.95555,ES,Spain,country,Europe and Central Asia,40.463667,-3.74922,15059.7568355185,1988,349,0,0,0,0,0,0,0,15,0,16,0,282,22,0,0,0,14,0,0,0,0,0,0
PY,Paraguay,country,Latin America and the Caribbean,-23.442503,-58.443832,ES,Spain,country,Europe and Central Asia,40.463667,-3.74922,9089.15443257981,1988,320239,0,0,0,0,0,305219,0,0,2057,0,0,11514,432,0,0,0,1017,0,0,0,0,0,0
PE,Peru,country,Latin America and the Caribbean,-9.189967,-75.015152,ES,Spain,country,Europe and Central Asia,40.463667,-3.74922,9138.4917842534,1988,9729,849,0,0,1116,0,0,24,82,4,31,5991,1367,253,0,0,0,12,0,0,0,0,0,0
PH,Philippines,country,East Asia and Pacific,12.879721,121.774017,ES,Spain,country,Europe and Central Asia,40.463667,-3.74922,11870.5976014295,1988,19548,2,0,0,0,8,742,4,5260,11,0,0,40,4482,8999,0,0,0,0,0,0,0,0,0
PL,Poland,country,Europe and Central Asia,51.919438,19.145136,ES,Spain,country,Europe and Central Asia,40.463667,-3.74922,2161.70936554664,1988,9868,0,0,62,181,0,0,2552,55,502,0,0,20,175,1100,3391,0,1815,15,0,0,0,0,0
PT,Portugal,country,Europe and Central Asia,39.399872,-8.224454,ES,Spain,country,Europe and Central Asia,40.463667,-3.74922,399.889203367549,1988,146499,2006,149,6394,0,4394,6444,9210,312,1296,20,95626,994,970,6063,4198,337,111,7580,244,488,0,0,0
KR,"Korea, Rep.",country,East Asia and Pacific,35.907757,127.766922,ES,Spain,country,Europe and Central Asia,40.463667,-3.74922,10196.4210430804,1988,1030,2,0,0,0,0,41,257,51,53,5,0,2,560,6,46,0,0,7,0,0,0,0,0
RE,Reunion,country,Sub-Saharan Africa,-21.115141,55.536384,ES,Spain,country,Europe and Central Asia,40.463667,-3.74922,9195.48914938552,1988,1,0,0,0,0,0,0,1,0,0,0,0,0,0,0,0,0,0,0,0,0,0,0,0
RO,Romania,country,Europe and Central Asia,45.943161,24.96676,ES,Spain,country,Europe and Central Asia,40.463667,-3.74922,2394.3078208419,1988,4759,106,23,269,49,0,0,158,225,0,0,0,7,123,0,100,0,3689,10,0,0,0,0,0
RW,Rwanda,country,Sub-Saharan Africa,-1.940278,29.873888,ES,Spain,country,Europe and Central Asia,40.463667,-3.74922,5824.68100820973,1988,409,0,0,0,0,0,0,0,0,0,0,0,291,2,0,3,0,0,0,113,0,0,0,0
SA,Saudi Arabia,country,Middle East and North Africa,23.885942,45.079162,ES,Spain,country,Europe and Central Asia,40.463667,-3.74922,4885.19295909301,1988,1142,80,0,0,0,0,0,10,0,0,0,0,0,0,0,0,0,0,0,1052,0,0,0,0
SN,Senegal,country,Sub-Saharan Africa,14.497401,-14.452362,ES,Spain,country,Europe and Central Asia,40.463667,-3.74922,3071.95497278311,1988,25573,350,0,0,0,0,0,0,0,400,0,24794,2,0,0,0,0,0,0,27,0,0,0,0
SL,Sierra Leone,country,Sub-Saharan Africa,8.460555,-11.779889,ES,Spain,country,Europe and Central Asia,40.463667,-3.74922,3650.42095094484,1988,608,0,0,0,0,0,0,0,0,0,0,0,608,0,0,0,0,0,0,0,0,0,0,0
SG,Singapore,country,East Asia and Pacific,1.352083,103.819836,ES,Spain,country,Europe and Central Asia,40.463667,-3.74922,11396.1401666691,1988,2082,0,0,0,0,0,76,0,13,0,28,0,18,1906,26,15,0,0,0,0,0,0,0,0
SB,Solomon Islands,country,East Asia and Pacific,-9.64571,160.156194,ES,Spain,country,Europe and Central Asia,40.463667,-3.74922,16256.7925806783,1988,6,0,0,0,0,0,0,0,0,0,0,0,0,6,0,0,0,0,0,0,0,0,0,0
SO,Somalia,country,Sub-Saharan Africa,5.152149,46.199616,ES,Spain,country,Europe and Central Asia,40.463667,-3.74922,6335.88984106657,1988,206,0,0,0,0,0,0,0,0,0,0,0,0,0,0,0,0,0,0,206,0,0,0,0
ZA,S. Africa,country,Sub-Saharan Africa,-30.559482,22.937506,ES,Spain,country,Europe and Central Asia,40.463667,-3.74922,8371.54423950228,1988,21570,20,0,403,0,0,0,581,15928,1273,0,0,34,162,0,213,0,0,0,2956,0,0,0,0
LK,Sri Lanka,country,South Asia,7.873054,80.771797,ES,Spain,country,Europe and Central Asia,40.463667,-3.74922,8988.33469484139,1988,5403,0,0,0,0,0,3392,0,0,0,400,0,29,1582,0,0,0,0,0,0,0,0,0,0
SD,Sudan,country,Sub-Saharan Africa,12.862807,30.217636,ES,Spain,country,Europe and Central Asia,40.463667,-3.74922,4516.06214628501,1988,2368,30,0,0,0,0,0,0,0,2051,0,0,0,253,0,0,0,0,0,34,0,0,0,0
SR,Suriname,country,Latin America and the Caribbean,3.919305,-56.027783,ES,Spain,country,Europe and Central Asia,40.463667,-3.74922,6614.50083923575,1988,125,125,0,0,0,0,0,0,0,0,0,0,0,0,0,0,0,0,0,0,0,0,0,0
SZ,Swaziland,country,Sub-Saharan Africa,-26.522503,31.465866,ES,Spain,country,Europe and Central Asia,40.463667,-3.74922,8299.03817906041,1988,12765,0,0,12735,0,0,0,0,0,0,0,0,30,0,0,0,0,0,0,0,0,0,0,0
SE,Sweden,country,Europe and Central Asia,60.128161,18.643501,ES,Spain,country,Europe and Central Asia,40.463667,-3.74922,2678.55810202692,1988,21741,422,1,6277,0,14,1311,4749,30,13,0,0,1737,1095,4277,155,0,1504,10,146,0,0,0,0
CH,Switzerland,country,Europe and Central Asia,46.818188,8.227512,ES,Spain,country,Europe and Central Asia,40.463667,-3.74922,1194.20682726533,1988,5822,41,6,217,0,12,17,247,63,167,1,16,678,2567,0,172,0,7,1328,283,0,0,0,0
SY,Syrian Arab Rep.,country,Middle East and North Africa,34.802075,38.996815,ES,Spain,country,Europe and Central Asia,40.463667,-3.74922,3783.29701945685,1988,724,0,0,0,0,0,0,8,0,716,0,0,0,0,0,0,0,0,0,0,0,0,0,0
TH,Thailand,country,East Asia and Pacific,15.870032,100.992541,ES,Spain,country,Europe and Central Asia,40.463667,-3.74922,10074.6083895738,1988,486628,4542,445146,10350,243,0,65,120,17580,0,31,278,633,7640,0,0,0,0,0,0,0,0,0,0
TG,Togo,country,Sub-Saharan Africa,8.619543,0.824782,ES,Spain,country,Europe and Central Asia,40.463667,-3.74922,3573.72776077565,1988,5375,0,0,0,0,0,0,0,0,5058,1,0,314,2,0,0,0,0,0,0,0,0,0,0
TT,Trinidad and Tobago,country,Latin America and the Caribbean,10.691803,-61.222503,ES,Spain,country,Europe and Central Asia,40.463667,-3.74922,6513.04549669805,1988,13400,0,0,13389,0,0,0,0,0,0,0,0,5,0,0,6,0,0,0,0,0,0,0,0
TN,Tunisia,country,Middle East and North Africa,33.886917,9.537499,ES,Spain,country,Europe and Central Asia,40.463667,-3.74922,1385.07968041442,1988,2756,0,0,0,0,0,0,15,1389,9,0,0,0,1343,0,0,0,0,0,0,0,0,0,0
TR,Turkey,country,Europe and Central Asia,38.963745,35.243322,ES,Spain,country,Europe and Central Asia,40.463667,-3.74922,3315.95022920572,1988,52676,20,0,9,27515,3196,239,551,5430,1799,335,3040,0,10542,0,0,0,0,0,0,0,0,0,0
UG,Uganda,country,Sub-Saharan Africa,1.373333,32.290275,ES,Spain,country,Europe and Central Asia,40.463667,-3.74922,5666.92504107279,1988,13166,0,0,0,0,0,0,0,0,0,0,0,13095,0,0,0,0,0,0,71,0,0,0,0
AE,United Arab Emirates,country,Middle East and North Africa,23.424076,53.847818,ES,Spain,country,Europe and Central Asia,40.463667,-3.74922,5654.5649550044,1988,324,0,0,8,0,56,0,9,0,0,0,0,0,0,0,0,0,0,0,251,0,0,0,0
GB,United Kingdom,country,Europe and Central Asia,55.378051,-3.435973,ES,Spain,country,Europe and Central Asia,40.463667,-3.74922,1660.4217187434,1988,381435,174869,47944,1127,328,8,74,12497,665,1433,78,24856,3969,5008,3226,67229,276,12241,2352,23531,0,0,0,0
TZ,Tanzania,country,Sub-Saharan Africa,-6.369028,34.888822,ES,Spain,country,Europe and Central Asia,40.463667,-3.74922,6541.15950528669,1988,2977,0,0,0,0,0,0,0,0,2398,0,0,231,9,0,14,0,0,0,325,0,0,0,0
US,USA,country,North America,37.09024,-95.712891,ES,Spain,country,Europe and Central Asia,40.463667,-3.74922,7597.41810045668,1988,4354965,2276824,12781,259,16150,22502,1347440,1582,3338,21695,93,542325,70,26111,69550,1524,230,7630,1134,3957,0,0,0,0
UY,Uruguay,country,Latin America and the Caribbean,-32.522779,-55.765835,ES,Spain,country,Europe and Central Asia,40.463667,-3.74922,9725.91770321313,1988,11963,1041,0,1275,0,0,5000,0,3,115,0,0,20,1463,252,0,0,1639,6,1149,0,0,0,0
RU,Russian Federation,country,Europe and Central Asia,61.52401,105.318756,ES,Spain,country,Europe and Central Asia,40.463667,-3.74922,7027.76165748881,1988,18399,0,0,0,0,0,0,2,7,9983,0,0,0,3992,0,544,0,0,0,3871,0,0,0,0
VE,Venezuela,country,Latin America and the Caribbean,6.42375,-66.58973,ES,Spain,country,Europe and Central Asia,40.463667,-3.74922,7270.22281403742,1988,2769,290,0,0,0,0,0,0,1157,0,17,0,462,0,0,820,0,23,0,0,0,0,0,0
VN,Vietnam,country,East Asia and Pacific,14.058324,108.277199,ES,Spain,country,Europe and Central Asia,40.463667,-3.74922,10780.4971654608,1988,664,0,0,0,0,0,5,6,15,0,14,0,592,32,0,0,0,0,0,0,0,0,0,0
BA,Bosnia & Herzegovina,country,Europe and Central Asia,43.915886,17.679076,ES,Spain,country,Europe and Central Asia,40.463667,-3.74922,1803.21143309203,1988,2634,5,0,13,784,0,0,414,90,0,0,137,0,1189,0,2,0,0,0,0,0,0,0,0
ZM,Zambia,country,Sub-Saharan Africa,-13.133897,27.849332,ES,Spain,country,Europe and Central Asia,40.463667,-3.74922,6799.26996912012,1988,6000,0,0,5974,0,0,0,0,0,0,0,0,24,2,0,0,0,0,0,0,0,0,0,0
ZW,Zimbabwe,country,Sub-Saharan Africa,-19.015438,29.154857,ES,Spain,country,Europe and Central Asia,40.463667,-3.74922,7446.3993079135,1988,1120,0,0,0,0,0,0,0,0,569,0,0,0,426,0,0,0,125,0,0,0,0,0,0
AL,Albania,country,Europe and Central Asia,41.153332,20.168331,ES,Spain,country,Europe and Central Asia,40.463667,-3.74922,2010.35405080444,1989,201,0,0,0,0,0,0,0,0,29,2,0,99,0,71,0,0,0,0,0,0,0,0,0
DZ,Algeria,country,Middle East and North Africa,28.033886,1.659626,ES,Spain,country,Europe and Central Asia,40.463667,-3.74922,1469.65473528297,1989,72,0,0,0,0,0,0,0,61,0,0,0,0,11,0,0,0,0,0,0,0,0,0,0
AD,Andorra,country,Europe and Central Asia,42.546245,1.601554,ES,Spain,country,Europe and Central Asia,40.463667,-3.74922,502.5877573869,1989,21059,0,24,0,0,0,0,21,0,0,0,3,3,31,82,20826,0,7,8,54,0,0,0,0
AO,Angola,country,Sub-Saharan Africa,-11.202692,17.873887,ES,Spain,country,Europe and Central Asia,40.463667,-3.74922,6168.0619990405,1989,3250,0,0,0,0,0,0,0,0,0,0,0,3250,0,0,0,0,0,0,0,0,0,0,0
AG,Antigua & Barbuda,country,Latin America and the Caribbean,17.060816,-61.796428,ES,Spain,country,Europe and Central Asia,40.463667,-3.74922,6108.9907156439,1989,19,0,0,0,0,0,0,0,0,0,0,0,19,0,0,0,0,0,0,0,0,0,0,0
AR,Argentina,country,Latin America and the Caribbean,-38.416097,-63.616672,ES,Spain,country,Europe and Central Asia,40.463667,-3.74922,10683.2530616728,1989,337371,178040,0,3062,18872,0,3587,227,21776,1273,0,99458,49,304,6966,543,0,1772,0,1442,0,0,0,0
AU,Australia,country,East Asia and Pacific,-25.274398,133.775136,ES,Spain,country,Europe and Central Asia,40.463667,-3.74922,15771.2652786068,1989,92236,13809,0,8158,320,0,111,0,4,19370,0,39696,0,317,0,3,0,132,265,10051,0,0,0,0
AT,Austria,country,Europe and Central Asia,47.516231,14.550072,ES,Spain,country,Europe and Central Asia,40.463667,-3.74922,1656.86040247762,1989,7713,112,1172,378,72,66,141,1239,42,25,0,109,1629,144,6,654,0,18,1072,834,0,0,0,0
BS,The Bahamas,country,Latin America and the Caribbean,25.03428,-77.39628,ES,Spain,country,Europe and Central Asia,40.463667,-3.74922,6907.35650890195,1989,0,0,0,0,0,0,0,0,0,0,0,0,0,0,0,0,0,0,0,0,0,0,0,0
BD,Bangladesh,country,South Asia,23.684994,90.356331,ES,Spain,country,Europe and Central Asia,40.463667,-3.74922,8663.99737618064,1989,5729,0,0,5672,0,0,0,0,0,51,0,0,6,0,0,0,0,0,0,0,0,0,0,0
BE,Belgium,country,Europe and Central Asia,50.503887,4.469936,ES,Spain,country,Europe and Central Asia,40.463667,-3.74922,1286.85828632885,1989,170682,1855,89153,603,0,41,88,23141,5457,2559,22,5188,1677,1619,15094,3171,29,14500,5369,1145,0,0,0,0
BJ,Benin,country,Sub-Saharan Africa,9.30769,2.315834,ES,Spain,country,Europe and Central Asia,40.463667,-3.74922,3519.73370468441,1989,5657,0,0,0,0,0,4502,0,0,927,0,0,228,0,0,0,0,0,0,0,0,0,0,0
BM,Bermuda,country,North America,32.321384,-64.75737,ES,Spain,country,Europe and Central Asia,40.463667,-3.74922,5433.11753491473,1989,0,0,0,0,0,0,0,0,0,0,0,0,0,0,0,0,0,0,0,0,0,0,0,0
BO,Bolivia,country,Latin America and the Caribbean,-16.290154,-63.588653,ES,Spain,country,Europe and Central Asia,40.463667,-3.74922,8832.79548638246,1989,684,0,0,0,0,0,0,0,0,0,0,0,684,0,0,0,0,0,0,0,0,0,0,0
BW,Botswana,country,Sub-Saharan Africa,-22.328474,24.684866,ES,Spain,country,Europe and Central Asia,40.463667,-3.74922,7585.44252182133,1989,0,0,0,0,0,0,0,0,0,0,0,0,0,0,0,0,0,0,0,0,0,0,0,0
BR,Brazil,country,Latin America and the Caribbean,-14.235004,-51.92528,ES,Spain,country,Europe and Central Asia,40.463667,-3.74922,7858.97258557232,1989,1593950,0,0,2350,0,61,512591,93,8638,546,532,1007282,44995,11228,3572,439,0,1572,25,26,0,0,0,0
VG,British Virgin Islands,country,Latin America and the Caribbean,18.420695,-64.639968,ES,Spain,country,Europe and Central Asia,40.463667,-3.74922,6256.70911939617,1989,26,0,0,0,0,0,26,0,0,0,0,0,0,0,0,0,0,0,0,0,0,0,0,0
BG,Bulgaria,country,Europe and Central Asia,42.733883,25.48583,ES,Spain,country,Europe and Central Asia,40.463667,-3.74922,2434.52686910138,1989,960,0,0,0,0,0,0,16,598,0,32,197,0,95,0,1,0,21,0,0,0,0,0,0
BF,Burkina Faso,country,Sub-Saharan Africa,12.238333,-1.561593,ES,Spain,country,Europe and Central Asia,40.463667,-3.74922,3149.33010175919,1989,1485,0,0,0,0,0,0,23,0,976,0,0,0,0,0,0,0,0,0,486,0,0,0,0
BI,Burundi,country,Sub-Saharan Africa,-3.373056,29.918886,ES,Spain,country,Europe and Central Asia,40.463667,-3.74922,5962.7516098146,1989,512,0,0,0,0,0,0,0,0,0,0,0,453,0,0,0,0,0,0,59,0,0,0,0
KH,Cambodia,country,East Asia and Pacific,12.565679,104.990963,ES,Spain,country,Europe and Central Asia,40.463667,-3.74922,10640.9099235847,1989,16,0,0,0,0,0,0,0,0,0,0,0,0,16,0,0,0,0,0,0,0,0,0,0
CM,Cameroon,country,Sub-Saharan Africa,7.369722,12.354722,ES,Spain,country,Europe and Central Asia,40.463667,-3.74922,4016.69837817166,1989,15067,0,0,0,0,0,0,0,0,91,0,0,13655,1165,0,0,0,0,0,156,0,0,0,0
CA,Canada,country,North America,56.130366,-106.346771,ES,Spain,country,Europe and Central Asia,40.463667,-3.74922,7067.59909592,1989,37987,5635,0,10,4868,0,1962,109,496,0,0,14164,0,116,10242,31,7,87,2,265,0,0,0,0
CF,Central African Rep.,country,Sub-Saharan Africa,6.611111,20.939444,ES,Spain,country,Europe and Central Asia,40.463667,-3.74922,4498.76097084119,1989,903,0,0,24,0,0,0,0,0,302,0,0,577,0,0,0,0,0,0,0,0,0,0,0
TD,Chad,country,Sub-Saharan Africa,15.454166,18.732207,ES,Spain,country,Europe and Central Asia,40.463667,-3.74922,3532.49596131115,1989,3800,0,0,0,0,0,0,0,0,3766,0,0,0,0,0,0,0,0,0,34,0,0,0,0
CL,Chile,country,Latin America and the Caribbean,-35.675147,-71.542969,ES,Spain,country,Europe and Central Asia,40.463667,-3.74922,10946.1239296351,1989,7951,0,0,3,1296,6,11,785,3585,357,97,138,0,401,1,960,0,307,0,4,0,0,0,0
HK,Hong Kong,country,East Asia and Pacific,22.396428,114.109497,ES,Spain,country,Europe and Central Asia,40.463667,-3.74922,10538.7859760622,1989,92,4,0,0,0,10,14,0,0,35,0,0,10,19,0,0,0,0,0,0,0,0,0,0
CN,China,country,East Asia and Pacific,35.86166,104.195397,ES,Spain,country,Europe and Central Asia,40.463667,-3.74922,8798.11130984792,1989,55237,208,122,17,161,149,8576,511,139,15795,243,28069,164,243,209,79,0,534,0,18,0,0,0,0
TW,Taiwan,country,East Asia and Pacific,23.69781,120.960515,ES,Spain,country,Europe and Central Asia,40.463667,-3.74922,10888.0160050819,1989,262,0,0,16,3,0,23,113,52,0,0,4,9,40,1,1,0,0,0,0,0,0,0,0
CO,Colombia,country,Latin America and the Caribbean,4.570868,-74.297333,ES,Spain,country,Europe and Central Asia,40.463667,-3.74922,8046.77630995853,1989,28601,36,0,0,0,0,62,0,70,5826,0,0,15856,6751,0,0,0,0,0,0,0,0,0,0
KM,Comoros,country,Sub-Saharan Africa,-11.875001,43.872219,ES,Spain,country,Europe and Central Asia,40.463667,-3.74922,7613.09218139501,1989,1,0,0,0,0,0,0,0,0,0,1,0,0,0,0,0,0,0,0,0,0,0,0,0
CG,"Congo, Rep.",country,Sub-Saharan Africa,-0.228021,15.827659,ES,Spain,country,Europe and Central Asia,40.463667,-3.74922,4944.62871151535,1989,0,0,0,0,0,0,0,0,0,0,0,0,0,0,0,0,0,0,0,0,0,0,0,0
CR,Costa Rica,country,Latin America and the Caribbean,9.748917,-83.753428,ES,Spain,country,Europe and Central Asia,40.463667,-3.74922,8472.63256627805,1989,3418,0,0,0,0,0,0,0,1884,0,0,0,1534,0,0,0,0,0,0,0,0,0,0,0
CI,Ivory Coast,country,Sub-Saharan Africa,7.539989,-5.54708,ES,Spain,country,Europe and Central Asia,40.463667,-3.74922,3669.4017707212,1989,45459,0,0,0,0,0,89,0,16298,208,0,0,24818,4004,16,0,0,0,0,26,0,0,0,0
CU,Cuba,country,Latin America and the Caribbean,21.521757,-77.781167,ES,Spain,country,Europe and Central Asia,40.463667,-3.74922,7164.02841032118,1989,19213,5,0,4541,0,0,0,0,87,206,0,0,3417,10769,0,188,0,0,0,0,0,0,0,0
CY,Cyprus,country,Europe and Central Asia,35.126413,33.429859,ES,Spain,country,Europe and Central Asia,40.463667,-3.74922,3298.98878195067,1989,511,0,0,0,0,0,0,0,100,0,0,0,0,38,0,28,0,0,0,345,0,0,0,0
CZ,Czech Republic,country,Europe and Central Asia,49.817492,15.472962,ES,Spain,country,Europe and Central Asia,40.463667,-3.74922,1825.15575110468,1989,2246,0,24,467,23,98,0,0,302,7,0,10,148,44,0,581,0,403,139,0,0,0,0,0
CD,"Congo, Dem. Rep.",country,Sub-Saharan Africa,-4.038333,21.758664,ES,Spain,country,Europe and Central Asia,40.463667,-3.74922,5595.37052461465,1989,9483,0,0,0,0,0,0,0,0,0,0,0,3796,5641,0,0,0,0,0,46,0,0,0,0
DK,Denmark,country,Europe and Central Asia,56.26392,9.501785,ES,Spain,country,Europe and Central Asia,40.463667,-3.74922,2005.59916675212,1989,33789,3873,129,175,1,5,19,755,30,1,0,15702,65,3689,297,1964,0,3206,3807,71,0,0,0,0
DJ,Djibouti,country,Middle East and North Africa,11.825138,42.590275,ES,Spain,country,Europe and Central Asia,40.463667,-3.74922,5529.99507992335,1989,21,0,0,0,0,0,0,0,0,21,0,0,0,0,0,0,0,0,0,0,0,0,0,0
DO,Dominican Republic,country,Latin America and the Caribbean,18.735693,-70.162651,ES,Spain,country,Europe and Central Asia,40.463667,-3.74922,6703.09906544524,1989,10042,0,0,0,0,0,2786,0,425,0,0,0,2576,4255,0,0,0,0,0,0,0,0,0,0
EC,Ecuador,country,Latin America and the Caribbean,-1.831239,-78.183406,ES,Spain,country,Europe and Central Asia,40.463667,-3.74922,8842.86890558783,1989,2197,48,0,0,0,0,0,0,104,99,0,0,1946,0,0,0,0,0,0,0,0,0,0,0
EG,Egypt,country,Middle East and North Africa,26.820553,30.802498,ES,Spain,country,Europe and Central Asia,40.463667,-3.74922,3514.08997283512,1989,22988,0,97,19392,156,0,21,65,9,1114,153,1979,0,0,0,0,0,2,0,0,0,0,0,0
SV,El Salvador,country,Latin America and the Caribbean,13.794185,-88.89653,ES,Spain,country,Europe and Central Asia,40.463667,-3.74922,8622.02742160897,1989,1479,0,0,0,0,0,1,0,0,0,0,0,1478,0,0,0,0,0,0,0,0,0,0,0
GQ,Equatorial Guinea,country,Sub-Saharan Africa,1.650801,10.267895,ES,Spain,country,Europe and Central Asia,40.463667,-3.74922,4546.15736297061,1989,3919,0,0,0,0,0,0,0,0,0,0,107,3812,0,0,0,0,0,0,0,0,0,0,0
ET,Ethiopia,country,Sub-Saharan Africa,9.145,40.489673,ES,Spain,country,Europe and Central Asia,40.463667,-3.74922,5578.41569228763,1989,607,0,0,0,24,0,0,0,0,581,0,0,2,0,0,0,0,0,0,0,0,0,0,0
FK,Falkland Islands,country,,-51.796253,-59.523613,ES,Spain,country,Europe and Central Asia,40.463667,-3.74922,11599.5348815506,1989,20,0,0,0,20,0,0,0,0,0,0,0,0,0,0,0,0,0,0,0,0,0,0,0
FO,Faroe Islands,country,Europe and Central Asia,61.892635,-6.911806,ES,Spain,country,Europe and Central Asia,40.463667,-3.74922,2394.97397784906,1989,290,0,24,2,0,0,0,42,20,0,0,0,5,0,25,8,0,0,0,164,0,0,0,0
FI,Finland,country,Europe and Central Asia,61.92411,25.748151,ES,Spain,country,Europe and Central Asia,40.463667,-3.74922,3099.11616735237,1989,8553,13,63,5467,0,0,0,2,42,0,5,11,16,5,343,88,0,503,1520,475,0,0,0,0
FR,France,country,Europe and Central Asia,46.227638,2.213749,ES,Spain,country,Europe and Central Asia,40.463667,-3.74922,802.440409032589,1989,2336277,445236,207067,129479,52073,772,85471,39906,45919,5014,53,74362,4920,26782,98359,863770,5516,41476,199829,14687,1102,0,0,0
GA,Gabon,country,Sub-Saharan Africa,-0.803689,11.609444,ES,Spain,country,Europe and Central Asia,40.463667,-3.74922,4850.75845064193,1989,55,0,0,0,0,0,0,0,0,0,0,0,55,0,0,0,0,0,0,0,0,0,0,0
GM,The Gambia,country,Sub-Saharan Africa,13.443182,-15.310139,ES,Spain,country,Europe and Central Asia,40.463667,-3.74922,3212.28376389658,1989,604,0,0,0,0,0,603,0,0,0,1,0,0,0,0,0,0,0,0,0,0,0,0,0
GH,Ghana,country,Sub-Saharan Africa,7.946527,-1.023194,ES,Spain,country,Europe and Central Asia,40.463667,-3.74922,3629.8962557209,1989,8099,0,0,0,0,0,0,0,1,0,0,0,7551,547,0,0,0,0,0,0,0,0,0,0
GI,Gibraltar,country,Europe and Central Asia,36.137741,-5.345374,ES,Spain,country,Europe and Central Asia,40.463667,-3.74922,501.314720077424,1989,50,1,0,7,0,1,0,2,0,0,0,0,22,0,0,17,0,0,0,0,0,0,0,0
GR,Greece,country,Europe and Central Asia,39.074208,21.824312,ES,Spain,country,Europe and Central Asia,40.463667,-3.74922,2185.96234127089,1989,14999,1272,0,193,0,1,0,1,18,891,1,10273,7,933,0,4,0,40,20,1345,0,0,0,0
