sourceCode,sourceName,sourceGrouping,sourceRegion,sourceLat,sourceLong,destCode,destName,destGrouping,destRegion,destLat,destLong,distance,year,totalTons,cereals,roots,sugarCrops,pulses,nuts,oilCrops,vegetables,fruits,fibers,spices,fodderCrops,coffeeTea,tobaccoRubber,oilsFats,beverages,livestock,animalMeats,animalProducts,animalHides,nimalOther,pesticides,fertilizers,machinery
AR,Argentina,country,Latin America and the Caribbean,-38.416097,-63.616672,KR,"Korea, Rep.",country,East Asia and Pacific,35.907757,127.766922,18990.5300720475,1986,425198,310654,0,500,0,0,0,0,0,708,0,113336,0,0,0,0,0,0,0,0,0,0,0,0
AU,Australia,country,East Asia and Pacific,-25.274398,133.775136,KR,"Korea, Rep.",country,East Asia and Pacific,35.907757,127.766922,6840.01784036993,1986,1120343,713106,0,324207,0,0,35,15,17,72196,0,2500,0,381,6116,50,31,84,54,1582,0,0,0,0
AT,Austria,country,Europe and Central Asia,47.516231,14.550072,KR,"Korea, Rep.",country,East Asia and Pacific,35.907757,127.766922,8624.4820219463,1986,3880,2673,0,4,0,0,0,0,0,1185,0,0,3,0,15,0,0,0,0,0,0,0,0,0
BH,Bahrain,country,Middle East and North Africa,25.930414,50.637772,KR,"Korea, Rep.",country,East Asia and Pacific,35.907757,127.766922,7263.20877220917,1986,0,0,0,0,0,0,0,0,0,0,0,0,0,0,0,0,0,0,0,0,0,0,0,0
BD,Bangladesh,country,South Asia,23.684994,90.356331,KR,"Korea, Rep.",country,East Asia and Pacific,35.907757,127.766922,3833.39958355868,1986,150,0,0,0,0,0,0,0,0,150,0,0,0,0,0,0,0,0,0,0,0,0,0,0
BE,Belgium,country,Europe and Central Asia,50.503887,4.469936,KR,"Korea, Rep.",country,East Asia and Pacific,35.907757,127.766922,8930.73904524196,1986,2654,0,0,0,0,0,0,1,0,2326,4,8,223,40,32,1,0,18,1,0,0,0,0,0
BJ,Benin,country,Sub-Saharan Africa,9.30769,2.315834,KR,"Korea, Rep.",country,East Asia and Pacific,35.907757,127.766922,12427.5036534903,1986,100,0,0,0,0,0,0,0,0,100,0,0,0,0,0,0,0,0,0,0,0,0,0,0
BO,Bolivia,country,Latin America and the Caribbean,-16.290154,-63.588653,KR,"Korea, Rep.",country,East Asia and Pacific,35.907757,127.766922,17580.8517309442,1986,52,0,0,0,0,0,0,0,0,0,0,0,52,0,0,0,0,0,0,0,0,0,0,0
BR,Brazil,country,Latin America and the Caribbean,-14.235004,-51.92528,KR,"Korea, Rep.",country,East Asia and Pacific,35.907757,127.766922,17624.7128699818,1986,20312,0,0,0,0,0,13224,0,1525,1559,0,0,3624,65,313,2,0,0,0,0,0,0,0,0
BN,Brunei Darussalam,country,,4.535277,114.727669,KR,"Korea, Rep.",country,East Asia and Pacific,35.907757,127.766922,3739.63398514872,1986,71,0,0,0,0,0,0,0,0,0,40,0,0,31,0,0,0,0,0,0,0,0,0,0
BF,Burkina Faso,country,Sub-Saharan Africa,12.238333,-1.561593,KR,"Korea, Rep.",country,East Asia and Pacific,35.907757,127.766922,12486.5910786409,1986,100,0,0,0,0,0,0,0,0,100,0,0,0,0,0,0,0,0,0,0,0,0,0,0
CM,Cameroon,country,Sub-Saharan Africa,7.369722,12.354722,KR,"Korea, Rep.",country,East Asia and Pacific,35.907757,127.766922,11759.0268935405,1986,610,0,0,0,0,0,0,0,0,0,0,0,610,0,0,0,0,0,0,0,0,0,0,0
CA,Canada,country,North America,56.130366,-106.346771,KR,"Korea, Rep.",country,East Asia and Pacific,35.907757,127.766922,8588.54488503841,1986,734852,645601,0,1024,0,0,20118,0,0,0,0,57403,0,454,7813,1,11,0,2145,293,0,0,0,0
CF,Central African Rep.,country,Sub-Saharan Africa,6.611111,20.939444,KR,"Korea, Rep.",country,East Asia and Pacific,35.907757,127.766922,11078.5422007623,1986,902,0,0,0,0,0,0,0,0,902,0,0,0,0,0,0,0,0,0,0,0,0,0,0
CL,Chile,country,Latin America and the Caribbean,-35.675147,-71.542969,KR,"Korea, Rep.",country,East Asia and Pacific,35.907757,127.766922,18296.5373281959,1986,32810,5784,0,3710,0,0,0,35,140,12,0,23104,0,23,0,2,0,0,0,0,0,0,0,0
HK,Hong Kong,country,East Asia and Pacific,22.396428,114.109497,KR,"Korea, Rep.",country,East Asia and Pacific,35.907757,127.766922,2001.83242604701,1986,18093,10031,2802,5,194,0,0,9,50,1247,52,610,69,915,2102,7,0,0,0,0,0,0,0,0
TW,Taiwan,country,East Asia and Pacific,23.69781,120.960515,KR,"Korea, Rep.",country,East Asia and Pacific,35.907757,127.766922,1508.75191708322,1986,89173,25445,0,44964,0,0,0,4713,69,6120,86,18,49,7613,17,40,53,39,0,0,0,0,0,0
CO,Colombia,country,Latin America and the Caribbean,4.570868,-74.297333,KR,"Korea, Rep.",country,East Asia and Pacific,35.907757,127.766922,14977.9154430745,1986,11223,0,0,9000,0,0,0,0,0,6,0,0,2217,0,0,0,0,0,0,0,0,0,0,0
CR,Costa Rica,country,Latin America and the Caribbean,9.748917,-83.753428,KR,"Korea, Rep.",country,East Asia and Pacific,35.907757,127.766922,13974.3011712383,1986,494,0,0,0,0,0,0,0,0,0,0,0,494,0,0,0,0,0,0,0,0,0,0,0
CI,Ivory Coast,country,Sub-Saharan Africa,7.539989,-5.54708,KR,"Korea, Rep.",country,East Asia and Pacific,35.907757,127.766922,13167.5129026133,1986,295,0,0,0,0,0,0,0,0,0,0,0,295,0,0,0,0,0,0,0,0,0,0,0
DK,Denmark,country,Europe and Central Asia,56.26392,9.501785,KR,"Korea, Rep.",country,East Asia and Pacific,35.907757,127.766922,8243.83214444068,1986,584,0,0,0,0,0,0,0,23,0,0,0,0,242,0,13,1,291,15,0,0,0,0,0
EC,Ecuador,country,Latin America and the Caribbean,-1.831239,-78.183406,KR,"Korea, Rep.",country,East Asia and Pacific,35.907757,127.766922,15395.7550570029,1986,72,0,0,0,0,0,0,0,0,20,0,0,52,0,0,0,0,0,0,0,0,0,0,0
EG,Egypt,country,Middle East and North Africa,26.820553,30.802498,KR,"Korea, Rep.",country,East Asia and Pacific,35.907757,127.766922,8884.0127742979,1986,4094,0,0,0,0,0,0,0,0,4094,0,0,0,0,0,0,0,0,0,0,0,0,0,0
SV,El Salvador,country,Latin America and the Caribbean,13.794185,-88.89653,KR,"Korea, Rep.",country,East Asia and Pacific,35.907757,127.766922,13293.2772406443,1986,990,0,0,0,0,0,0,0,0,956,0,0,34,0,0,0,0,0,0,0,0,0,0,0
ET,Ethiopia,country,Sub-Saharan Africa,9.145,40.489673,KR,"Korea, Rep.",country,East Asia and Pacific,35.907757,127.766922,9179.53394066104,1986,100,0,0,0,0,0,0,0,0,0,0,0,99,1,0,0,0,0,0,0,0,0,0,0
FI,Finland,country,Europe and Central Asia,61.92411,25.748151,KR,"Korea, Rep.",country,East Asia and Pacific,35.907757,127.766922,7126.44654766025,1986,118,0,0,41,0,0,0,0,0,0,0,0,0,44,28,5,0,0,0,0,0,0,0,0
FR,France,country,Europe and Central Asia,46.227638,2.213749,KR,"Korea, Rep.",country,East Asia and Pacific,35.907757,127.766922,9394.69177218069,1986,2871,100,0,247,0,0,0,2,21,1367,0,6,135,177,597,112,58,0,107,0,0,0,0,0
GA,Gabon,country,Sub-Saharan Africa,-0.803689,11.609444,KR,"Korea, Rep.",country,East Asia and Pacific,35.907757,127.766922,12403.5811803742,1986,0,0,0,0,0,0,0,0,0,0,0,0,0,0,0,0,0,0,0,0,0,0,0,0
GH,Ghana,country,Sub-Saharan Africa,7.946527,-1.023194,KR,"Korea, Rep.",country,East Asia and Pacific,35.907757,127.766922,12793.6180297067,1986,1344,0,0,0,0,0,0,0,0,0,0,0,1344,0,0,0,0,0,0,0,0,0,0,0
GR,Greece,country,Europe and Central Asia,39.074208,21.824312,KR,"Korea, Rep.",country,East Asia and Pacific,35.907757,127.766922,8754.24659352061,1986,2937,1000,0,0,0,0,0,33,96,0,0,0,0,1800,8,0,0,0,0,0,0,0,0,0
GL,Greenland,country,Europe and Central Asia,71.706936,-42.604303,KR,"Korea, Rep.",country,East Asia and Pacific,35.907757,127.766922,8033.91385918621,1986,12,0,0,0,0,0,0,0,0,0,0,0,0,12,0,0,0,0,0,0,0,0,0,0
GT,Guatemala,country,Latin America and the Caribbean,15.783471,-90.230759,KR,"Korea, Rep.",country,East Asia and Pacific,35.907757,127.766922,13029.3824173447,1986,2929,0,0,0,0,0,0,0,0,2074,0,0,855,0,0,0,0,0,0,0,0,0,0,0
GN,Guinea,country,Sub-Saharan Africa,9.945587,-9.696645,KR,"Korea, Rep.",country,East Asia and Pacific,35.907757,127.766922,13259.7684462802,1986,10,0,0,0,0,0,0,0,0,0,0,0,0,10,0,0,0,0,0,0,0,0,0,0
HT,Haiti,country,Latin America and the Caribbean,18.971187,-72.285215,KR,"Korea, Rep.",country,East Asia and Pacific,35.907757,127.766922,13573.1175542112,1986,8,0,0,0,0,0,0,0,0,0,0,0,0,8,0,0,0,0,0,0,0,0,0,0
HN,Honduras,country,Latin America and the Caribbean,15.199999,-86.241905,KR,"Korea, Rep.",country,East Asia and Pacific,35.907757,127.766922,13315.4224778278,1986,1390,0,0,0,0,0,0,0,0,386,0,0,1004,0,0,0,0,0,0,0,0,0,0,0
IN,India,country,South Asia,20.593684,78.96288,KR,"Korea, Rep.",country,East Asia and Pacific,35.907757,127.766922,5022.33087513342,1986,34214,0,0,0,0,2,0,0,0,12302,226,19130,1000,1496,58,0,0,0,0,0,0,0,0,0
ID,Indonesia,country,East Asia and Pacific,-0.789275,113.921327,KR,"Korea, Rep.",country,East Asia and Pacific,35.907757,127.766922,4330.00778247741,1986,210903,14,0,54173,0,10,0,0,0,472,779,98937,12149,29396,14973,0,0,0,0,0,0,0,0,0
IE,Ireland,country,Europe and Central Asia,53.41291,-8.24389,KR,"Korea, Rep.",country,East Asia and Pacific,35.907757,127.766922,9228.55210982868,1986,187,0,0,0,0,0,0,0,0,0,0,0,0,185,0,2,0,0,0,0,0,0,0,0
IT,Italy,country,Europe and Central Asia,41.87194,12.56738,KR,"Korea, Rep.",country,East Asia and Pacific,35.907757,127.766922,9157.24139625824,1986,1058,815,0,0,0,0,0,8,0,0,0,184,0,20,12,18,0,0,1,0,0,0,0,0
JM,Jamaica,country,Latin America and the Caribbean,18.109581,-77.297508,KR,"Korea, Rep.",country,East Asia and Pacific,35.907757,127.766922,13469.7182549045,1986,0,0,0,0,0,0,0,0,0,0,0,0,0,0,0,0,0,0,0,0,0,0,0,0
JP,Japan,country,East Asia and Pacific,36.204824,138.252924,KR,"Korea, Rep.",country,East Asia and Pacific,35.907757,127.766922,943.807690475197,1986,22022,1389,0,608,0,0,125,44,5605,843,80,800,305,6385,5012,691,0,93,42,0,0,0,0,0
KE,Kenya,country,Sub-Saharan Africa,-0.023559,37.906193,KR,"Korea, Rep.",country,East Asia and Pacific,35.907757,127.766922,10007.7349609945,1986,5,0,0,0,0,0,0,0,0,0,0,0,0,5,0,0,0,0,0,0,0,0,0,0
LR,Liberia,country,Sub-Saharan Africa,6.428055,-9.429499,KR,"Korea, Rep.",country,East Asia and Pacific,35.907757,127.766922,13543.0220337936,1986,16,0,0,0,0,0,0,0,0,0,0,0,0,16,0,0,0,0,0,0,0,0,0,0
MG,Madagascar,country,Sub-Saharan Africa,-18.766947,46.869107,KR,"Korea, Rep.",country,East Asia and Pacific,35.907757,127.766922,10448.7259116775,1986,2,0,0,0,0,0,0,0,0,0,2,0,0,0,0,0,0,0,0,0,0,0,0,0
MY,Malaysia,country,East Asia and Pacific,4.210484,101.975766,KR,"Korea, Rep.",country,East Asia and Pacific,35.907757,127.766922,4409.6824223557,1986,314632,1350,57,0,0,0,7015,0,15,45,1143,0,700,137247,167060,0,0,0,0,0,0,0,0,0
MV,Maldives,country,South Asia,3.202778,73.22068,KR,"Korea, Rep.",country,East Asia and Pacific,35.907757,127.766922,6665.5507805148,1986,1,0,0,0,0,0,0,0,0,0,0,0,0,1,0,0,0,0,0,0,0,0,0,0
ML,Mali,country,Sub-Saharan Africa,17.570692,-3.996166,KR,"Korea, Rep.",country,East Asia and Pacific,35.907757,127.766922,12212.8596249316,1986,1438,0,0,0,0,0,0,0,0,1438,0,0,0,0,0,0,0,0,0,0,0,0,0,0
MX,Mexico,country,Latin America and the Caribbean,23.634501,-102.552784,KR,"Korea, Rep.",country,East Asia and Pacific,35.907757,127.766922,11555.8170361013,1986,11557,0,0,0,0,0,0,0,348,10246,0,0,701,262,0,0,0,0,0,0,0,0,0,0
MA,Morocco,country,Middle East and North Africa,31.791702,-7.09262,KR,"Korea, Rep.",country,East Asia and Pacific,35.907757,127.766922,11151.2650351566,1986,16,0,0,0,0,0,0,0,0,0,16,0,0,0,0,0,0,0,0,0,0,0,0,0
MM,Myanmar,country,East Asia and Pacific,21.913965,95.956223,KR,"Korea, Rep.",country,East Asia and Pacific,35.907757,127.766922,3447.38258652905,1986,1202,0,0,0,1163,0,0,0,0,0,2,0,0,37,0,0,0,0,0,0,0,0,0,0
NR,Nauru,country,East Asia and Pacific,-0.522778,166.931503,KR,"Korea, Rep.",country,East Asia and Pacific,35.907757,127.766922,5732.13682084645,1986,10,0,0,0,0,0,0,0,0,10,0,0,0,0,0,0,0,0,0,0,0,0,0,0
NP,Nepal,country,South Asia,28.394857,84.124008,KR,"Korea, Rep.",country,East Asia and Pacific,35.907757,127.766922,4162.29350818874,1986,0,0,0,0,0,0,0,0,0,0,0,0,0,0,0,0,0,0,0,0,0,0,0,0
NL,Netherlands,country,Europe and Central Asia,52.132633,5.291266,KR,"Korea, Rep.",country,East Asia and Pacific,35.907757,127.766922,8760.29648543808,1986,11362,16,0,2354,0,0,0,0,2,78,0,5,1307,544,981,17,16,23,6035,0,0,0,0,0
NC,New Caledonia,country,East Asia and Pacific,-20.904305,165.618042,KR,"Korea, Rep.",country,East Asia and Pacific,35.907757,127.766922,7475.97443074286,1986,16,0,0,0,0,0,0,0,0,0,0,0,0,16,0,0,0,0,0,0,0,0,0,0
NZ,New Zealand,country,East Asia and Pacific,-40.900557,174.885971,KR,"Korea, Rep.",country,East Asia and Pacific,35.907757,127.766922,9810.81970612616,1986,74560,37774,0,275,0,0,0,0,4,7852,0,0,66,1465,10893,21,0,13340,2598,272,0,0,0,0
NI,Nicaragua,country,Latin America and the Caribbean,12.865416,-85.207229,KR,"Korea, Rep.",country,East Asia and Pacific,35.907757,127.766922,13595.4736556074,1986,1084,0,0,0,0,0,0,0,0,1084,0,0,0,0,0,0,0,0,0,0,0,0,0,0
NE,Niger,country,Sub-Saharan Africa,17.607789,8.081666,KR,"Korea, Rep.",country,East Asia and Pacific,35.907757,127.766922,11335.0770400193,1986,35,0,0,0,0,0,0,0,0,0,0,0,0,35,0,0,0,0,0,0,0,0,0,0
NG,Nigeria,country,Sub-Saharan Africa,9.081999,8.675277,KR,"Korea, Rep.",country,East Asia and Pacific,35.907757,127.766922,11937.3897461966,1986,5,0,0,0,0,0,0,0,0,0,0,0,0,5,0,0,0,0,0,0,0,0,0,0
NO,Norway,country,Europe and Central Asia,60.472024,8.468946,KR,"Korea, Rep.",country,East Asia and Pacific,35.907757,127.766922,7975.08458247792,1986,195,0,0,0,0,0,0,0,0,0,0,39,0,9,31,0,0,116,0,0,0,0,0,0
PK,Pakistan,country,South Asia,30.375321,69.345116,KR,"Korea, Rep.",country,East Asia and Pacific,35.907757,127.766922,5400.13578059599,1986,55871,0,0,0,0,0,0,0,0,55015,0,0,0,856,0,0,0,0,0,0,0,0,0,0
PA,Panama,country,Latin America and the Caribbean,8.537981,-80.782127,KR,"Korea, Rep.",country,East Asia and Pacific,35.907757,127.766922,14255.8522340919,1986,4754,4693,0,0,0,0,0,0,0,1,0,60,0,0,0,0,0,0,0,0,0,0,0,0
PG,Papua New Guinea,country,East Asia and Pacific,-6.314993,143.95555,KR,"Korea, Rep.",country,East Asia and Pacific,35.907757,127.766922,4995.7410226374,1986,885,0,0,0,0,0,500,0,0,0,0,272,0,113,0,0,0,0,0,0,0,0,0,0
PY,Paraguay,country,Latin America and the Caribbean,-23.442503,-58.443832,KR,"Korea, Rep.",country,East Asia and Pacific,35.907757,127.766922,18526.4015525444,1986,14098,0,0,0,0,0,13435,0,0,663,0,0,0,0,0,0,0,0,0,0,0,0,0,0
PE,Peru,country,Latin America and the Caribbean,-9.189967,-75.015152,KR,"Korea, Rep.",country,East Asia and Pacific,35.907757,127.766922,16273.4046428638,1986,504,0,0,0,0,0,0,0,0,369,0,0,135,0,0,0,0,0,0,0,0,0,0,0
PH,Philippines,country,East Asia and Pacific,12.879721,121.774017,KR,"Korea, Rep.",country,East Asia and Pacific,35.907757,127.766922,2632.93915947274,1986,81960,12,0,43345,0,0,16772,0,2958,1044,0,0,0,3668,14033,128,0,0,0,0,0,0,0,0
PT,Portugal,country,Europe and Central Asia,39.399872,-8.224454,KR,"Korea, Rep.",country,East Asia and Pacific,35.907757,127.766922,10516.1300766298,1986,207,0,0,0,0,0,0,203,0,0,0,0,0,0,0,4,0,0,0,0,0,0,0,0
SG,Singapore,country,East Asia and Pacific,1.352083,103.819836,KR,"Korea, Rep.",country,East Asia and Pacific,35.907757,127.766922,4572.21802484784,1986,13049,0,0,0,0,0,2750,0,0,6,21,4829,666,2032,2676,0,0,0,69,0,0,0,0,0
SB,Solomon Islands,country,East Asia and Pacific,-9.64571,160.156194,KR,"Korea, Rep.",country,East Asia and Pacific,35.907757,127.766922,6103.54513810628,1986,72,0,0,0,0,0,0,0,0,0,0,0,0,72,0,0,0,0,0,0,0,0,0,0
ES,Spain,country,Europe and Central Asia,40.463667,-3.74922,KR,"Korea, Rep.",country,East Asia and Pacific,35.907757,127.766922,10196.4210430804,1986,111,0,0,15,0,0,0,40,0,0,5,0,0,36,11,4,0,0,0,0,0,0,0,0
LK,Sri Lanka,country,South Asia,7.873054,80.771797,KR,"Korea, Rep.",country,East Asia and Pacific,35.907757,127.766922,5691.63409581467,1986,94661,0,0,0,0,0,0,0,0,0,16,94306,12,319,0,0,0,0,8,0,0,0,0,0
SD,Sudan,country,Sub-Saharan Africa,12.862807,30.217636,KR,"Korea, Rep.",country,East Asia and Pacific,35.907757,127.766922,9847.6762108305,1986,113,0,0,0,0,0,0,0,0,19,0,0,0,94,0,0,0,0,0,0,0,0,0,0
SE,Sweden,country,Europe and Central Asia,60.128161,18.643501,KR,"Korea, Rep.",country,East Asia and Pacific,35.907757,127.766922,7557.35716780417,1986,480,0,0,5,0,0,0,0,0,0,0,0,0,357,96,11,0,11,0,0,0,0,0,0
CH,Switzerland,country,Europe and Central Asia,46.818188,8.227512,KR,"Korea, Rep.",country,East Asia and Pacific,35.907757,127.766922,9030.09758300577,1986,261,81,0,2,0,0,0,4,29,41,0,8,36,48,0,2,0,0,10,0,0,0,0,0
TH,Thailand,country,East Asia and Pacific,15.870032,100.992541,KR,"Korea, Rep.",country,East Asia and Pacific,35.907757,127.766922,3466.08651881091,1986,1831559,1130090,232274,437315,2852,0,0,0,3727,27,28,1550,0,21666,2030,0,0,0,0,0,0,0,0,0
TG,Togo,country,Sub-Saharan Africa,8.619543,0.824782,KR,"Korea, Rep.",country,East Asia and Pacific,35.907757,127.766922,12597.5939089862,1986,150,0,0,0,0,0,0,0,0,150,0,0,0,0,0,0,0,0,0,0,0,0,0,0
TK,Tokelau,country,,-8.967363,-171.855881,KR,"Korea, Rep.",country,East Asia and Pacific,35.907757,127.766922,8048.31874659064,1986,3342,0,0,3300,0,0,0,0,0,0,0,0,0,42,0,0,0,0,0,0,0,0,0,0
TT,Trinidad and Tobago,country,Latin America and the Caribbean,10.691803,-61.222503,KR,"Korea, Rep.",country,East Asia and Pacific,35.907757,127.766922,14764.7886886276,1986,90,0,90,0,0,0,0,0,0,0,0,0,0,0,0,0,0,0,0,0,0,0,0,0
TR,Turkey,country,Europe and Central Asia,38.963745,35.243322,KR,"Korea, Rep.",country,East Asia and Pacific,35.907757,127.766922,7798.8340616013,1986,3044,0,0,0,0,0,0,723,1321,0,0,0,0,1000,0,0,0,0,0,0,0,0,0,0
UG,Uganda,country,Sub-Saharan Africa,1.373333,32.290275,KR,"Korea, Rep.",country,East Asia and Pacific,35.907757,127.766922,10422.2776507606,1986,300,0,0,0,0,0,0,0,0,0,0,0,300,0,0,0,0,0,0,0,0,0,0,0
GB,United Kingdom,country,Europe and Central Asia,55.378051,-3.435973,KR,"Korea, Rep.",country,East Asia and Pacific,35.907757,127.766922,8867.71095819857,1986,128014,124145,0,427,0,0,0,0,2,308,2,24,8,188,9,2901,51,0,0,0,0,0,0,0
TZ,Tanzania,country,Sub-Saharan Africa,-6.369028,34.888822,KR,"Korea, Rep.",country,East Asia and Pacific,35.907757,127.766922,10692.7586614001,1986,2,0,0,0,0,0,0,0,0,0,0,0,0,2,0,0,0,0,0,0,0,0,0,0
US,USA,country,North America,37.09024,-95.712891,KR,"Korea, Rep.",country,East Asia and Pacific,35.907757,127.766922,10754.6834489747,1986,4470984,3193530,33,741,0,6,959052,1501,6292,157679,102,52016,139,10611,87224,133,188,86,237,1602,0,0,0,0
VU,Vanuatu,country,East Asia and Pacific,-15.376706,166.959158,KR,"Korea, Rep.",country,East Asia and Pacific,35.907757,127.766922,7043.3753702705,1986,3,0,0,0,0,0,0,0,0,0,0,0,0,3,0,0,0,0,0,0,0,0,0,0
VE,Venezuela,country,Latin America and the Caribbean,6.42375,-66.58973,KR,"Korea, Rep.",country,East Asia and Pacific,35.907757,127.766922,15091.7580993813,1986,0,0,0,0,0,0,0,0,0,0,0,0,0,0,0,0,0,0,0,0,0,0,0,0
AR,Argentina,country,Latin America and the Caribbean,-38.416097,-63.616672,KR,"Korea, Rep.",country,East Asia and Pacific,35.907757,127.766922,18990.5300720475,1987,284740,69496,0,1500,0,0,0,0,0,621,0,213123,0,0,0,0,0,0,0,0,0,0,0,0
AU,Australia,country,East Asia and Pacific,-25.274398,133.775136,KR,"Korea, Rep.",country,East Asia and Pacific,35.907757,127.766922,6840.01784036993,1987,786417,464652,0,261516,0,0,0,143,3,44326,0,180,92,602,10375,44,0,1005,348,3131,0,0,0,0
AT,Austria,country,Europe and Central Asia,47.516231,14.550072,KR,"Korea, Rep.",country,East Asia and Pacific,35.907757,127.766922,8624.4820219463,1987,2897,2714,0,1,0,0,0,0,0,173,0,0,3,6,0,0,0,0,0,0,0,0,0,0
BD,Bangladesh,country,South Asia,23.684994,90.356331,KR,"Korea, Rep.",country,East Asia and Pacific,35.907757,127.766922,3833.39958355868,1987,32,0,0,0,0,0,0,0,0,32,0,0,0,0,0,0,0,0,0,0,0,0,0,0
BE,Belgium,country,Europe and Central Asia,50.503887,4.469936,KR,"Korea, Rep.",country,East Asia and Pacific,35.907757,127.766922,8930.73904524196,1987,4606,2394,0,2,0,0,0,0,0,1637,0,19,373,54,111,0,0,0,16,0,0,0,0,0
BR,Brazil,country,Latin America and the Caribbean,-14.235004,-51.92528,KR,"Korea, Rep.",country,East Asia and Pacific,35.907757,127.766922,17624.7128699818,1987,60777,2000,0,14,0,0,17876,0,2330,3785,0,29197,5208,99,268,0,0,0,0,0,0,0,0,0
BN,Brunei Darussalam,country,,4.535277,114.727669,KR,"Korea, Rep.",country,East Asia and Pacific,35.907757,127.766922,3739.63398514872,1987,11,0,0,0,0,0,0,0,0,0,11,0,0,0,0,0,0,0,0,0,0,0,0,0
CA,Canada,country,North America,56.130366,-106.346771,KR,"Korea, Rep.",country,East Asia and Pacific,35.907757,127.766922,8588.54488503841,1987,1508273,1449606,0,1279,0,0,12181,0,0,1,5,40103,0,221,3225,1,11,17,1229,405,0,0,0,0
CL,Chile,country,Latin America and the Caribbean,-35.675147,-71.542969,KR,"Korea, Rep.",country,East Asia and Pacific,35.907757,127.766922,18296.5373281959,1987,2686,0,0,0,0,0,0,149,0,11,0,2393,0,130,0,3,0,0,0,0,0,0,0,0
HK,Hong Kong,country,East Asia and Pacific,22.396428,114.109497,KR,"Korea, Rep.",country,East Asia and Pacific,35.907757,127.766922,2001.83242604701,1987,9613,712,2307,0,84,20,1674,14,54,1887,12,0,0,1490,1340,19,0,0,0,0,0,0,0,0
TW,Taiwan,country,East Asia and Pacific,23.69781,120.960515,KR,"Korea, Rep.",country,East Asia and Pacific,35.907757,127.766922,1508.75191708322,1987,34413,2099,0,2996,0,10,0,5176,6037,11737,8,29,0,5764,524,31,10,2,0,0,0,0,0,0
CO,Colombia,country,Latin America and the Caribbean,4.570868,-74.297333,KR,"Korea, Rep.",country,East Asia and Pacific,35.907757,127.766922,14977.9154430745,1987,2313,0,0,0,0,0,0,0,0,7,0,0,2306,0,0,0,0,0,0,0,0,0,0,0
CR,Costa Rica,country,Latin America and the Caribbean,9.748917,-83.753428,KR,"Korea, Rep.",country,East Asia and Pacific,35.907757,127.766922,13974.3011712383,1987,1214,0,0,0,0,0,0,0,0,0,0,0,1214,0,0,0,0,0,0,0,0,0,0,0
CI,Ivory Coast,country,Sub-Saharan Africa,7.539989,-5.54708,KR,"Korea, Rep.",country,East Asia and Pacific,35.907757,127.766922,13167.5129026133,1987,180,0,0,0,0,0,0,0,0,0,0,0,180,0,0,0,0,0,0,0,0,0,0,0
CY,Cyprus,country,Europe and Central Asia,35.126413,33.429859,KR,"Korea, Rep.",country,East Asia and Pacific,35.907757,127.766922,8159.76196658617,1987,2357,2357,0,0,0,0,0,0,0,0,0,0,0,0,0,0,0,0,0,0,0,0,0,0
CD,"Congo, Dem. Rep.",country,Sub-Saharan Africa,-4.038333,21.758664,KR,"Korea, Rep.",country,East Asia and Pacific,35.907757,127.766922,11723.5476850199,1987,0,0,0,0,0,0,0,0,0,0,0,0,0,0,0,0,0,0,0,0,0,0,0,0
DK,Denmark,country,Europe and Central Asia,56.26392,9.501785,KR,"Korea, Rep.",country,East Asia and Pacific,35.907757,127.766922,8243.83214444068,1987,14594,13819,0,0,0,0,0,0,20,0,0,12,0,357,0,6,0,359,21,0,0,0,0,0
DM,Dominica,country,Latin America and the Caribbean,15.414999,-61.370976,KR,"Korea, Rep.",country,East Asia and Pacific,35.907757,127.766922,14243.7301438885,1987,497,0,0,497,0,0,0,0,0,0,0,0,0,0,0,0,0,0,0,0,0,0,0,0
EC,Ecuador,country,Latin America and the Caribbean,-1.831239,-78.183406,KR,"Korea, Rep.",country,East Asia and Pacific,35.907757,127.766922,15395.7550570029,1987,125,0,0,0,0,0,0,0,0,0,0,0,125,0,0,0,0,0,0,0,0,0,0,0
EG,Egypt,country,Middle East and North Africa,26.820553,30.802498,KR,"Korea, Rep.",country,East Asia and Pacific,35.907757,127.766922,8884.0127742979,1987,3650,0,0,0,0,0,0,0,0,3650,0,0,0,0,0,0,0,0,0,0,0,0,0,0
SV,El Salvador,country,Latin America and the Caribbean,13.794185,-88.89653,KR,"Korea, Rep.",country,East Asia and Pacific,35.907757,127.766922,13293.2772406443,1987,5,0,0,0,0,0,0,0,0,5,0,0,0,0,0,0,0,0,0,0,0,0,0,0
ET,Ethiopia,country,Sub-Saharan Africa,9.145,40.489673,KR,"Korea, Rep.",country,East Asia and Pacific,35.907757,127.766922,9179.53394066104,1987,175,0,0,0,0,0,0,0,0,0,0,0,175,0,0,0,0,0,0,0,0,0,0,0
FI,Finland,country,Europe and Central Asia,61.92411,25.748151,KR,"Korea, Rep.",country,East Asia and Pacific,35.907757,127.766922,7126.44654766025,1987,68,0,0,19,0,0,0,0,0,0,0,0,0,48,0,1,0,0,0,0,0,0,0,0
FR,France,country,Europe and Central Asia,46.227638,2.213749,KR,"Korea, Rep.",country,East Asia and Pacific,35.907757,127.766922,9394.69177218069,1987,6157,2121,0,288,0,0,0,1,4,2573,0,39,278,176,317,70,60,0,278,12,0,0,0,0
GH,Ghana,country,Sub-Saharan Africa,7.946527,-1.023194,KR,"Korea, Rep.",country,East Asia and Pacific,35.907757,127.766922,12793.6180297067,1987,1946,0,0,0,0,0,0,0,0,0,0,0,1946,0,0,0,0,0,0,0,0,0,0,0
GR,Greece,country,Europe and Central Asia,39.074208,21.824312,KR,"Korea, Rep.",country,East Asia and Pacific,35.907757,127.766922,8754.24659352061,1987,4177,3228,0,0,0,0,0,49,0,0,0,0,0,900,0,0,0,0,0,0,0,0,0,0
GL,Greenland,country,Europe and Central Asia,71.706936,-42.604303,KR,"Korea, Rep.",country,East Asia and Pacific,35.907757,127.766922,8033.91385918621,1987,8,0,0,0,0,0,0,0,0,0,0,0,0,8,0,0,0,0,0,0,0,0,0,0
GU,Guam,country,East Asia and Pacific,13.444304,144.793731,KR,"Korea, Rep.",country,East Asia and Pacific,35.907757,127.766922,3025.41137021333,1987,26,0,0,0,0,0,0,0,0,0,0,0,0,26,0,0,0,0,0,0,0,0,0,0
GT,Guatemala,country,Latin America and the Caribbean,15.783471,-90.230759,KR,"Korea, Rep.",country,East Asia and Pacific,35.907757,127.766922,13029.3824173447,1987,321,0,0,0,0,0,0,0,0,0,0,0,273,48,0,0,0,0,0,0,0,0,0,0
GN,Guinea,country,Sub-Saharan Africa,9.945587,-9.696645,KR,"Korea, Rep.",country,East Asia and Pacific,35.907757,127.766922,13259.7684462802,1987,29,0,0,0,0,0,0,0,0,0,0,0,0,29,0,0,0,0,0,0,0,0,0,0
HN,Honduras,country,Latin America and the Caribbean,15.199999,-86.241905,KR,"Korea, Rep.",country,East Asia and Pacific,35.907757,127.766922,13315.4224778278,1987,138,0,0,0,0,0,0,0,0,0,0,0,138,0,0,0,0,0,0,0,0,0,0,0
IS,Iceland,country,Europe and Central Asia,64.963051,-19.020835,KR,"Korea, Rep.",country,East Asia and Pacific,35.907757,127.766922,8442.74429225162,1987,35,0,0,0,0,0,0,0,0,0,0,0,0,35,0,0,0,0,0,0,0,0,0,0
IN,India,country,South Asia,20.593684,78.96288,KR,"Korea, Rep.",country,East Asia and Pacific,35.907757,127.766922,5022.33087513342,1987,45820,0,0,2500,0,5,0,0,0,6194,319,33870,1308,1568,56,0,0,0,0,0,0,0,0,0
ID,Indonesia,country,East Asia and Pacific,-0.789275,113.921327,KR,"Korea, Rep.",country,East Asia and Pacific,35.907757,127.766922,4330.00778247741,1987,256837,0,0,102480,0,88,0,15,0,87,1083,93225,11965,29759,18105,0,0,30,0,0,0,0,0,0
IE,Ireland,country,Europe and Central Asia,53.41291,-8.24389,KR,"Korea, Rep.",country,East Asia and Pacific,35.907757,127.766922,9228.55210982868,1987,300,0,0,0,0,0,0,0,0,0,0,0,0,199,0,1,0,0,100,0,0,0,0,0
IT,Italy,country,Europe and Central Asia,41.87194,12.56738,KR,"Korea, Rep.",country,East Asia and Pacific,35.907757,127.766922,9157.24139625824,1987,844,752,0,0,0,0,0,0,2,31,0,8,0,19,6,26,0,0,0,0,0,0,0,0
JM,Jamaica,country,Latin America and the Caribbean,18.109581,-77.297508,KR,"Korea, Rep.",country,East Asia and Pacific,35.907757,127.766922,13469.7182549045,1987,0,0,0,0,0,0,0,0,0,0,0,0,0,0,0,0,0,0,0,0,0,0,0,0
JP,Japan,country,East Asia and Pacific,36.204824,138.252924,KR,"Korea, Rep.",country,East Asia and Pacific,35.907757,127.766922,943.807690475197,1987,31933,55,0,94,0,0,298,65,14394,543,93,843,310,6169,8010,1001,11,7,50,1,0,0,0,0
KE,Kenya,country,Sub-Saharan Africa,-0.023559,37.906193,KR,"Korea, Rep.",country,East Asia and Pacific,35.907757,127.766922,10007.7349609945,1987,26243,25834,0,0,0,0,0,0,0,4,0,0,0,405,0,0,0,0,0,0,0,0,0,0
LR,Liberia,country,Sub-Saharan Africa,6.428055,-9.429499,KR,"Korea, Rep.",country,East Asia and Pacific,35.907757,127.766922,13543.0220337936,1987,9477,8398,0,500,0,0,0,0,0,0,0,579,0,0,0,0,0,0,0,0,0,0,0,0
MG,Madagascar,country,Sub-Saharan Africa,-18.766947,46.869107,KR,"Korea, Rep.",country,East Asia and Pacific,35.907757,127.766922,10448.7259116775,1987,220,0,0,0,0,0,0,0,0,0,20,0,200,0,0,0,0,0,0,0,0,0,0,0
MY,Malaysia,country,East Asia and Pacific,4.210484,101.975766,KR,"Korea, Rep.",country,East Asia and Pacific,35.907757,127.766922,4409.6824223557,1987,312698,32,0,5922,0,0,36,0,0,86,1319,580,1079,156311,146986,0,0,347,0,0,0,0,0,0
ML,Mali,country,Sub-Saharan Africa,17.570692,-3.996166,KR,"Korea, Rep.",country,East Asia and Pacific,35.907757,127.766922,12212.8596249316,1987,6,0,0,0,0,0,0,0,0,0,0,0,0,6,0,0,0,0,0,0,0,0,0,0
MX,Mexico,country,Latin America and the Caribbean,23.634501,-102.552784,KR,"Korea, Rep.",country,East Asia and Pacific,35.907757,127.766922,11555.8170361013,1987,4975,0,0,0,0,0,0,0,202,3713,0,0,690,370,0,0,0,0,0,0,0,0,0,0
MA,Morocco,country,Middle East and North Africa,31.791702,-7.09262,KR,"Korea, Rep.",country,East Asia and Pacific,35.907757,127.766922,11151.2650351566,1987,12,0,0,0,0,0,0,0,0,0,12,0,0,0,0,0,0,0,0,0,0,0,0,0
MZ,Mozambique,country,Sub-Saharan Africa,-18.665695,35.529562,KR,"Korea, Rep.",country,East Asia and Pacific,35.907757,127.766922,11418.21098143,1987,107,0,0,0,0,0,0,0,0,0,0,0,0,107,0,0,0,0,0,0,0,0,0,0
MM,Myanmar,country,East Asia and Pacific,21.913965,95.956223,KR,"Korea, Rep.",country,East Asia and Pacific,35.907757,127.766922,3447.38258652905,1987,1643,0,0,0,1541,0,0,0,0,0,0,0,0,102,0,0,0,0,0,0,0,0,0,0
NP,Nepal,country,South Asia,28.394857,84.124008,KR,"Korea, Rep.",country,East Asia and Pacific,35.907757,127.766922,4162.29350818874,1987,0,0,0,0,0,0,0,0,0,0,0,0,0,0,0,0,0,0,0,0,0,0,0,0
NL,Netherlands,country,Europe and Central Asia,52.132633,5.291266,KR,"Korea, Rep.",country,East Asia and Pacific,35.907757,127.766922,8760.29648543808,1987,12964,261,0,2372,0,0,0,0,0,19,21,0,1908,586,845,11,10,63,6878,0,0,0,0,0
NZ,New Zealand,country,East Asia and Pacific,-40.900557,174.885971,KR,"Korea, Rep.",country,East Asia and Pacific,35.907757,127.766922,9810.81970612616,1987,48553,360,0,146,0,0,0,0,16,8585,0,0,631,3453,16170,29,0,15386,1694,2083,0,0,0,0
NI,Nicaragua,country,Latin America and the Caribbean,12.865416,-85.207229,KR,"Korea, Rep.",country,East Asia and Pacific,35.907757,127.766922,13595.4736556074,1987,680,0,0,0,0,0,0,0,0,680,0,0,0,0,0,0,0,0,0,0,0,0,0,0
NE,Niger,country,Sub-Saharan Africa,17.607789,8.081666,KR,"Korea, Rep.",country,East Asia and Pacific,35.907757,127.766922,11335.0770400193,1987,47,0,0,0,0,0,0,0,0,0,0,0,0,47,0,0,0,0,0,0,0,0,0,0
NG,Nigeria,country,Sub-Saharan Africa,9.081999,8.675277,KR,"Korea, Rep.",country,East Asia and Pacific,35.907757,127.766922,11937.3897461966,1987,65,0,0,0,0,0,0,0,0,0,0,0,0,65,0,0,0,0,0,0,0,0,0,0
NO,Norway,country,Europe and Central Asia,60.472024,8.468946,KR,"Korea, Rep.",country,East Asia and Pacific,35.907757,127.766922,7975.08458247792,1987,13,0,0,0,0,0,0,0,0,0,0,13,0,0,0,0,0,0,0,0,0,0,0,0
PK,Pakistan,country,South Asia,30.375321,69.345116,KR,"Korea, Rep.",country,East Asia and Pacific,35.907757,127.766922,5400.13578059599,1987,18716,2,0,0,0,0,0,0,0,17991,12,0,0,711,0,0,0,0,0,0,0,0,0,0
PA,Panama,country,Latin America and the Caribbean,8.537981,-80.782127,KR,"Korea, Rep.",country,East Asia and Pacific,35.907757,127.766922,14255.8522340919,1987,24074,5645,574,2611,0,0,0,0,0,0,1,14992,0,3,248,0,0,0,0,0,0,0,0,0
PG,Papua New Guinea,country,East Asia and Pacific,-6.314993,143.95555,KR,"Korea, Rep.",country,East Asia and Pacific,35.907757,127.766922,4995.7410226374,1987,1701,0,0,0,0,0,0,0,0,0,0,298,1303,100,0,0,0,0,0,0,0,0,0,0
PY,Paraguay,country,Latin America and the Caribbean,-23.442503,-58.443832,KR,"Korea, Rep.",country,East Asia and Pacific,35.907757,127.766922,18526.4015525444,1987,7186,0,0,0,0,0,4569,0,0,2617,0,0,0,0,0,0,0,0,0,0,0,0,0,0
PE,Peru,country,Latin America and the Caribbean,-9.189967,-75.015152,KR,"Korea, Rep.",country,East Asia and Pacific,35.907757,127.766922,16273.4046428638,1987,964,0,0,0,0,0,0,0,0,758,0,0,206,0,0,0,0,0,0,0,0,0,0,0
PH,Philippines,country,East Asia and Pacific,12.879721,121.774017,KR,"Korea, Rep.",country,East Asia and Pacific,35.907757,127.766922,2632.93915947274,1987,105361,2040,4000,47600,0,0,34651,0,5085,1077,0,232,0,2384,7827,178,0,287,0,0,0,0,0,0
PT,Portugal,country,Europe and Central Asia,39.399872,-8.224454,KR,"Korea, Rep.",country,East Asia and Pacific,35.907757,127.766922,10516.1300766298,1987,2196,0,0,0,0,0,0,2013,0,0,0,0,180,0,0,3,0,0,0,0,0,0,0,0
PR,Puerto Rico,country,Latin America and the Caribbean,18.220833,-66.590149,KR,"Korea, Rep.",country,East Asia and Pacific,35.907757,127.766922,13824.7805283022,1987,1,0,0,0,0,0,0,0,0,0,0,0,0,1,0,0,0,0,0,0,0,0,0,0
SA,Saudi Arabia,country,Middle East and North Africa,23.885942,45.079162,KR,"Korea, Rep.",country,East Asia and Pacific,35.907757,127.766922,7862.02648397574,1987,156,17,0,0,0,0,23,87,0,20,0,0,0,9,0,0,0,0,0,0,0,0,0,0
SG,Singapore,country,East Asia and Pacific,1.352083,103.819836,KR,"Korea, Rep.",country,East Asia and Pacific,35.907757,127.766922,4572.21802484784,1987,12718,0,0,0,0,0,0,0,0,0,126,1662,1312,4573,4626,354,0,0,65,0,0,0,0,0
SB,Solomon Islands,country,East Asia and Pacific,-9.64571,160.156194,KR,"Korea, Rep.",country,East Asia and Pacific,35.907757,127.766922,6103.54513810628,1987,64,0,0,0,0,0,0,0,0,0,0,0,0,64,0,0,0,0,0,0,0,0,0,0
ES,Spain,country,Europe and Central Asia,40.463667,-3.74922,KR,"Korea, Rep.",country,East Asia and Pacific,35.907757,127.766922,10196.4210430804,1987,208,0,0,10,0,0,0,61,0,17,0,0,0,78,33,7,0,0,2,0,0,0,0,0
LK,Sri Lanka,country,South Asia,7.873054,80.771797,KR,"Korea, Rep.",country,East Asia and Pacific,35.907757,127.766922,5691.63409581467,1987,87712,24,0,0,0,0,0,0,0,0,32,87218,20,405,0,0,0,13,0,0,0,0,0,0
SD,Sudan,country,Sub-Saharan Africa,12.862807,30.217636,KR,"Korea, Rep.",country,East Asia and Pacific,35.907757,127.766922,9847.6762108305,1987,10846,0,0,0,0,0,0,0,0,10752,0,0,0,94,0,0,0,0,0,0,0,0,0,0
SZ,Swaziland,country,Sub-Saharan Africa,-26.522503,31.465866,KR,"Korea, Rep.",country,East Asia and Pacific,35.907757,127.766922,12241.1602815043,1987,1000,0,0,1000,0,0,0,0,0,0,0,0,0,0,0,0,0,0,0,0,0,0,0,0
SE,Sweden,country,Europe and Central Asia,60.128161,18.643501,KR,"Korea, Rep.",country,East Asia and Pacific,35.907757,127.766922,7557.35716780417,1987,418,0,0,0,0,0,0,0,0,0,11,0,0,179,8,0,0,0,220,0,0,0,0,0
CH,Switzerland,country,Europe and Central Asia,46.818188,8.227512,KR,"Korea, Rep.",country,East Asia and Pacific,35.907757,127.766922,9030.09758300577,1987,4906,4702,0,3,0,0,0,2,22,5,0,6,67,94,0,0,0,0,5,0,0,0,0,0
TH,Thailand,country,East Asia and Pacific,15.870032,100.992541,KR,"Korea, Rep.",country,East Asia and Pacific,35.907757,127.766922,3466.08651881091,1987,661980,91652,118485,416071,3436,0,0,120,828,9,9,6278,1749,22903,82,0,0,358,0,0,0,0,0,0
TK,Tokelau,country,,-8.967363,-171.855881,KR,"Korea, Rep.",country,East Asia and Pacific,35.907757,127.766922,8048.31874659064,1987,41,0,0,0,0,0,0,0,0,0,0,0,0,41,0,0,0,0,0,0,0,0,0,0
TR,Turkey,country,Europe and Central Asia,38.963745,35.243322,KR,"Korea, Rep.",country,East Asia and Pacific,35.907757,127.766922,7798.8340616013,1987,2063,20,0,0,0,0,0,975,535,72,8,0,0,450,3,0,0,0,0,0,0,0,0,0
AE,United Arab Emirates,country,Middle East and North Africa,23.424076,53.847818,KR,"Korea, Rep.",country,East Asia and Pacific,35.907757,127.766922,7119.90209205201,1987,0,0,0,0,0,0,0,0,0,0,0,0,0,0,0,0,0,0,0,0,0,0,0,0
GB,United Kingdom,country,Europe and Central Asia,55.378051,-3.435973,KR,"Korea, Rep.",country,East Asia and Pacific,35.907757,127.766922,8867.71095819857,1987,190830,185083,0,1097,0,0,0,0,0,582,10,18,86,133,23,3145,24,136,472,45,0,0,0,0
TZ,Tanzania,country,Sub-Saharan Africa,-6.369028,34.888822,KR,"Korea, Rep.",country,East Asia and Pacific,35.907757,127.766922,10692.7586614001,1987,322,0,0,0,0,0,0,0,0,0,0,0,306,16,0,0,0,0,0,0,0,0,0,0
US,USA,country,North America,37.09024,-95.712891,KR,"Korea, Rep.",country,East Asia and Pacific,35.907757,127.766922,10754.6834489747,1987,7484791,5912157,1292,4556,2,0,1083830,1527,10963,272559,163,60261,319,8170,125681,201,195,210,801,2099,0,0,0,0
UY,Uruguay,country,Latin America and the Caribbean,-32.522779,-55.765835,KR,"Korea, Rep.",country,East Asia and Pacific,35.907757,127.766922,19539.8522817458,1987,16,0,0,0,0,0,0,0,0,16,0,0,0,0,0,0,0,0,0,0,0,0,0,0
WS,Samoa,country,East Asia and Pacific,-13.759029,-172.104629,KR,"Korea, Rep.",country,East Asia and Pacific,35.907757,127.766922,8391.6836886371,1988,6,0,0,0,0,0,0,0,0,0,0,0,0,6,0,0,0,0,0,0,0,0,0,0
AR,Argentina,country,Latin America and the Caribbean,-38.416097,-63.616672,KR,"Korea, Rep.",country,East Asia and Pacific,35.907757,127.766922,18990.5300720475,1988,156222,21000,0,540,0,0,0,0,0,3585,0,130611,0,78,408,0,0,0,0,0,0,0,0,0
AU,Australia,country,East Asia and Pacific,-25.274398,133.775136,KR,"Korea, Rep.",country,East Asia and Pacific,35.907757,127.766922,6840.01784036993,1988,733781,144695,0,504669,0,0,145,239,8,57856,7,2648,98,535,11002,46,0,8882,1060,1891,0,0,0,0
AT,Austria,country,Europe and Central Asia,47.516231,14.550072,KR,"Korea, Rep.",country,East Asia and Pacific,35.907757,127.766922,8624.4820219463,1988,848,500,0,0,0,0,0,0,0,327,0,0,0,4,1,0,0,0,16,0,0,0,0,0
BD,Bangladesh,country,South Asia,23.684994,90.356331,KR,"Korea, Rep.",country,East Asia and Pacific,35.907757,127.766922,3833.39958355868,1988,11680,0,0,11677,0,0,0,0,0,3,0,0,0,0,0,0,0,0,0,0,0,0,0,0
BE,Belgium,country,Europe and Central Asia,50.503887,4.469936,KR,"Korea, Rep.",country,East Asia and Pacific,35.907757,127.766922,8930.73904524196,1988,132232,129850,0,8,0,0,2,0,0,1394,0,227,415,139,156,0,0,0,41,0,0,0,0,0
BR,Brazil,country,Latin America and the Caribbean,-14.235004,-51.92528,KR,"Korea, Rep.",country,East Asia and Pacific,35.907757,127.766922,17624.7128699818,1988,30635,0,0,5200,0,0,0,0,4485,1541,7,11788,6389,326,866,1,0,32,0,0,0,0,0,0
BF,Burkina Faso,country,Sub-Saharan Africa,12.238333,-1.561593,KR,"Korea, Rep.",country,East Asia and Pacific,35.907757,127.766922,12486.5910786409,1988,76,0,0,0,0,0,0,0,0,76,0,0,0,0,0,0,0,0,0,0,0,0,0,0
CM,Cameroon,country,Sub-Saharan Africa,7.369722,12.354722,KR,"Korea, Rep.",country,East Asia and Pacific,35.907757,127.766922,11759.0268935405,1988,912,0,0,0,0,0,0,0,0,0,0,0,912,0,0,0,0,0,0,0,0,0,0,0
CA,Canada,country,North America,56.130366,-106.346771,KR,"Korea, Rep.",country,East Asia and Pacific,35.907757,127.766922,8588.54488503841,1988,183263,96997,0,259,0,0,8898,20,0,2,0,63181,50,335,13071,9,0,219,222,0,0,0,0,0
CF,Central African Rep.,country,Sub-Saharan Africa,6.611111,20.939444,KR,"Korea, Rep.",country,East Asia and Pacific,35.907757,127.766922,11078.5422007623,1988,79,0,0,0,0,0,0,0,0,79,0,0,0,0,0,0,0,0,0,0,0,0,0,0
CL,Chile,country,Latin America and the Caribbean,-35.675147,-71.542969,KR,"Korea, Rep.",country,East Asia and Pacific,35.907757,127.766922,18296.5373281959,1988,1710,400,0,0,0,0,0,66,544,4,0,343,300,50,0,3,0,0,0,0,0,0,0,0
HK,Hong Kong,country,East Asia and Pacific,22.396428,114.109497,KR,"Korea, Rep.",country,East Asia and Pacific,35.907757,127.766922,2001.83242604701,1988,13420,2121,0,10,0,0,911,263,83,1256,75,3733,274,3898,581,15,0,0,200,0,0,0,0,0
TW,Taiwan,country,East Asia and Pacific,23.69781,120.960515,KR,"Korea, Rep.",country,East Asia and Pacific,35.907757,127.766922,1508.75191708322,1988,34612,119,2006,1562,2572,0,51,5170,9881,5064,60,2942,55,4534,555,41,0,0,0,0,0,0,0,0
CO,Colombia,country,Latin America and the Caribbean,4.570868,-74.297333,KR,"Korea, Rep.",country,East Asia and Pacific,35.907757,127.766922,14977.9154430745,1988,1122,0,0,0,0,0,0,0,0,5,0,0,1117,0,0,0,0,0,0,0,0,0,0,0
CR,Costa Rica,country,Latin America and the Caribbean,9.748917,-83.753428,KR,"Korea, Rep.",country,East Asia and Pacific,35.907757,127.766922,13974.3011712383,1988,3834,0,0,0,0,0,0,0,0,0,0,0,3812,22,0,0,0,0,0,0,0,0,0,0
CI,Ivory Coast,country,Sub-Saharan Africa,7.539989,-5.54708,KR,"Korea, Rep.",country,East Asia and Pacific,35.907757,127.766922,13167.5129026133,1988,252,0,0,0,0,0,0,0,0,0,0,0,252,0,0,0,0,0,0,0,0,0,0,0
CY,Cyprus,country,Europe and Central Asia,35.126413,33.429859,KR,"Korea, Rep.",country,East Asia and Pacific,35.907757,127.766922,8159.76196658617,1988,7670,3000,0,0,0,0,4650,0,0,20,0,0,0,0,0,0,0,0,0,0,0,0,0,0
DK,Denmark,country,Europe and Central Asia,56.26392,9.501785,KR,"Korea, Rep.",country,East Asia and Pacific,35.907757,127.766922,8243.83214444068,1988,38051,36187,0,93,0,0,0,3,27,0,0,0,7,336,4,101,0,1278,15,0,0,0,0,0
DM,Dominica,country,Latin America and the Caribbean,15.414999,-61.370976,KR,"Korea, Rep.",country,East Asia and Pacific,35.907757,127.766922,14243.7301438885,1988,0,0,0,0,0,0,0,0,0,0,0,0,0,0,0,0,0,0,0,0,0,0,0,0
EC,Ecuador,country,Latin America and the Caribbean,-1.831239,-78.183406,KR,"Korea, Rep.",country,East Asia and Pacific,35.907757,127.766922,15395.7550570029,1988,20,0,0,0,0,0,0,0,0,0,0,0,20,0,0,0,0,0,0,0,0,0,0,0
EG,Egypt,country,Middle East and North Africa,26.820553,30.802498,KR,"Korea, Rep.",country,East Asia and Pacific,35.907757,127.766922,8884.0127742979,1988,2944,0,0,0,0,0,0,0,0,2916,28,0,0,0,0,0,0,0,0,0,0,0,0,0
ET,Ethiopia,country,Sub-Saharan Africa,9.145,40.489673,KR,"Korea, Rep.",country,East Asia and Pacific,35.907757,127.766922,9179.53394066104,1988,299,0,0,0,0,0,0,0,0,0,0,0,299,0,0,0,0,0,0,0,0,0,0,0
FI,Finland,country,Europe and Central Asia,61.92411,25.748151,KR,"Korea, Rep.",country,East Asia and Pacific,35.907757,127.766922,7126.44654766025,1988,110,0,0,49,0,0,0,0,0,11,0,0,3,36,0,11,0,0,0,0,0,0,0,0
FR,France,country,Europe and Central Asia,46.227638,2.213749,KR,"Korea, Rep.",country,East Asia and Pacific,35.907757,127.766922,9394.69177218069,1988,693532,688091,0,1781,0,0,12,10,6,1569,0,1,274,385,295,516,50,2,590,0,0,0,0,0
GH,Ghana,country,Sub-Saharan Africa,7.946527,-1.023194,KR,"Korea, Rep.",country,East Asia and Pacific,35.907757,127.766922,12793.6180297067,1988,1548,0,0,0,0,0,0,0,0,0,0,0,1548,0,0,0,0,0,0,0,0,0,0,0
GR,Greece,country,Europe and Central Asia,39.074208,21.824312,KR,"Korea, Rep.",country,East Asia and Pacific,35.907757,127.766922,8754.24659352061,1988,74011,72293,0,500,0,0,0,16,0,0,0,0,0,1202,0,0,0,0,0,0,0,0,0,0
GU,Guam,country,East Asia and Pacific,13.444304,144.793731,KR,"Korea, Rep.",country,East Asia and Pacific,35.907757,127.766922,3025.41137021333,1988,2,0,0,0,0,0,0,0,0,0,0,0,0,2,0,0,0,0,0,0,0,0,0,0
GT,Guatemala,country,Latin America and the Caribbean,15.783471,-90.230759,KR,"Korea, Rep.",country,East Asia and Pacific,35.907757,127.766922,13029.3824173447,1988,1245,0,0,0,0,0,0,0,0,0,0,0,1225,20,0,0,0,0,0,0,0,0,0,0
GN,Guinea,country,Sub-Saharan Africa,9.945587,-9.696645,KR,"Korea, Rep.",country,East Asia and Pacific,35.907757,127.766922,13259.7684462802,1988,23,0,0,0,0,0,0,0,0,0,0,0,0,23,0,0,0,0,0,0,0,0,0,0
HN,Honduras,country,Latin America and the Caribbean,15.199999,-86.241905,KR,"Korea, Rep.",country,East Asia and Pacific,35.907757,127.766922,13315.4224778278,1988,15671,0,0,14224,0,0,0,0,0,0,0,300,1104,43,0,0,0,0,0,0,0,0,0,0
IS,Iceland,country,Europe and Central Asia,64.963051,-19.020835,KR,"Korea, Rep.",country,East Asia and Pacific,35.907757,127.766922,8442.74429225162,1988,6,0,0,0,0,0,0,0,0,0,0,0,0,6,0,0,0,0,0,0,0,0,0,0
IN,India,country,South Asia,20.593684,78.96288,KR,"Korea, Rep.",country,East Asia and Pacific,35.907757,127.766922,5022.33087513342,1988,39444,379,0,0,0,9,0,0,0,460,317,35138,125,2816,200,0,0,0,0,0,0,0,0,0
ID,Indonesia,country,East Asia and Pacific,-0.789275,113.921327,KR,"Korea, Rep.",country,East Asia and Pacific,35.907757,127.766922,4330.00778247741,1988,229838,0,10,91814,0,41,0,9,0,0,1444,76438,12940,33443,13689,0,0,10,0,0,0,0,0,0
IE,Ireland,country,Europe and Central Asia,53.41291,-8.24389,KR,"Korea, Rep.",country,East Asia and Pacific,35.907757,127.766922,9228.55210982868,1988,267,0,0,0,0,0,0,0,0,0,0,0,0,230,0,0,0,0,0,37,0,0,0,0
IT,Italy,country,Europe and Central Asia,41.87194,12.56738,KR,"Korea, Rep.",country,East Asia and Pacific,35.907757,127.766922,9157.24139625824,1988,2507,1021,0,0,0,2,0,22,0,3,0,736,255,215,7,245,0,0,1,0,0,0,0,0
JP,Japan,country,East Asia and Pacific,36.204824,138.252924,KR,"Korea, Rep.",country,East Asia and Pacific,35.907757,127.766922,943.807690475197,1988,27591,2698,28,936,4,11,179,131,9343,490,131,855,598,6417,5326,357,0,0,56,31,0,0,0,0
KE,Kenya,country,Sub-Saharan Africa,-0.023559,37.906193,KR,"Korea, Rep.",country,East Asia and Pacific,35.907757,127.766922,10007.7349609945,1988,263,0,0,0,0,0,0,0,0,0,0,0,0,263,0,0,0,0,0,0,0,0,0,0
LB,Lebanon,country,Middle East and North Africa,33.854721,35.862285,KR,"Korea, Rep.",country,East Asia and Pacific,35.907757,127.766922,8046.16378699556,1988,5,0,0,0,0,0,0,0,0,5,0,0,0,0,0,0,0,0,0,0,0,0,0,0
LR,Liberia,country,Sub-Saharan Africa,6.428055,-9.429499,KR,"Korea, Rep.",country,East Asia and Pacific,35.907757,127.766922,13543.0220337936,1988,2000,2000,0,0,0,0,0,0,0,0,0,0,0,0,0,0,0,0,0,0,0,0,0,0
MG,Madagascar,country,Sub-Saharan Africa,-18.766947,46.869107,KR,"Korea, Rep.",country,East Asia and Pacific,35.907757,127.766922,10448.7259116775,1988,9,0,0,0,0,0,0,0,0,0,9,0,0,0,0,0,0,0,0,0,0,0,0,0
MY,Malaysia,country,East Asia and Pacific,4.210484,101.975766,KR,"Korea, Rep.",country,East Asia and Pacific,35.907757,127.766922,4409.6824223557,1988,331951,1139,0,20,0,0,41,407,0,230,1619,320,1432,183778,142965,0,0,0,0,0,0,0,0,0
ML,Mali,country,Sub-Saharan Africa,17.570692,-3.996166,KR,"Korea, Rep.",country,East Asia and Pacific,35.907757,127.766922,12212.8596249316,1988,1610,0,0,0,0,0,0,0,0,1605,0,0,0,5,0,0,0,0,0,0,0,0,0,0
MX,Mexico,country,Latin America and the Caribbean,23.634501,-102.552784,KR,"Korea, Rep.",country,East Asia and Pacific,35.907757,127.766922,11555.8170361013,1988,4125,0,0,0,0,0,0,83,0,2921,0,0,380,610,0,131,0,0,0,0,0,0,0,0
MA,Morocco,country,Middle East and North Africa,31.791702,-7.09262,KR,"Korea, Rep.",country,East Asia and Pacific,35.907757,127.766922,11151.2650351566,1988,5,0,0,0,0,0,0,0,0,0,0,0,0,5,0,0,0,0,0,0,0,0,0,0
MZ,Mozambique,country,Sub-Saharan Africa,-18.665695,35.529562,KR,"Korea, Rep.",country,East Asia and Pacific,35.907757,127.766922,11418.21098143,1988,63,0,0,0,0,0,0,0,0,0,0,0,0,63,0,0,0,0,0,0,0,0,0,0
MM,Myanmar,country,East Asia and Pacific,21.913965,95.956223,KR,"Korea, Rep.",country,East Asia and Pacific,35.907757,127.766922,3447.38258652905,1988,436,0,0,0,356,0,0,0,0,0,0,0,0,80,0,0,0,0,0,0,0,0,0,0
NP,Nepal,country,South Asia,28.394857,84.124008,KR,"Korea, Rep.",country,East Asia and Pacific,35.907757,127.766922,4162.29350818874,1988,2,0,0,0,0,0,0,0,0,0,0,0,0,2,0,0,0,0,0,0,0,0,0,0
NL,Netherlands,country,Europe and Central Asia,52.132633,5.291266,KR,"Korea, Rep.",country,East Asia and Pacific,35.907757,127.766922,8760.29648543808,1988,35853,21338,8,2433,0,0,23,0,0,14,0,150,2703,1105,780,181,0,192,6806,120,0,0,0,0
NZ,New Zealand,country,East Asia and Pacific,-40.900557,174.885971,KR,"Korea, Rep.",country,East Asia and Pacific,35.907757,127.766922,9810.81970612616,1988,57590,0,0,405,0,0,0,14,36,5516,0,0,911,4580,18206,3,0,23199,886,3834,0,0,0,0
NE,Niger,country,Sub-Saharan Africa,17.607789,8.081666,KR,"Korea, Rep.",country,East Asia and Pacific,35.907757,127.766922,11335.0770400193,1988,52,0,0,0,0,0,0,0,0,0,0,0,0,52,0,0,0,0,0,0,0,0,0,0
NG,Nigeria,country,Sub-Saharan Africa,9.081999,8.675277,KR,"Korea, Rep.",country,East Asia and Pacific,35.907757,127.766922,11937.3897461966,1988,257,0,0,0,0,0,0,0,0,0,0,0,100,157,0,0,0,0,0,0,0,0,0,0
NO,Norway,country,Europe and Central Asia,60.472024,8.468946,KR,"Korea, Rep.",country,East Asia and Pacific,35.907757,127.766922,7975.08458247792,1988,28,0,0,0,0,0,0,0,0,0,0,0,0,23,0,5,0,0,0,0,0,0,0,0
PK,Pakistan,country,South Asia,30.375321,69.345116,KR,"Korea, Rep.",country,East Asia and Pacific,35.907757,127.766922,5400.13578059599,1988,25564,0,0,0,0,0,0,0,0,24857,27,0,0,680,0,0,0,0,0,0,0,0,0,0
PA,Panama,country,Latin America and the Caribbean,8.537981,-80.782127,KR,"Korea, Rep.",country,East Asia and Pacific,35.907757,127.766922,14255.8522340919,1988,17889,4748,2667,4000,0,0,0,0,0,0,0,6232,240,0,0,2,0,0,0,0,0,0,0,0
PG,Papua New Guinea,country,East Asia and Pacific,-6.314993,143.95555,KR,"Korea, Rep.",country,East Asia and Pacific,35.907757,127.766922,4995.7410226374,1988,293,0,0,0,0,0,0,0,0,0,0,0,0,293,0,0,0,0,0,0,0,0,0,0
PY,Paraguay,country,Latin America and the Caribbean,-23.442503,-58.443832,KR,"Korea, Rep.",country,East Asia and Pacific,35.907757,127.766922,18526.4015525444,1988,6413,0,0,0,0,0,0,0,0,6349,0,0,64,0,0,0,0,0,0,0,0,0,0,0
PE,Peru,country,Latin America and the Caribbean,-9.189967,-75.015152,KR,"Korea, Rep.",country,East Asia and Pacific,35.907757,127.766922,16273.4046428638,1988,668,0,0,0,0,0,0,0,0,608,0,60,0,0,0,0,0,0,0,0,0,0,0,0
PH,Philippines,country,East Asia and Pacific,12.879721,121.774017,KR,"Korea, Rep.",country,East Asia and Pacific,35.907757,127.766922,2632.93915947274,1988,126194,8553,25,60400,0,0,35744,0,5288,1140,0,24,1,5037,9756,226,0,0,0,0,0,0,0,0
PT,Portugal,country,Europe and Central Asia,39.399872,-8.224454,KR,"Korea, Rep.",country,East Asia and Pacific,35.907757,127.766922,10516.1300766298,1988,2074,0,0,0,0,0,0,1984,0,0,0,0,0,0,0,90,0,0,0,0,0,0,0,0
PR,Puerto Rico,country,Latin America and the Caribbean,18.220833,-66.590149,KR,"Korea, Rep.",country,East Asia and Pacific,35.907757,127.766922,13824.7805283022,1988,9,0,0,0,0,0,0,0,0,0,0,0,0,6,0,3,0,0,0,0,0,0,0,0
SA,Saudi Arabia,country,Middle East and North Africa,23.885942,45.079162,KR,"Korea, Rep.",country,East Asia and Pacific,35.907757,127.766922,7862.02648397574,1988,60553,58985,0,1500,0,0,20,0,0,13,0,0,0,20,15,0,0,0,0,0,0,0,0,0
SN,Senegal,country,Sub-Saharan Africa,14.497401,-14.452362,KR,"Korea, Rep.",country,East Asia and Pacific,35.907757,127.766922,13160.9384604025,1988,174,0,0,0,0,0,0,0,0,174,0,0,0,0,0,0,0,0,0,0,0,0,0,0
SG,Singapore,country,East Asia and Pacific,1.352083,103.819836,KR,"Korea, Rep.",country,East Asia and Pacific,35.907757,127.766922,4572.21802484784,1988,16890,1100,0,0,0,0,2052,0,16,73,133,385,1440,5861,5381,317,0,17,115,0,0,0,0,0
SB,Solomon Islands,country,East Asia and Pacific,-9.64571,160.156194,KR,"Korea, Rep.",country,East Asia and Pacific,35.907757,127.766922,6103.54513810628,1988,100,0,0,0,0,0,0,0,0,0,0,0,0,100,0,0,0,0,0,0,0,0,0,0
SO,Somalia,country,Sub-Saharan Africa,5.152149,46.199616,KR,"Korea, Rep.",country,East Asia and Pacific,35.907757,127.766922,8922.92882248705,1988,16,0,0,0,0,0,0,0,0,0,0,0,0,16,0,0,0,0,0,0,0,0,0,0
ES,Spain,country,Europe and Central Asia,40.463667,-3.74922,KR,"Korea, Rep.",country,East Asia and Pacific,35.907757,127.766922,10196.4210430804,1988,854,0,0,198,0,0,26,69,250,104,9,4,0,119,48,27,0,0,0,0,0,0,0,0
LK,Sri Lanka,country,South Asia,7.873054,80.771797,KR,"Korea, Rep.",country,East Asia and Pacific,35.907757,127.766922,5691.63409581467,1988,66854,0,0,0,0,0,0,0,0,3,35,66345,22,449,0,0,0,0,0,0,0,0,0,0
SD,Sudan,country,Sub-Saharan Africa,12.862807,30.217636,KR,"Korea, Rep.",country,East Asia and Pacific,35.907757,127.766922,9847.6762108305,1988,12782,0,0,0,0,0,0,0,0,12676,0,0,0,106,0,0,0,0,0,0,0,0,0,0
SZ,Swaziland,country,Sub-Saharan Africa,-26.522503,31.465866,KR,"Korea, Rep.",country,East Asia and Pacific,35.907757,127.766922,12241.1602815043,1988,8896,8889,0,0,0,0,0,0,0,0,0,0,7,0,0,0,0,0,0,0,0,0,0,0
SE,Sweden,country,Europe and Central Asia,60.128161,18.643501,KR,"Korea, Rep.",country,East Asia and Pacific,35.907757,127.766922,7557.35716780417,1988,11961,11899,0,0,0,0,0,0,0,0,0,0,0,32,15,0,0,0,15,0,0,0,0,0
CH,Switzerland,country,Europe and Central Asia,46.818188,8.227512,KR,"Korea, Rep.",country,East Asia and Pacific,35.907757,127.766922,9030.09758300577,1988,68373,67940,0,27,0,4,5,49,67,0,3,0,74,141,0,18,0,6,39,0,0,0,0,0
TH,Thailand,country,East Asia and Pacific,15.870032,100.992541,KR,"Korea, Rep.",country,East Asia and Pacific,35.907757,127.766922,3466.08651881091,1988,1044838,286728,347133,370064,5096,19,0,447,2201,0,40,0,5457,27429,214,0,0,10,0,0,0,0,0,0
TK,Tokelau,country,,-8.967363,-171.855881,KR,"Korea, Rep.",country,East Asia and Pacific,35.907757,127.766922,8048.31874659064,1988,123,0,0,0,0,0,0,0,0,0,0,0,0,123,0,0,0,0,0,0,0,0,0,0
TO,Tonga,country,East Asia and Pacific,-21.178986,-175.198242,KR,"Korea, Rep.",country,East Asia and Pacific,35.907757,127.766922,8740.51840596877,1988,1,0,0,0,0,0,0,0,0,0,0,0,0,1,0,0,0,0,0,0,0,0,0,0
TN,Tunisia,country,Middle East and North Africa,33.886917,9.537499,KR,"Korea, Rep.",country,East Asia and Pacific,35.907757,127.766922,9961.62096694586,1988,197,0,0,0,0,0,0,197,0,0,0,0,0,0,0,0,0,0,0,0,0,0,0,0
TR,Turkey,country,Europe and Central Asia,38.963745,35.243322,KR,"Korea, Rep.",country,East Asia and Pacific,35.907757,127.766922,7798.8340616013,1988,89293,85956,0,0,0,0,0,890,187,145,25,0,0,2090,0,0,0,0,0,0,0,0,0,0
AE,United Arab Emirates,country,Middle East and North Africa,23.424076,53.847818,KR,"Korea, Rep.",country,East Asia and Pacific,35.907757,127.766922,7119.90209205201,1988,28,0,0,0,0,0,3,0,0,18,0,0,0,7,0,0,0,0,0,0,0,0,0,0
GB,United Kingdom,country,Europe and Central Asia,55.378051,-3.435973,KR,"Korea, Rep.",country,East Asia and Pacific,35.907757,127.766922,8867.71095819857,1988,647949,640489,0,176,0,0,2,0,0,586,6,48,321,233,19,5221,19,25,126,697,0,0,0,0
US,USA,country,North America,37.09024,-95.712891,KR,"Korea, Rep.",country,East Asia and Pacific,35.907757,127.766922,10754.6834489747,1988,7667020,6172921,677,2420,0,1678,1022024,3603,16940,303452,110,13034,772,11747,93349,1386,97,16282,4479,2146,0,0,0,0
UY,Uruguay,country,Latin America and the Caribbean,-32.522779,-55.765835,KR,"Korea, Rep.",country,East Asia and Pacific,35.907757,127.766922,19539.8522817458,1988,3283,0,0,0,0,0,0,0,0,29,0,3254,0,0,0,0,0,0,0,0,0,0,0,0
VE,Venezuela,country,Latin America and the Caribbean,6.42375,-66.58973,KR,"Korea, Rep.",country,East Asia and Pacific,35.907757,127.766922,15091.7580993813,1988,0,0,0,0,0,0,0,0,0,0,0,0,0,0,0,0,0,0,0,0,0,0,0,0
AR,Argentina,country,Latin America and the Caribbean,-38.416097,-63.616672,KR,"Korea, Rep.",country,East Asia and Pacific,35.907757,127.766922,18990.5300720475,1989,121677,0,0,0,0,0,0,0,0,839,0,120791,0,47,0,0,0,0,0,0,0,0,0,0
AU,Australia,country,East Asia and Pacific,-25.274398,133.775136,KR,"Korea, Rep.",country,East Asia and Pacific,35.907757,127.766922,6840.01784036993,1989,913449,249089,0,517352,0,0,158,165,36,70501,0,549,245,717,10809,30,0,60469,1391,1938,0,0,0,0
AT,Austria,country,Europe and Central Asia,47.516231,14.550072,KR,"Korea, Rep.",country,East Asia and Pacific,35.907757,127.766922,8624.4820219463,1989,7185,3917,0,2400,0,0,0,0,0,834,0,0,1,12,1,0,0,0,0,20,0,0,0,0
BD,Bangladesh,country,South Asia,23.684994,90.356331,KR,"Korea, Rep.",country,East Asia and Pacific,35.907757,127.766922,3833.39958355868,1989,76,0,0,0,0,0,0,0,0,5,0,0,0,70,0,0,0,1,0,0,0,0,0,0
BE,Belgium,country,Europe and Central Asia,50.503887,4.469936,KR,"Korea, Rep.",country,East Asia and Pacific,35.907757,127.766922,8930.73904524196,1989,3294,26,0,21,0,0,0,11,8,1465,0,266,583,253,268,0,0,70,323,0,0,0,0,0
BJ,Benin,country,Sub-Saharan Africa,9.30769,2.315834,KR,"Korea, Rep.",country,East Asia and Pacific,35.907757,127.766922,12427.5036534903,1989,172,0,0,0,0,0,0,0,0,172,0,0,0,0,0,0,0,0,0,0,0,0,0,0
BO,Bolivia,country,Latin America and the Caribbean,-16.290154,-63.588653,KR,"Korea, Rep.",country,East Asia and Pacific,35.907757,127.766922,17580.8517309442,1989,14,0,0,0,0,0,0,0,0,14,0,0,0,0,0,0,0,0,0,0,0,0,0,0
BR,Brazil,country,Latin America and the Caribbean,-14.235004,-51.92528,KR,"Korea, Rep.",country,East Asia and Pacific,35.907757,127.766922,17624.7128699818,1989,264256,0,0,10315,0,0,173568,0,11561,7192,0,51164,9331,300,821,4,0,0,0,0,0,0,0,0
BF,Burkina Faso,country,Sub-Saharan Africa,12.238333,-1.561593,KR,"Korea, Rep.",country,East Asia and Pacific,35.907757,127.766922,12486.5910786409,1989,1666,0,0,0,0,0,0,0,0,1666,0,0,0,0,0,0,0,0,0,0,0,0,0,0
CM,Cameroon,country,Sub-Saharan Africa,7.369722,12.354722,KR,"Korea, Rep.",country,East Asia and Pacific,35.907757,127.766922,11759.0268935405,1989,2945,0,0,0,0,0,0,0,0,2761,0,0,184,0,0,0,0,0,0,0,0,0,0,0
CA,Canada,country,North America,56.130366,-106.346771,KR,"Korea, Rep.",country,East Asia and Pacific,35.907757,127.766922,8588.54488503841,1989,152738,54650,329,476,0,0,9960,284,26,0,0,76447,0,1127,3822,63,0,4558,996,0,0,0,0,0
CF,Central African Rep.,country,Sub-Saharan Africa,6.611111,20.939444,KR,"Korea, Rep.",country,East Asia and Pacific,35.907757,127.766922,11078.5422007623,1989,868,0,0,0,0,0,0,0,0,847,0,0,0,21,0,0,0,0,0,0,0,0,0,0
CL,Chile,country,Latin America and the Caribbean,-35.675147,-71.542969,KR,"Korea, Rep.",country,East Asia and Pacific,35.907757,127.766922,18296.5373281959,1989,1640,0,0,0,0,0,0,833,680,0,0,0,120,5,0,2,0,0,0,0,0,0,0,0
HK,Hong Kong,country,East Asia and Pacific,22.396428,114.109497,KR,"Korea, Rep.",country,East Asia and Pacific,35.907757,127.766922,2001.83242604701,1989,3502,22,0,221,0,20,56,176,0,467,10,194,20,2273,0,3,0,0,40,0,0,0,0,0
TW,Taiwan,country,East Asia and Pacific,23.69781,120.960515,KR,"Korea, Rep.",country,East Asia and Pacific,35.907757,127.766922,1508.75191708322,1989,44018,2386,0,32,48,0,0,4004,20260,5566,11,4509,0,7015,29,153,13,0,5,0,0,0,0,0
CO,Colombia,country,Latin America and the Caribbean,4.570868,-74.297333,KR,"Korea, Rep.",country,East Asia and Pacific,35.907757,127.766922,14977.9154430745,1989,4456,0,0,70,0,0,0,0,0,2,0,0,4384,0,0,0,0,0,0,0,0,0,0,0
KM,Comoros,country,Sub-Saharan Africa,-11.875001,43.872219,KR,"Korea, Rep.",country,East Asia and Pacific,35.907757,127.766922,10250.8668258639,1989,0,0,0,0,0,0,0,0,0,0,0,0,0,0,0,0,0,0,0,0,0,0,0,0
CR,Costa Rica,country,Latin America and the Caribbean,9.748917,-83.753428,KR,"Korea, Rep.",country,East Asia and Pacific,35.907757,127.766922,13974.3011712383,1989,1441,0,0,0,0,0,0,0,0,0,0,0,1270,171,0,0,0,0,0,0,0,0,0,0
CI,Ivory Coast,country,Sub-Saharan Africa,7.539989,-5.54708,KR,"Korea, Rep.",country,East Asia and Pacific,35.907757,127.766922,13167.5129026133,1989,2259,0,0,0,0,0,0,0,0,1680,0,0,216,363,0,0,0,0,0,0,0,0,0,0
CY,Cyprus,country,Europe and Central Asia,35.126413,33.429859,KR,"Korea, Rep.",country,East Asia and Pacific,35.907757,127.766922,8159.76196658617,1989,14,0,0,0,0,0,0,0,0,0,0,0,0,14,0,0,0,0,0,0,0,0,0,0
CD,"Congo, Dem. Rep.",country,Sub-Saharan Africa,-4.038333,21.758664,KR,"Korea, Rep.",country,East Asia and Pacific,35.907757,127.766922,11723.5476850199,1989,140,0,0,0,0,0,0,0,0,140,0,0,0,0,0,0,0,0,0,0,0,0,0,0
DK,Denmark,country,Europe and Central Asia,56.26392,9.501785,KR,"Korea, Rep.",country,East Asia and Pacific,35.907757,127.766922,8243.83214444068,1989,2335,236,0,262,0,0,0,0,15,0,0,0,40,496,35,8,2,1211,32,0,0,0,0,0
EC,Ecuador,country,Latin America and the Caribbean,-1.831239,-78.183406,KR,"Korea, Rep.",country,East Asia and Pacific,35.907757,127.766922,15395.7550570029,1989,95,0,0,0,0,0,0,0,0,0,0,0,95,0,0,0,0,0,0,0,0,0,0,0
EG,Egypt,country,Middle East and North Africa,26.820553,30.802498,KR,"Korea, Rep.",country,East Asia and Pacific,35.907757,127.766922,8884.0127742979,1989,2110,0,0,0,0,0,0,0,0,2090,20,0,0,0,0,0,0,0,0,0,0,0,0,0
ET,Ethiopia,country,Sub-Saharan Africa,9.145,40.489673,KR,"Korea, Rep.",country,East Asia and Pacific,35.907757,127.766922,9179.53394066104,1989,283,0,0,0,0,0,0,0,0,0,0,0,283,0,0,0,0,0,0,0,0,0,0,0
FI,Finland,country,Europe and Central Asia,61.92411,25.748151,KR,"Korea, Rep.",country,East Asia and Pacific,35.907757,127.766922,7126.44654766025,1989,645,0,0,25,0,0,0,0,0,0,0,0,270,72,0,0,0,278,0,0,0,0,0,0
FR,France,country,Europe and Central Asia,46.227638,2.213749,KR,"Korea, Rep.",country,East Asia and Pacific,35.907757,127.766922,9394.69177218069,1989,10407,5252,0,766,0,0,0,6,19,746,0,0,184,754,164,596,80,68,1849,3,0,0,0,0
GA,Gabon,country,Sub-Saharan Africa,-0.803689,11.609444,KR,"Korea, Rep.",country,East Asia and Pacific,35.907757,127.766922,12403.5811803742,1989,0,0,0,0,0,0,0,0,0,0,0,0,0,0,0,0,0,0,0,0,0,0,0,0
GH,Ghana,country,Sub-Saharan Africa,7.946527,-1.023194,KR,"Korea, Rep.",country,East Asia and Pacific,35.907757,127.766922,12793.6180297067,1989,2310,0,0,0,0,0,0,0,0,0,0,0,2310,0,0,0,0,0,0,0,0,0,0,0
GR,Greece,country,Europe and Central Asia,39.074208,21.824312,KR,"Korea, Rep.",country,East Asia and Pacific,35.907757,127.766922,8754.24659352061,1989,76070,75056,0,0,0,0,0,16,0,0,0,0,0,998,0,0,0,0,0,0,0,0,0,0
GU,Guam,country,East Asia and Pacific,13.444304,144.793731,KR,"Korea, Rep.",country,East Asia and Pacific,35.907757,127.766922,3025.41137021333,1989,7,0,0,0,0,0,0,0,0,0,0,0,0,7,0,0,0,0,0,0,0,0,0,0
GT,Guatemala,country,Latin America and the Caribbean,15.783471,-90.230759,KR,"Korea, Rep.",country,East Asia and Pacific,35.907757,127.766922,13029.3824173447,1989,1625,0,0,0,0,0,0,0,0,0,0,0,1441,184,0,0,0,0,0,0,0,0,0,0
GN,Guinea,country,Sub-Saharan Africa,9.945587,-9.696645,KR,"Korea, Rep.",country,East Asia and Pacific,35.907757,127.766922,13259.7684462802,1989,246,0,0,0,0,0,243,0,0,0,0,0,0,3,0,0,0,0,0,0,0,0,0,0
HN,Honduras,country,Latin America and the Caribbean,15.199999,-86.241905,KR,"Korea, Rep.",country,East Asia and Pacific,35.907757,127.766922,13315.4224778278,1989,2474,0,0,0,0,0,0,0,0,0,0,0,2327,147,0,0,0,0,0,0,0,0,0,0
IS,Iceland,country,Europe and Central Asia,64.963051,-19.020835,KR,"Korea, Rep.",country,East Asia and Pacific,35.907757,127.766922,8442.74429225162,1989,120,0,0,0,0,0,0,0,0,0,0,0,0,120,0,0,0,0,0,0,0,0,0,0
IN,India,country,South Asia,20.593684,78.96288,KR,"Korea, Rep.",country,East Asia and Pacific,35.907757,127.766922,5022.33087513342,1989,278019,19,0,0,0,26,0,0,0,279,483,274083,0,2922,207,0,0,0,0,0,0,0,0,0
ID,Indonesia,country,East Asia and Pacific,-0.789275,113.921327,KR,"Korea, Rep.",country,East Asia and Pacific,35.907757,127.766922,4330.00778247741,1989,288286,0,29918,76622,0,41,5,10,0,0,1420,131389,10557,33749,4573,0,0,2,0,0,0,0,0,0
IE,Ireland,country,Europe and Central Asia,53.41291,-8.24389,KR,"Korea, Rep.",country,East Asia and Pacific,35.907757,127.766922,9228.55210982868,1989,327,0,0,0,0,0,0,0,0,1,0,0,0,266,0,2,0,0,0,58,0,0,0,0
IT,Italy,country,Europe and Central Asia,41.87194,12.56738,KR,"Korea, Rep.",country,East Asia and Pacific,35.907757,127.766922,9157.24139625824,1989,2021,1347,0,5,0,0,0,0,1,2,0,435,11,35,3,142,0,2,36,2,0,0,0,0
JP,Japan,country,East Asia and Pacific,36.204824,138.252924,KR,"Korea, Rep.",country,East Asia and Pacific,35.907757,127.766922,943.807690475197,1989,32804,537,92,368,0,7,557,214,9837,928,97,5730,398,7477,5518,520,35,270,79,175,0,0,0,0
KE,Kenya,country,Sub-Saharan Africa,-0.023559,37.906193,KR,"Korea, Rep.",country,East Asia and Pacific,35.907757,127.766922,10007.7349609945,1989,504,0,0,0,0,0,0,0,0,0,0,0,0,504,0,0,0,0,0,0,0,0,0,0
LB,Lebanon,country,Middle East and North Africa,33.854721,35.862285,KR,"Korea, Rep.",country,East Asia and Pacific,35.907757,127.766922,8046.16378699556,1989,3,0,0,0,0,0,0,0,0,3,0,0,0,0,0,0,0,0,0,0,0,0,0,0
MG,Madagascar,country,Sub-Saharan Africa,-18.766947,46.869107,KR,"Korea, Rep.",country,East Asia and Pacific,35.907757,127.766922,10448.7259116775,1989,5,0,0,0,0,0,0,0,0,0,0,0,0,5,0,0,0,0,0,0,0,0,0,0
MY,Malaysia,country,East Asia and Pacific,4.210484,101.975766,KR,"Korea, Rep.",country,East Asia and Pacific,35.907757,127.766922,4409.6824223557,1989,341804,11,0,4,0,0,51,1786,48,257,1807,1184,996,171656,164004,0,0,0,0,0,0,0,0,0
ML,Mali,country,Sub-Saharan Africa,17.570692,-3.996166,KR,"Korea, Rep.",country,East Asia and Pacific,35.907757,127.766922,12212.8596249316,1989,1788,0,0,0,0,0,0,0,0,1788,0,0,0,0,0,0,0,0,0,0,0,0,0,0
MR,Mauritania,country,Sub-Saharan Africa,21.00789,-10.940835,KR,"Korea, Rep.",country,East Asia and Pacific,35.907757,127.766922,12353.0300296291,1989,5,0,0,0,0,0,0,0,0,0,0,0,0,5,0,0,0,0,0,0,0,0,0,0
MU,Mauritius,country,Sub-Saharan Africa,-20.348404,57.552152,KR,"Korea, Rep.",country,East Asia and Pacific,35.907757,127.766922,9679.76895543008,1989,6,0,0,0,0,0,0,0,0,0,0,0,0,6,0,0,0,0,0,0,0,0,0,0
MX,Mexico,country,Latin America and the Caribbean,23.634501,-102.552784,KR,"Korea, Rep.",country,East Asia and Pacific,35.907757,127.766922,11555.8170361013,1989,12132,0,0,0,0,0,0,0,15,11347,9,0,69,430,0,262,0,0,0,0,0,0,0,0
MA,Morocco,country,Middle East and North Africa,31.791702,-7.09262,KR,"Korea, Rep.",country,East Asia and Pacific,35.907757,127.766922,11151.2650351566,1989,34,0,0,0,0,0,0,0,0,0,34,0,0,0,0,0,0,0,0,0,0,0,0,0
MZ,Mozambique,country,Sub-Saharan Africa,-18.665695,35.529562,KR,"Korea, Rep.",country,East Asia and Pacific,35.907757,127.766922,11418.21098143,1989,125,0,0,0,0,0,0,0,0,0,0,0,0,125,0,0,0,0,0,0,0,0,0,0
MM,Myanmar,country,East Asia and Pacific,21.913965,95.956223,KR,"Korea, Rep.",country,East Asia and Pacific,35.907757,127.766922,3447.38258652905,1989,151,0,0,0,0,0,0,0,0,0,0,0,0,151,0,0,0,0,0,0,0,0,0,0
NP,Nepal,country,South Asia,28.394857,84.124008,KR,"Korea, Rep.",country,East Asia and Pacific,35.907757,127.766922,4162.29350818874,1989,1,0,0,0,0,0,0,0,0,0,0,0,0,1,0,0,0,0,0,0,0,0,0,0
NL,Netherlands,country,Europe and Central Asia,52.132633,5.291266,KR,"Korea, Rep.",country,East Asia and Pacific,35.907757,127.766922,8760.29648543808,1989,16796,300,71,2456,0,0,0,6,14,68,0,342,4264,1354,1611,151,48,626,5486,47,0,0,0,0
NZ,New Zealand,country,East Asia and Pacific,-40.900557,174.885971,KR,"Korea, Rep.",country,East Asia and Pacific,35.907757,127.766922,9810.81970612616,1989,57522,149,0,540,0,0,0,0,55,5948,0,72,465,5111,12635,88,0,25166,588,6705,0,0,0,0
NE,Niger,country,Sub-Saharan Africa,17.607789,8.081666,KR,"Korea, Rep.",country,East Asia and Pacific,35.907757,127.766922,11335.0770400193,1989,11,0,0,0,0,0,0,0,0,0,0,0,0,11,0,0,0,0,0,0,0,0,0,0
NG,Nigeria,country,Sub-Saharan Africa,9.081999,8.675277,KR,"Korea, Rep.",country,East Asia and Pacific,35.907757,127.766922,11937.3897461966,1989,177,0,0,0,0,0,0,0,0,0,0,0,0,173,0,0,0,0,0,4,0,0,0,0
NO,Norway,country,Europe and Central Asia,60.472024,8.468946,KR,"Korea, Rep.",country,East Asia and Pacific,35.907757,127.766922,7975.08458247792,1989,40,0,0,0,0,0,0,0,0,0,0,0,0,40,0,0,0,0,0,0,0,0,0,0
OM,Oman,country,Middle East and North Africa,21.512583,55.923255,KR,"Korea, Rep.",country,East Asia and Pacific,35.907757,127.766922,7042.54095251856,1989,8,0,0,0,0,0,0,0,0,0,0,0,0,8,0,0,0,0,0,0,0,0,0,0
PK,Pakistan,country,South Asia,30.375321,69.345116,KR,"Korea, Rep.",country,East Asia and Pacific,35.907757,127.766922,5400.13578059599,1989,30902,3,0,0,0,0,0,0,0,29885,22,0,0,959,0,0,0,0,33,0,0,0,0,0
PA,Panama,country,Latin America and the Caribbean,8.537981,-80.782127,KR,"Korea, Rep.",country,East Asia and Pacific,35.907757,127.766922,14255.8522340919,1989,6823,2600,0,4038,0,0,0,0,0,0,0,0,180,5,0,0,0,0,0,0,0,0,0,0
PG,Papua New Guinea,country,East Asia and Pacific,-6.314993,143.95555,KR,"Korea, Rep.",country,East Asia and Pacific,35.907757,127.766922,4995.7410226374,1989,1622,0,0,0,0,0,435,0,0,0,0,0,1015,172,0,0,0,0,0,0,0,0,0,0
PY,Paraguay,country,Latin America and the Caribbean,-23.442503,-58.443832,KR,"Korea, Rep.",country,East Asia and Pacific,35.907757,127.766922,18526.4015525444,1989,5609,0,0,0,0,0,0,0,0,5607,0,0,0,2,0,0,0,0,0,0,0,0,0,0
PE,Peru,country,Latin America and the Caribbean,-9.189967,-75.015152,KR,"Korea, Rep.",country,East Asia and Pacific,35.907757,127.766922,16273.4046428638,1989,1043,0,0,0,0,0,0,0,0,1043,0,0,0,0,0,0,0,0,0,0,0,0,0,0
PH,Philippines,country,East Asia and Pacific,12.879721,121.774017,KR,"Korea, Rep.",country,East Asia and Pacific,35.907757,127.766922,2632.93915947274,1989,135512,0,0,67940,0,0,48346,0,8094,685,11,0,39,4507,5712,178,0,0,0,0,0,0,0,0
PT,Portugal,country,Europe and Central Asia,39.399872,-8.224454,KR,"Korea, Rep.",country,East Asia and Pacific,35.907757,127.766922,10516.1300766298,1989,1656,0,0,0,0,0,0,1642,0,0,0,0,0,12,0,2,0,0,0,0,0,0,0,0
PR,Puerto Rico,country,Latin America and the Caribbean,18.220833,-66.590149,KR,"Korea, Rep.",country,East Asia and Pacific,35.907757,127.766922,13824.7805283022,1989,0,0,0,0,0,0,0,0,0,0,0,0,0,0,0,0,0,0,0,0,0,0,0,0
SA,Saudi Arabia,country,Middle East and North Africa,23.885942,45.079162,KR,"Korea, Rep.",country,East Asia and Pacific,35.907757,127.766922,7862.02648397574,1989,38010,37428,0,500,0,0,0,0,0,8,0,0,0,0,0,0,0,0,0,74,0,0,0,0
SN,Senegal,country,Sub-Saharan Africa,14.497401,-14.452362,KR,"Korea, Rep.",country,East Asia and Pacific,35.907757,127.766922,13160.9384604025,1989,1499,0,0,0,0,0,0,0,0,1499,0,0,0,0,0,0,0,0,0,0,0,0,0,0
SG,Singapore,country,East Asia and Pacific,1.352083,103.819836,KR,"Korea, Rep.",country,East Asia and Pacific,35.907757,127.766922,4572.21802484784,1989,12943,12,0,0,0,0,1535,3,0,410,142,1395,1460,5464,2162,352,0,0,8,0,0,0,0,0
SB,Solomon Islands,country,East Asia and Pacific,-9.64571,160.156194,KR,"Korea, Rep.",country,East Asia and Pacific,35.907757,127.766922,6103.54513810628,1989,79,0,0,0,0,0,0,0,0,0,0,0,0,79,0,0,0,0,0,0,0,0,0,0
SO,Somalia,country,Sub-Saharan Africa,5.152149,46.199616,KR,"Korea, Rep.",country,East Asia and Pacific,35.907757,127.766922,8922.92882248705,1989,11,0,0,0,0,0,0,0,0,0,0,0,0,11,0,0,0,0,0,0,0,0,0,0
ES,Spain,country,Europe and Central Asia,40.463667,-3.74922,KR,"Korea, Rep.",country,East Asia and Pacific,35.907757,127.766922,10196.4210430804,1989,1864,0,0,1248,0,0,41,99,5,0,9,0,253,118,42,35,0,0,0,14,0,0,0,0
LK,Sri Lanka,country,South Asia,7.873054,80.771797,KR,"Korea, Rep.",country,East Asia and Pacific,35.907757,127.766922,5691.63409581467,1989,103161,0,0,0,0,0,0,0,38,2,19,102648,20,434,0,0,0,0,0,0,0,0,0,0
SD,Sudan,country,Sub-Saharan Africa,12.862807,30.217636,KR,"Korea, Rep.",country,East Asia and Pacific,35.907757,127.766922,9847.6762108305,1989,3391,0,0,0,0,0,0,0,0,3256,0,0,0,135,0,0,0,0,0,0,0,0,0,0
SZ,Swaziland,country,Sub-Saharan Africa,-26.522503,31.465866,KR,"Korea, Rep.",country,East Asia and Pacific,35.907757,127.766922,12241.1602815043,1989,49,0,0,0,0,0,0,0,0,0,0,0,18,31,0,0,0,0,0,0,0,0,0,0
SE,Sweden,country,Europe and Central Asia,60.128161,18.643501,KR,"Korea, Rep.",country,East Asia and Pacific,35.907757,127.766922,7557.35716780417,1989,359,4,0,0,0,0,0,0,0,0,0,0,0,79,210,0,0,0,60,6,0,0,0,0
CH,Switzerland,country,Europe and Central Asia,46.818188,8.227512,KR,"Korea, Rep.",country,East Asia and Pacific,35.907757,127.766922,9030.09758300577,1989,980,114,0,59,0,0,2,45,77,0,0,1,145,390,1,3,0,0,143,0,0,0,0,0
TH,Thailand,country,East Asia and Pacific,15.870032,100.992541,KR,"Korea, Rep.",country,East Asia and Pacific,35.907757,127.766922,3466.08651881091,1989,1411375,275116,567391,516998,295,0,2646,1370,5279,38,47,0,8087,33492,616,0,0,0,0,0,0,0,0,0
TK,Tokelau,country,,-8.967363,-171.855881,KR,"Korea, Rep.",country,East Asia and Pacific,35.907757,127.766922,8048.31874659064,1989,13688,0,0,13500,0,0,0,0,0,0,0,0,0,188,0,0,0,0,0,0,0,0,0,0
TR,Turkey,country,Europe and Central Asia,38.963745,35.243322,KR,"Korea, Rep.",country,East Asia and Pacific,35.907757,127.766922,7798.8340616013,1989,56015,51742,0,3,0,0,0,2025,135,110,4,0,0,1996,0,0,0,0,0,0,0,0,0,0
UG,Uganda,country,Sub-Saharan Africa,1.373333,32.290275,KR,"Korea, Rep.",country,East Asia and Pacific,35.907757,127.766922,10422.2776507606,1989,896,0,0,0,0,0,0,0,0,0,0,0,896,0,0,0,0,0,0,0,0,0,0,0
AE,United Arab Emirates,country,Middle East and North Africa,23.424076,53.847818,KR,"Korea, Rep.",country,East Asia and Pacific,35.907757,127.766922,7119.90209205201,1989,21,0,0,0,0,21,0,0,0,0,0,0,0,0,0,0,0,0,0,0,0,0,0,0
GB,United Kingdom,country,Europe and Central Asia,55.378051,-3.435973,KR,"Korea, Rep.",country,East Asia and Pacific,35.907757,127.766922,8867.71095819857,1989,12980,131,0,221,0,0,0,148,4,934,7,97,456,658,9,6856,20,0,208,3251,0,0,0,0
TZ,Tanzania,country,Sub-Saharan Africa,-6.369028,34.888822,KR,"Korea, Rep.",country,East Asia and Pacific,35.907757,127.766922,10692.7586614001,1989,0,0,0,0,0,0,0,0,0,0,0,0,0,0,0,0,0,0,0,0,0,0,0,0
US,USA,country,North America,37.09024,-95.712891,KR,"Korea, Rep.",country,East Asia and Pacific,35.907757,127.766922,10754.6834489747,1989,9426787,8012237,2443,3352,1,2781,882647,3878,28791,293194,118,27009,2263,22180,119543,2622,226,15498,4730,3499,1,0,0,0
UY,Uruguay,country,Latin America and the Caribbean,-32.522779,-55.765835,KR,"Korea, Rep.",country,East Asia and Pacific,35.907757,127.766922,19539.8522817458,1989,0,0,0,0,0,0,0,0,0,0,0,0,0,0,0,0,0,0,0,0,0,0,0,0
VE,Venezuela,country,Latin America and the Caribbean,6.42375,-66.58973,KR,"Korea, Rep.",country,East Asia and Pacific,35.907757,127.766922,15091.7580993813,1989,120,0,0,0,0,0,0,0,0,0,0,0,120,0,0,0,0,0,0,0,0,0,0,0
ZW,Zimbabwe,country,Sub-Saharan Africa,-19.015438,29.154857,KR,"Korea, Rep.",country,East Asia and Pacific,35.907757,127.766922,12000.6569686625,1989,165,0,0,0,0,0,0,0,0,0,0,0,165,0,0,0,0,0,0,0,0,0,0,0
AR,Argentina,country,Latin America and the Caribbean,-38.416097,-63.616672,KR,"Korea, Rep.",country,East Asia and Pacific,35.907757,127.766922,18990.5300720475,1990,132239,0,0,21,0,0,23883,0,16,1545,0,106582,3,163,26,0,0,0,0,0,0,0,0,0
AU,Australia,country,East Asia and Pacific,-25.274398,133.775136,KR,"Korea, Rep.",country,East Asia and Pacific,35.907757,127.766922,6840.01784036993,1990,966763,395702,0,394948,0,3,2164,403,44,76086,0,173,98,967,15922,189,0,76524,1187,2353,0,0,0,0
AT,Austria,country,Europe and Central Asia,47.516231,14.550072,KR,"Korea, Rep.",country,East Asia and Pacific,35.907757,127.766922,8624.4820219463,1990,12335,11061,0,0,0,0,58,0,2,428,0,0,16,105,514,2,0,149,0,0,0,0,0,0
BD,Bangladesh,country,South Asia,23.684994,90.356331,KR,"Korea, Rep.",country,East Asia and Pacific,35.907757,127.766922,3833.39958355868,1990,52,0,0,0,0,0,0,0,0,2,0,0,0,50,0,0,0,0,0,0,0,0,0,0
BE,Belgium,country,Europe and Central Asia,50.503887,4.469936,KR,"Korea, Rep.",country,East Asia and Pacific,35.907757,127.766922,8930.73904524196,1990,6727,2140,0,45,0,0,0,4,25,1675,0,95,669,303,536,53,0,0,1182,0,0,0,0,0
BJ,Benin,country,Sub-Saharan Africa,9.30769,2.315834,KR,"Korea, Rep.",country,East Asia and Pacific,35.907757,127.766922,12427.5036534903,1990,1095,0,0,0,0,0,0,0,0,1095,0,0,0,0,0,0,0,0,0,0,0,0,0,0
BO,Bolivia,country,Latin America and the Caribbean,-16.290154,-63.588653,KR,"Korea, Rep.",country,East Asia and Pacific,35.907757,127.766922,17580.8517309442,1990,0,0,0,0,0,0,0,0,0,0,0,0,0,0,0,0,0,0,0,0,0,0,0,0
BW,Botswana,country,Sub-Saharan Africa,-22.328474,24.684866,KR,"Korea, Rep.",country,East Asia and Pacific,35.907757,127.766922,12590.6686464015,1990,3,0,0,0,0,0,0,0,0,0,0,0,0,3,0,0,0,0,0,0,0,0,0,0
BR,Brazil,country,Latin America and the Caribbean,-14.235004,-51.92528,KR,"Korea, Rep.",country,East Asia and Pacific,35.907757,127.766922,17624.7128699818,1990,206007,0,0,12,0,0,168696,0,15812,4683,0,0,11554,250,4998,2,0,0,0,0,0,0,0,0
BF,Burkina Faso,country,Sub-Saharan Africa,12.238333,-1.561593,KR,"Korea, Rep.",country,East Asia and Pacific,35.907757,127.766922,12486.5910786409,1990,2669,0,0,0,0,0,0,0,0,2669,0,0,0,0,0,0,0,0,0,0,0,0,0,0
CM,Cameroon,country,Sub-Saharan Africa,7.369722,12.354722,KR,"Korea, Rep.",country,East Asia and Pacific,35.907757,127.766922,11759.0268935405,1990,1661,0,0,0,0,0,0,0,0,0,0,0,1661,0,0,0,0,0,0,0,0,0,0,0
CA,Canada,country,North America,56.130366,-106.346771,KR,"Korea, Rep.",country,East Asia and Pacific,35.907757,127.766922,8588.54488503841,1990,391010,272541,0,473,0,0,11138,350,36,0,2,98197,0,1468,5217,96,0,845,647,0,0,0,0,0
CF,Central African Rep.,country,Sub-Saharan Africa,6.611111,20.939444,KR,"Korea, Rep.",country,East Asia and Pacific,35.907757,127.766922,11078.5422007623,1990,826,0,0,0,0,0,0,0,0,826,0,0,0,0,0,0,0,0,0,0,0,0,0,0
CL,Chile,country,Latin America and the Caribbean,-35.675147,-71.542969,KR,"Korea, Rep.",country,East Asia and Pacific,35.907757,127.766922,18296.5373281959,1990,1866,0,0,24,0,0,0,1241,579,4,0,0,18,0,0,0,0,0,0,0,0,0,0,0
HK,Hong Kong,country,East Asia and Pacific,22.396428,114.109497,KR,"Korea, Rep.",country,East Asia and Pacific,35.907757,127.766922,2001.83242604701,1990,3267,0,0,500,0,0,3,262,2,207,11,270,6,1796,116,2,0,75,17,0,0,0,0,0
TW,Taiwan,country,East Asia and Pacific,23.69781,120.960515,KR,"Korea, Rep.",country,East Asia and Pacific,35.907757,127.766922,1508.75191708322,1990,42677,5337,73,13,115,17,525,3843,15266,4197,8,2527,0,7549,776,536,59,1895,0,0,0,0,0,0
CO,Colombia,country,Latin America and the Caribbean,4.570868,-74.297333,KR,"Korea, Rep.",country,East Asia and Pacific,35.907757,127.766922,14977.9154430745,1990,5656,0,0,0,0,0,28,0,0,4,0,0,5624,0,0,0,0,0,0,0,0,0,0,0
KM,Comoros,country,Sub-Saharan Africa,-11.875001,43.872219,KR,"Korea, Rep.",country,East Asia and Pacific,35.907757,127.766922,10250.8668258639,1990,0,0,0,0,0,0,0,0,0,0,0,0,0,0,0,0,0,0,0,0,0,0,0,0
CR,Costa Rica,country,Latin America and the Caribbean,9.748917,-83.753428,KR,"Korea, Rep.",country,East Asia and Pacific,35.907757,127.766922,13974.3011712383,1990,4253,0,0,0,0,0,0,0,0,0,0,0,2659,1594,0,0,0,0,0,0,0,0,0,0
CI,Ivory Coast,country,Sub-Saharan Africa,7.539989,-5.54708,KR,"Korea, Rep.",country,East Asia and Pacific,35.907757,127.766922,13167.5129026133,1990,6684,0,0,0,0,0,0,0,0,4977,0,0,558,1149,0,0,0,0,0,0,0,0,0,0
CD,"Congo, Dem. Rep.",country,Sub-Saharan Africa,-4.038333,21.758664,KR,"Korea, Rep.",country,East Asia and Pacific,35.907757,127.766922,11723.5476850199,1990,1931,0,0,0,0,0,0,0,0,0,0,0,1931,0,0,0,0,0,0,0,0,0,0,0
DK,Denmark,country,Europe and Central Asia,56.26392,9.501785,KR,"Korea, Rep.",country,East Asia and Pacific,35.907757,127.766922,8243.83214444068,1990,98552,95377,0,261,0,0,0,0,117,0,0,55,133,657,64,8,1,1859,21,0,0,0,0,0
DJ,Djibouti,country,Middle East and North Africa,11.825138,42.590275,KR,"Korea, Rep.",country,East Asia and Pacific,35.907757,127.766922,8819.98825059881,1990,1,0,0,0,0,0,0,0,0,0,0,0,0,1,0,0,0,0,0,0,0,0,0,0
EC,Ecuador,country,Latin America and the Caribbean,-1.831239,-78.183406,KR,"Korea, Rep.",country,East Asia and Pacific,35.907757,127.766922,15395.7550570029,1990,304,0,0,0,0,0,0,0,0,5,0,0,299,0,0,0,0,0,0,0,0,0,0,0
EG,Egypt,country,Middle East and North Africa,26.820553,30.802498,KR,"Korea, Rep.",country,East Asia and Pacific,35.907757,127.766922,8884.0127742979,1990,2886,0,0,0,0,0,0,0,0,2886,0,0,0,0,0,0,0,0,0,0,0,0,0,0
GQ,Equatorial Guinea,country,Sub-Saharan Africa,1.650801,10.267895,KR,"Korea, Rep.",country,East Asia and Pacific,35.907757,127.766922,12346.6847354366,1990,40,0,0,0,0,0,0,0,0,0,0,0,0,40,0,0,0,0,0,0,0,0,0,0
ET,Ethiopia,country,Sub-Saharan Africa,9.145,40.489673,KR,"Korea, Rep.",country,East Asia and Pacific,35.907757,127.766922,9179.53394066104,1990,430,0,0,0,0,0,0,0,0,0,0,0,430,0,0,0,0,0,0,0,0,0,0,0
FI,Finland,country,Europe and Central Asia,61.92411,25.748151,KR,"Korea, Rep.",country,East Asia and Pacific,35.907757,127.766922,7126.44654766025,1990,765,0,0,33,0,0,0,0,0,0,0,0,301,23,0,0,0,408,0,0,0,0,0,0
FR,France,country,Europe and Central Asia,46.227638,2.213749,KR,"Korea, Rep.",country,East Asia and Pacific,35.907757,127.766922,9394.69177218069,1990,18499,9392,0,425,0,2,0,24,39,642,0,23,287,620,753,934,80,1301,4036,21,0,0,0,0
GH,Ghana,country,Sub-Saharan Africa,7.946527,-1.023194,KR,"Korea, Rep.",country,East Asia and Pacific,35.907757,127.766922,12793.6180297067,1990,2665,0,0,0,0,0,0,0,0,0,0,0,2665,0,0,0,0,0,0,0,0,0,0,0
GR,Greece,country,Europe and Central Asia,39.074208,21.824312,KR,"Korea, Rep.",country,East Asia and Pacific,35.907757,127.766922,8754.24659352061,1990,2436,0,0,0,0,0,0,31,0,506,1,0,0,1898,0,0,0,0,0,0,0,0,0,0
GU,Guam,country,East Asia and Pacific,13.444304,144.793731,KR,"Korea, Rep.",country,East Asia and Pacific,35.907757,127.766922,3025.41137021333,1990,89,0,0,0,0,0,0,0,0,0,0,0,0,89,0,0,0,0,0,0,0,0,0,0
GT,Guatemala,country,Latin America and the Caribbean,15.783471,-90.230759,KR,"Korea, Rep.",country,East Asia and Pacific,35.907757,127.766922,13029.3824173447,1990,3394,0,0,0,0,0,0,0,0,1438,0,0,1330,611,15,0,0,0,0,0,0,0,0,0
GN,Guinea,country,Sub-Saharan Africa,9.945587,-9.696645,KR,"Korea, Rep.",country,East Asia and Pacific,35.907757,127.766922,13259.7684462802,1990,291,0,0,0,0,0,0,0,0,0,0,0,282,9,0,0,0,0,0,0,0,0,0,0
HT,Haiti,country,Latin America and the Caribbean,18.971187,-72.285215,KR,"Korea, Rep.",country,East Asia and Pacific,35.907757,127.766922,13573.1175542112,1990,12,0,0,0,0,0,0,0,0,0,0,0,0,12,0,0,0,0,0,0,0,0,0,0
HN,Honduras,country,Latin America and the Caribbean,15.199999,-86.241905,KR,"Korea, Rep.",country,East Asia and Pacific,35.907757,127.766922,13315.4224778278,1990,3153,0,0,0,0,0,0,0,20,0,0,0,3133,0,0,0,0,0,0,0,0,0,0,0
IS,Iceland,country,Europe and Central Asia,64.963051,-19.020835,KR,"Korea, Rep.",country,East Asia and Pacific,35.907757,127.766922,8442.74429225162,1990,0,0,0,0,0,0,0,0,0,0,0,0,0,0,0,0,0,0,0,0,0,0,0,0
IN,India,country,South Asia,20.593684,78.96288,KR,"Korea, Rep.",country,East Asia and Pacific,35.907757,127.766922,5022.33087513342,1990,331716,1000,971,6080,0,45,4497,0,0,9152,379,305641,650,3030,271,0,0,0,0,0,0,0,0,0
ID,Indonesia,country,East Asia and Pacific,-0.789275,113.921327,KR,"Korea, Rep.",country,East Asia and Pacific,35.907757,127.766922,4330.00778247741,1990,290865,11,45045,139539,49,0,0,32,1150,42,1438,60089,11533,27818,4119,0,0,0,0,0,0,0,0,0
IE,Ireland,country,Europe and Central Asia,53.41291,-8.24389,KR,"Korea, Rep.",country,East Asia and Pacific,35.907757,127.766922,9228.55210982868,1990,763,0,0,0,0,0,0,0,0,5,0,0,48,433,0,1,0,195,0,81,0,0,0,0
IT,Italy,country,Europe and Central Asia,41.87194,12.56738,KR,"Korea, Rep.",country,East Asia and Pacific,35.907757,127.766922,9157.24139625824,1990,1648,1221,0,20,3,0,0,3,21,0,0,0,25,44,44,154,0,0,36,77,0,0,0,0
JM,Jamaica,country,Latin America and the Caribbean,18.109581,-77.297508,KR,"Korea, Rep.",country,East Asia and Pacific,35.907757,127.766922,13469.7182549045,1990,6,0,0,0,0,0,0,0,0,0,0,0,6,0,0,0,0,0,0,0,0,0,0,0
JP,Japan,country,East Asia and Pacific,36.204824,138.252924,KR,"Korea, Rep.",country,East Asia and Pacific,35.907757,127.766922,943.807690475197,1990,24608,474,0,1584,17,1,587,204,811,1334,126,3242,601,7009,7437,877,54,224,36,31,13,0,0,0
KE,Kenya,country,Sub-Saharan Africa,-0.023559,37.906193,KR,"Korea, Rep.",country,East Asia and Pacific,35.907757,127.766922,10007.7349609945,1990,395,0,0,0,0,0,0,0,90,0,0,0,1,304,0,0,0,0,0,0,0,0,0,0
LI,Liechtenstein,country,Europe and Central Asia,47.166,9.555373,KR,"Korea, Rep.",country,East Asia and Pacific,35.907757,127.766922,8930.71032585756,1990,0,0,0,0,0,0,0,0,0,0,0,0,0,0,0,0,0,0,0,0,0,0,0,0
MG,Madagascar,country,Sub-Saharan Africa,-18.766947,46.869107,KR,"Korea, Rep.",country,East Asia and Pacific,35.907757,127.766922,10448.7259116775,1990,1,0,0,0,0,0,0,0,0,0,0,0,0,1,0,0,0,0,0,0,0,0,0,0
MY,Malaysia,country,East Asia and Pacific,4.210484,101.975766,KR,"Korea, Rep.",country,East Asia and Pacific,35.907757,127.766922,4409.6824223557,1990,419859,2,0,4710,0,0,65,4593,15,168,1814,832,1552,179215,226893,0,0,0,0,0,0,0,0,0
ML,Mali,country,Sub-Saharan Africa,17.570692,-3.996166,KR,"Korea, Rep.",country,East Asia and Pacific,35.907757,127.766922,12212.8596249316,1990,5749,0,0,0,0,0,0,0,0,5749,0,0,0,0,0,0,0,0,0,0,0,0,0,0
MR,Mauritania,country,Sub-Saharan Africa,21.00789,-10.940835,KR,"Korea, Rep.",country,East Asia and Pacific,35.907757,127.766922,12353.0300296291,1990,6,0,0,0,0,0,0,0,0,0,0,0,0,6,0,0,0,0,0,0,0,0,0,0
MU,Mauritius,country,Sub-Saharan Africa,-20.348404,57.552152,KR,"Korea, Rep.",country,East Asia and Pacific,35.907757,127.766922,9679.76895543008,1990,6,0,0,0,0,0,0,0,0,0,0,0,0,6,0,0,0,0,0,0,0,0,0,0
MX,Mexico,country,Latin America and the Caribbean,23.634501,-102.552784,KR,"Korea, Rep.",country,East Asia and Pacific,35.907757,127.766922,11555.8170361013,1990,9069,0,0,52,0,8,0,0,304,7235,0,0,1016,454,0,0,0,0,0,0,0,0,0,0
MA,Morocco,country,Middle East and North Africa,31.791702,-7.09262,KR,"Korea, Rep.",country,East Asia and Pacific,35.907757,127.766922,11151.2650351566,1990,75,0,0,0,0,0,0,0,0,3,72,0,0,0,0,0,0,0,0,0,0,0,0,0
MM,Myanmar,country,East Asia and Pacific,21.913965,95.956223,KR,"Korea, Rep.",country,East Asia and Pacific,35.907757,127.766922,3447.38258652905,1990,1570,0,0,0,0,0,1426,0,37,0,0,0,0,107,0,0,0,0,0,0,0,0,0,0
NR,Nauru,country,East Asia and Pacific,-0.522778,166.931503,KR,"Korea, Rep.",country,East Asia and Pacific,35.907757,127.766922,5732.13682084645,1990,16,0,0,0,0,0,0,0,0,16,0,0,0,0,0,0,0,0,0,0,0,0,0,0
NP,Nepal,country,South Asia,28.394857,84.124008,KR,"Korea, Rep.",country,East Asia and Pacific,35.907757,127.766922,4162.29350818874,1990,0,0,0,0,0,0,0,0,0,0,0,0,0,0,0,0,0,0,0,0,0,0,0,0
NL,Netherlands,country,Europe and Central Asia,52.132633,5.291266,KR,"Korea, Rep.",country,East Asia and Pacific,35.907757,127.766922,8760.29648543808,1990,31513,14405,0,2545,0,0,5,114,46,13,2,772,5586,1385,1613,150,123,316,4505,56,0,0,0,0
NZ,New Zealand,country,East Asia and Pacific,-40.900557,174.885971,KR,"Korea, Rep.",country,East Asia and Pacific,35.907757,127.766922,9810.81970612616,1990,57627,14,0,1125,0,0,0,74,561,4383,0,120,463,3877,11231,1,0,24600,1301,9877,0,0,0,0
NG,Nigeria,country,Sub-Saharan Africa,9.081999,8.675277,KR,"Korea, Rep.",country,East Asia and Pacific,35.907757,127.766922,11937.3897461966,1990,118,0,0,0,0,0,0,0,0,0,0,0,0,118,0,0,0,0,0,0,0,0,0,0
NO,Norway,country,Europe and Central Asia,60.472024,8.468946,KR,"Korea, Rep.",country,East Asia and Pacific,35.907757,127.766922,7975.08458247792,1990,8,0,0,0,0,0,0,0,0,0,0,0,0,8,0,0,0,0,0,0,0,0,0,0
PK,Pakistan,country,South Asia,30.375321,69.345116,KR,"Korea, Rep.",country,East Asia and Pacific,35.907757,127.766922,5400.13578059599,1990,16161,30,0,0,0,0,0,0,0,15475,0,0,0,656,0,0,0,0,0,0,0,0,0,0
PA,Panama,country,Latin America and the Caribbean,8.537981,-80.782127,KR,"Korea, Rep.",country,East Asia and Pacific,35.907757,127.766922,14255.8522340919,1990,130,0,0,0,0,0,0,0,0,0,0,0,0,15,0,0,0,0,115,0,0,0,0,0
PG,Papua New Guinea,country,East Asia and Pacific,-6.314993,143.95555,KR,"Korea, Rep.",country,East Asia and Pacific,35.907757,127.766922,4995.7410226374,1990,2398,0,0,0,0,0,0,0,0,0,0,0,2322,76,0,0,0,0,0,0,0,0,0,0
PY,Paraguay,country,Latin America and the Caribbean,-23.442503,-58.443832,KR,"Korea, Rep.",country,East Asia and Pacific,35.907757,127.766922,18526.4015525444,1990,5402,0,0,0,0,0,0,0,0,5400,0,0,0,2,0,0,0,0,0,0,0,0,0,0
PE,Peru,country,Latin America and the Caribbean,-9.189967,-75.015152,KR,"Korea, Rep.",country,East Asia and Pacific,35.907757,127.766922,16273.4046428638,1990,1014,0,0,0,0,0,0,0,0,1010,0,0,0,4,0,0,0,0,0,0,0,0,0,0
PH,Philippines,country,East Asia and Pacific,12.879721,121.774017,KR,"Korea, Rep.",country,East Asia and Pacific,35.907757,127.766922,2632.93915947274,1990,284988,1306,0,131860,0,0,51778,0,24974,690,0,37023,79,6559,30594,125,15,0,0,0,0,0,0,0
PT,Portugal,country,Europe and Central Asia,39.399872,-8.224454,KR,"Korea, Rep.",country,East Asia and Pacific,35.907757,127.766922,10516.1300766298,1990,1140,0,0,0,0,0,0,1091,0,0,0,0,0,13,0,36,0,0,0,0,0,0,0,0
PR,Puerto Rico,country,Latin America and the Caribbean,18.220833,-66.590149,KR,"Korea, Rep.",country,East Asia and Pacific,35.907757,127.766922,13824.7805283022,1990,21,0,0,0,0,0,0,0,0,0,0,0,0,21,0,0,0,0,0,0,0,0,0,0
SA,Saudi Arabia,country,Middle East and North Africa,23.885942,45.079162,KR,"Korea, Rep.",country,East Asia and Pacific,35.907757,127.766922,7862.02648397574,1990,143,0,0,0,0,0,0,0,21,0,0,0,0,0,0,0,0,0,0,122,0,0,0,0
SN,Senegal,country,Sub-Saharan Africa,14.497401,-14.452362,KR,"Korea, Rep.",country,East Asia and Pacific,35.907757,127.766922,13160.9384604025,1990,200,0,0,0,0,0,0,0,0,200,0,0,0,0,0,0,0,0,0,0,0,0,0,0
SG,Singapore,country,East Asia and Pacific,1.352083,103.819836,KR,"Korea, Rep.",country,East Asia and Pacific,35.907757,127.766922,4572.21802484784,1990,12312,48,0,0,0,0,1775,13,10,0,40,187,1967,5746,2283,243,0,0,0,0,0,0,0,0
SB,Solomon Islands,country,East Asia and Pacific,-9.64571,160.156194,KR,"Korea, Rep.",country,East Asia and Pacific,35.907757,127.766922,6103.54513810628,1990,77,0,0,0,0,0,0,0,0,0,0,0,0,77,0,0,0,0,0,0,0,0,0,0
SO,Somalia,country,Sub-Saharan Africa,5.152149,46.199616,KR,"Korea, Rep.",country,East Asia and Pacific,35.907757,127.766922,8922.92882248705,1990,2,0,0,0,0,0,0,0,0,0,0,0,0,2,0,0,0,0,0,0,0,0,0,0
ES,Spain,country,Europe and Central Asia,40.463667,-3.74922,KR,"Korea, Rep.",country,East Asia and Pacific,35.907757,127.766922,10196.4210430804,1990,4431,0,0,2909,0,0,91,217,0,0,0,0,743,157,74,98,0,0,0,142,0,0,0,0
LK,Sri Lanka,country,South Asia,7.873054,80.771797,KR,"Korea, Rep.",country,East Asia and Pacific,35.907757,127.766922,5691.63409581467,1990,116921,0,0,0,0,0,0,0,38,4,8,116443,9,419,0,0,0,0,0,0,0,0,0,0
SD,Sudan,country,Sub-Saharan Africa,12.862807,30.217636,KR,"Korea, Rep.",country,East Asia and Pacific,35.907757,127.766922,9847.6762108305,1990,5573,0,0,0,0,0,0,0,0,5388,0,0,0,185,0,0,0,0,0,0,0,0,0,0
SZ,Swaziland,country,Sub-Saharan Africa,-26.522503,31.465866,KR,"Korea, Rep.",country,East Asia and Pacific,35.907757,127.766922,12241.1602815043,1990,1548,508,0,1003,0,0,0,15,9,0,0,0,1,8,0,0,0,0,4,0,0,0,0,0
SE,Sweden,country,Europe and Central Asia,60.128161,18.643501,KR,"Korea, Rep.",country,East Asia and Pacific,35.907757,127.766922,7557.35716780417,1990,279,22,0,0,0,0,0,9,7,0,0,0,44,92,105,0,0,0,0,0,0,0,0,0
CH,Switzerland,country,Europe and Central Asia,46.818188,8.227512,KR,"Korea, Rep.",country,East Asia and Pacific,35.907757,127.766922,9030.09758300577,1990,29545,28844,0,64,0,0,1,23,87,0,0,5,134,386,0,0,0,0,1,0,0,0,0,0
TH,Thailand,country,East Asia and Pacific,15.870032,100.992541,KR,"Korea, Rep.",country,East Asia and Pacific,35.907757,127.766922,3466.08651881091,1990,1359442,1578,711981,558186,11443,16,505,1972,17909,2,22,0,6810,48350,628,0,0,40,0,0,0,0,0,0
TG,Togo,country,Sub-Saharan Africa,8.619543,0.824782,KR,"Korea, Rep.",country,East Asia and Pacific,35.907757,127.766922,12597.5939089862,1990,509,0,0,0,0,0,0,0,0,509,0,0,0,0,0,0,0,0,0,0,0,0,0,0
TK,Tokelau,country,,-8.967363,-171.855881,KR,"Korea, Rep.",country,East Asia and Pacific,35.907757,127.766922,8048.31874659064,1990,153,0,0,0,0,0,0,0,0,0,0,0,0,153,0,0,0,0,0,0,0,0,0,0
TR,Turkey,country,Europe and Central Asia,38.963745,35.243322,KR,"Korea, Rep.",country,East Asia and Pacific,35.907757,127.766922,7798.8340616013,1990,5411,0,0,10,0,0,0,3571,144,23,10,0,11,1642,0,0,0,0,0,0,0,0,0,0
UG,Uganda,country,Sub-Saharan Africa,1.373333,32.290275,KR,"Korea, Rep.",country,East Asia and Pacific,35.907757,127.766922,10422.2776507606,1990,178,0,0,0,0,0,0,0,0,0,0,0,178,0,0,0,0,0,0,0,0,0,0,0
GB,United Kingdom,country,Europe and Central Asia,55.378051,-3.435973,KR,"Korea, Rep.",country,East Asia and Pacific,35.907757,127.766922,8867.71095819857,1990,70500,55978,0,581,0,0,0,421,1,261,9,189,463,1077,918,5786,27,201,189,4426,0,0,0,0
TZ,Tanzania,country,Sub-Saharan Africa,-6.369028,34.888822,KR,"Korea, Rep.",country,East Asia and Pacific,35.907757,127.766922,10692.7586614001,1990,41,0,0,0,0,0,0,0,0,0,0,0,17,24,0,0,0,0,0,0,0,0,0,0
US,USA,country,North America,37.09024,-95.712891,KR,"Korea, Rep.",country,East Asia and Pacific,35.907757,127.766922,10754.6834489747,1990,8542067,7067259,7,5146,164,3115,822833,9798,21972,283893,148,45022,3248,17832,218954,3980,295,31684,3061,3951,0,0,0,0
VI,Virgin Islands (U.S.),country,Latin America and the Caribbean,18.335765,-64.896335,KR,"Korea, Rep.",country,East Asia and Pacific,35.907757,127.766922,13853.3456115057,1990,3,0,0,0,0,0,0,0,0,0,0,0,0,3,0,0,0,0,0,0,0,0,0,0
UY,Uruguay,country,Latin America and the Caribbean,-32.522779,-55.765835,KR,"Korea, Rep.",country,East Asia and Pacific,35.907757,127.766922,19539.8522817458,1990,43,0,0,0,0,0,0,0,0,13,0,0,0,0,0,0,0,0,0,30,0,0,0,0
VE,Venezuela,country,Latin America and the Caribbean,6.42375,-66.58973,KR,"Korea, Rep.",country,East Asia and Pacific,35.907757,127.766922,15091.7580993813,1990,198,0,0,0,0,0,0,0,0,0,0,0,195,3,0,0,0,0,0,0,0,0,0,0
AF,Afghanistan,country,South Asia,33.93911,67.709953,KR,"Korea, Rep.",country,East Asia and Pacific,35.907757,127.766922,5397.07135962418,1991,0,0,0,0,0,0,0,0,0,0,0,0,0,0,0,0,0,0,0,0,0,0,0,0
AG,Antigua & Barbuda,country,Latin America and the Caribbean,17.060816,-61.796428,KR,"Korea, Rep.",country,East Asia and Pacific,35.907757,127.766922,14055.5272438083,1991,525,0,0,0,0,0,0,0,0,0,0,0,0,0,525,0,0,0,0,0,0,0,0,0
AR,Argentina,country,Latin America and the Caribbean,-38.416097,-63.616672,KR,"Korea, Rep.",country,East Asia and Pacific,35.907757,127.766922,18990.5300720475,1991,74487,0,0,68,0,0,0,0,51,2789,0,56792,33,264,14487,0,0,3,0,0,0,0,0,0
AU,Australia,country,East Asia and Pacific,-25.274398,133.775136,KR,"Korea, Rep.",country,East Asia and Pacific,35.907757,127.766922,6840.01784036993,1991,1879391,1255700,0,280664,0,12,5804,300,420,94816,0,152,237,582,29250,33,0,207796,2136,1489,0,0,0,0
AT,Austria,country,Europe and Central Asia,47.516231,14.550072,KR,"Korea, Rep.",country,East Asia and Pacific,35.907757,127.766922,8624.4820219463,1991,1877,0,0,0,0,1,250,0,3,0,0,1524,18,7,0,5,0,18,51,0,0,0,0,0
BD,Bangladesh,country,South Asia,23.684994,90.356331,KR,"Korea, Rep.",country,East Asia and Pacific,35.907757,127.766922,3833.39958355868,1991,24,0,0,0,0,0,0,0,0,24,0,0,0,0,0,0,0,0,0,0,0,0,0,0
BE,Belgium,country,Europe and Central Asia,50.503887,4.469936,KR,"Korea, Rep.",country,East Asia and Pacific,35.907757,127.766922,8930.73904524196,1991,4248,532,0,64,0,0,0,12,22,867,0,110,624,558,682,0,0,0,777,0,0,0,0,0
BZ,Belize,country,Latin America and the Caribbean,17.189877,-88.49765,KR,"Korea, Rep.",country,East Asia and Pacific,35.907757,127.766922,12999.8993683672,1991,2,0,0,0,0,0,0,0,0,2,0,0,0,0,0,0,0,0,0,0,0,0,0,0
BO,Bolivia,country,Latin America and the Caribbean,-16.290154,-63.588653,KR,"Korea, Rep.",country,East Asia and Pacific,35.907757,127.766922,17580.8517309442,1991,14,0,0,0,0,0,0,0,0,4,0,0,0,0,0,0,0,0,0,10,0,0,0,0
BW,Botswana,country,Sub-Saharan Africa,-22.328474,24.684866,KR,"Korea, Rep.",country,East Asia and Pacific,35.907757,127.766922,12590.6686464015,1991,1,0,0,0,0,0,0,0,0,1,0,0,0,0,0,0,0,0,0,0,0,0,0,0
BR,Brazil,country,Latin America and the Caribbean,-14.235004,-51.92528,KR,"Korea, Rep.",country,East Asia and Pacific,35.907757,127.766922,17624.7128699818,1991,65299,0,0,0,0,0,0,0,32325,2421,0,0,11049,138,19361,5,0,0,0,0,0,0,0,0
BG,Bulgaria,country,Europe and Central Asia,42.733883,25.48583,KR,"Korea, Rep.",country,East Asia and Pacific,35.907757,127.766922,8265.49286526044,1991,1365,0,0,0,0,0,0,0,0,4,9,0,0,1244,0,0,0,0,108,0,0,0,0,0
BI,Burundi,country,Sub-Saharan Africa,-3.373056,29.918886,KR,"Korea, Rep.",country,East Asia and Pacific,35.907757,127.766922,10946.2913841224,1991,0,0,0,0,0,0,0,0,0,0,0,0,0,0,0,0,0,0,0,0,0,0,0,0
CM,Cameroon,country,Sub-Saharan Africa,7.369722,12.354722,KR,"Korea, Rep.",country,East Asia and Pacific,35.907757,127.766922,11759.0268935405,1991,1829,0,0,0,0,0,0,0,14,200,0,0,1615,0,0,0,0,0,0,0,0,0,0,0
CA,Canada,country,North America,56.130366,-106.346771,KR,"Korea, Rep.",country,East Asia and Pacific,35.907757,127.766922,8588.54488503841,1991,1343762,1216826,0,585,0,0,20218,82,0,0,0,99201,541,540,3930,209,29,794,836,0,0,0,0,0
CL,Chile,country,Latin America and the Caribbean,-35.675147,-71.542969,KR,"Korea, Rep.",country,East Asia and Pacific,35.907757,127.766922,18296.5373281959,1991,1078,4,0,23,0,0,0,726,290,0,2,0,16,17,0,0,0,0,0,0,0,0,0,0
HK,Hong Kong,country,East Asia and Pacific,22.396428,114.109497,KR,"Korea, Rep.",country,East Asia and Pacific,35.907757,127.766922,2001.83242604701,1991,13684,9,0,6,0,50,11108,138,334,407,118,0,666,830,16,2,0,0,0,0,0,0,0,0
TW,Taiwan,country,East Asia and Pacific,23.69781,120.960515,KR,"Korea, Rep.",country,East Asia and Pacific,35.907757,127.766922,1508.75191708322,1991,74360,13710,0,23,101,10,0,6991,17223,4829,9,11823,75,394,3552,813,23,14791,16,0,0,0,0,0
CO,Colombia,country,Latin America and the Caribbean,4.570868,-74.297333,KR,"Korea, Rep.",country,East Asia and Pacific,35.907757,127.766922,14977.9154430745,1991,7032,0,0,37,0,0,0,0,0,25,0,0,6964,6,0,0,0,0,0,0,0,0,0,0
KM,Comoros,country,Sub-Saharan Africa,-11.875001,43.872219,KR,"Korea, Rep.",country,East Asia and Pacific,35.907757,127.766922,10250.8668258639,1991,0,0,0,0,0,0,0,0,0,0,0,0,0,0,0,0,0,0,0,0,0,0,0,0
CG,"Congo, Rep.",country,Sub-Saharan Africa,-0.228021,15.827659,KR,"Korea, Rep.",country,East Asia and Pacific,35.907757,127.766922,11995.2662820077,1991,23,0,0,0,0,0,0,23,0,0,0,0,0,0,0,0,0,0,0,0,0,0,0,0
CR,Costa Rica,country,Latin America and the Caribbean,9.748917,-83.753428,KR,"Korea, Rep.",country,East Asia and Pacific,35.907757,127.766922,13974.3011712383,1991,2384,21,0,0,0,0,0,0,37,1016,9,423,863,0,0,0,0,15,0,0,0,0,0,0
CI,Ivory Coast,country,Sub-Saharan Africa,7.539989,-5.54708,KR,"Korea, Rep.",country,East Asia and Pacific,35.907757,127.766922,13167.5129026133,1991,7652,0,0,0,0,0,0,0,0,4441,0,0,2344,867,0,0,0,0,0,0,0,0,0,0
CZ,Czech Republic,country,Europe and Central Asia,49.817492,15.472962,KR,"Korea, Rep.",country,East Asia and Pacific,35.907757,127.766922,8408.35974416505,1991,8840,0,0,0,0,0,0,0,0,1,0,0,0,10,0,7,0,0,8822,0,0,0,0,0
CD,"Congo, Dem. Rep.",country,Sub-Saharan Africa,-4.038333,21.758664,KR,"Korea, Rep.",country,East Asia and Pacific,35.907757,127.766922,11723.5476850199,1991,891,0,0,0,0,0,0,0,0,0,0,0,891,0,0,0,0,0,0,0,0,0,0,0
DK,Denmark,country,Europe and Central Asia,56.26392,9.501785,KR,"Korea, Rep.",country,East Asia and Pacific,35.907757,127.766922,8243.83214444068,1991,239003,233327,0,215,83,0,0,0,160,0,0,33,37,254,6,0,5,4886,2,0,0,0,0,0
EC,Ecuador,country,Latin America and the Caribbean,-1.831239,-78.183406,KR,"Korea, Rep.",country,East Asia and Pacific,35.907757,127.766922,15395.7550570029,1991,151363,0,0,0,0,0,0,0,150990,3,0,0,370,0,0,0,0,0,0,0,0,0,0,0
EG,Egypt,country,Middle East and North Africa,26.820553,30.802498,KR,"Korea, Rep.",country,East Asia and Pacific,35.907757,127.766922,8884.0127742979,1991,1444,0,0,0,0,0,0,0,0,1444,0,0,0,0,0,0,0,0,0,0,0,0,0,0
ET,Ethiopia,country,Sub-Saharan Africa,9.145,40.489673,KR,"Korea, Rep.",country,East Asia and Pacific,35.907757,127.766922,9179.53394066104,1991,348,0,0,0,0,0,0,0,0,0,0,0,348,0,0,0,0,0,0,0,0,0,0,0
FI,Finland,country,Europe and Central Asia,61.92411,25.748151,KR,"Korea, Rep.",country,East Asia and Pacific,35.907757,127.766922,7126.44654766025,1991,904,0,0,276,0,0,0,0,0,0,0,0,598,0,14,0,0,16,0,0,0,0,0,0
FR,France,country,Europe and Central Asia,46.227638,2.213749,KR,"Korea, Rep.",country,East Asia and Pacific,35.907757,127.766922,9394.69177218069,1991,45471,35896,0,275,0,0,0,15,54,544,2,28,894,164,420,628,64,3475,2940,136,0,0,0,0
DE,Germany,country,Europe and Central Asia,51.165691,10.451526,KR,"Korea, Rep.",country,East Asia and Pacific,35.907757,127.766922,8579.28719051068,1991,63131,50066,0,943,0,7,0,10,47,142,3,82,480,577,7477,1165,64,59,2073,0,0,0,0,0
GH,Ghana,country,Sub-Saharan Africa,7.946527,-1.023194,KR,"Korea, Rep.",country,East Asia and Pacific,35.907757,127.766922,12793.6180297067,1991,2770,0,0,0,0,0,0,0,0,0,0,0,2770,0,0,0,0,0,0,0,0,0,0,0
GI,Gibraltar,country,Europe and Central Asia,36.137741,-5.345374,KR,"Korea, Rep.",country,East Asia and Pacific,35.907757,127.766922,10665.2326297798,1991,200,0,0,0,0,0,0,0,0,200,0,0,0,0,0,0,0,0,0,0,0,0,0,0
GR,Greece,country,Europe and Central Asia,39.074208,21.824312,KR,"Korea, Rep.",country,East Asia and Pacific,35.907757,127.766922,8754.24659352061,1991,1180,0,0,0,0,0,0,0,168,8,0,0,0,1004,0,0,0,0,0,0,0,0,0,0
GP,Guadeloupe,country,Latin America and the Caribbean,16.995971,-62.067641,KR,"Korea, Rep.",country,East Asia and Pacific,35.907757,127.766922,14057.7555601897,1991,1,0,0,0,0,0,0,0,0,1,0,0,0,0,0,0,0,0,0,0,0,0,0,0
GT,Guatemala,country,Latin America and the Caribbean,15.783471,-90.230759,KR,"Korea, Rep.",country,East Asia and Pacific,35.907757,127.766922,13029.3824173447,1991,474,0,0,0,0,0,0,0,0,0,0,0,474,0,0,0,0,0,0,0,0,0,0,0
GN,Guinea,country,Sub-Saharan Africa,9.945587,-9.696645,KR,"Korea, Rep.",country,East Asia and Pacific,35.907757,127.766922,13259.7684462802,1991,120,0,0,0,0,0,0,0,0,120,0,0,0,0,0,0,0,0,0,0,0,0,0,0
HN,Honduras,country,Latin America and the Caribbean,15.199999,-86.241905,KR,"Korea, Rep.",country,East Asia and Pacific,35.907757,127.766922,13315.4224778278,1991,7444,0,0,0,0,0,0,0,0,0,0,0,7444,0,0,0,0,0,0,0,0,0,0,0
HU,Hungary,country,Europe and Central Asia,47.162494,19.503304,KR,"Korea, Rep.",country,East Asia and Pacific,35.907757,127.766922,8357.85838832278,1991,1422,0,0,0,0,0,0,221,274,0,0,0,0,0,24,12,6,91,800,0,0,0,0,0
IS,Iceland,country,Europe and Central Asia,64.963051,-19.020835,KR,"Korea, Rep.",country,East Asia and Pacific,35.907757,127.766922,8442.74429225162,1991,5,0,0,0,0,0,0,0,0,0,0,0,0,0,0,0,0,5,0,0,0,0,0,0
IN,India,country,South Asia,20.593684,78.96288,KR,"Korea, Rep.",country,East Asia and Pacific,35.907757,127.766922,5022.33087513342,1991,376314,5102,5955,0,0,65,6139,0,16,19452,386,338208,0,829,162,0,0,0,0,0,0,0,0,0
ID,Indonesia,country,East Asia and Pacific,-0.789275,113.921327,KR,"Korea, Rep.",country,East Asia and Pacific,35.907757,127.766922,4330.00778247741,1991,353546,6,1386,146165,0,38,0,70,2227,644,934,141800,13759,40813,5684,0,4,20,0,0,0,0,0,0
IR,Iran,country,Middle East and North Africa,32.427908,53.688046,KR,"Korea, Rep.",country,East Asia and Pacific,35.907757,127.766922,6664.19452413698,1991,484,0,0,0,0,189,0,0,0,0,53,0,0,0,0,0,0,0,0,242,0,0,0,0
IE,Ireland,country,Europe and Central Asia,53.41291,-8.24389,KR,"Korea, Rep.",country,East Asia and Pacific,35.907757,127.766922,9228.55210982868,1991,1646,0,0,0,0,0,0,0,0,0,0,0,0,417,0,94,0,0,1000,135,0,0,0,0
IT,Italy,country,Europe and Central Asia,41.87194,12.56738,KR,"Korea, Rep.",country,East Asia and Pacific,35.907757,127.766922,9157.24139625824,1991,2790,2434,0,18,0,0,0,3,0,0,0,41,13,22,107,130,0,22,0,0,0,0,0,0
