sourceCode,sourceName,sourceGrouping,sourceRegion,sourceLat,sourceLong,destCode,destName,destGrouping,destRegion,destLat,destLong,distance,year,totalTons,cereals,roots,sugarCrops,pulses,nuts,oilCrops,vegetables,fruits,fibers,spices,fodderCrops,coffeeTea,tobaccoRubber,oilsFats,beverages,livestock,animalMeats,animalProducts,animalHides,nimalOther,pesticides,fertilizers,machinery
AL,Albania,country,Europe and Central Asia,41.153332,20.168331,CI,Ivory Coast,country,Sub-Saharan Africa,7.539989,-5.54708,4523.5509826958,1997,0,0,0,0,0,0,0,0,0,0,0,0,0,0,0,0,0,0,0,0,0,0,0,0
DZ,Algeria,country,Middle East and North Africa,28.033886,1.659626,CI,Ivory Coast,country,Sub-Saharan Africa,7.539989,-5.54708,2404.15056160486,1997,4,0,0,0,0,0,0,0,4,0,0,0,0,0,0,0,0,0,0,0,0,0,0,0
AR,Argentina,country,Latin America and the Caribbean,-38.416097,-63.616672,CI,Ivory Coast,country,Sub-Saharan Africa,7.539989,-5.54708,7878.65092120982,1997,248,172,0,0,1,0,0,4,9,0,0,0,0,25,0,0,0,37,0,0,0,0,0,0
AU,Australia,country,East Asia and Pacific,-25.274398,133.775136,CI,Ivory Coast,country,Sub-Saharan Africa,7.539989,-5.54708,15293.2880322565,1997,111,0,0,0,0,0,0,0,3,0,0,0,0,0,0,0,0,108,0,0,0,0,0,0
AT,Austria,country,Europe and Central Asia,47.516231,14.550072,CI,Ivory Coast,country,Sub-Saharan Africa,7.539989,-5.54708,4840.83133195022,1997,197,0,0,0,0,0,0,0,0,0,0,0,0,0,0,0,0,197,0,0,0,0,0,0
BD,Bangladesh,country,South Asia,23.684994,90.356331,CI,Ivory Coast,country,Sub-Saharan Africa,7.539989,-5.54708,10278.1771094849,1997,23681,0,0,0,0,0,0,0,0,23681,0,0,0,0,0,0,0,0,0,0,0,0,0,0
BE,Belgium,country,Europe and Central Asia,50.503887,4.469936,CI,Ivory Coast,country,Sub-Saharan Africa,7.539989,-5.54708,4872.00148170953,1997,9592,1671,360,2599,0,0,0,350,21,0,0,974,10,268,2149,126,80,435,629,0,0,0,0,0
BJ,Benin,country,Sub-Saharan Africa,9.30769,2.315834,CI,Ivory Coast,country,Sub-Saharan Africa,7.539989,-5.54708,887.881706377971,1997,9,0,0,9,0,0,0,0,0,0,0,0,0,0,0,0,0,0,0,0,0,0,0,0
BR,Brazil,country,Latin America and the Caribbean,-14.235004,-51.92528,CI,Ivory Coast,country,Sub-Saharan Africa,7.539989,-5.54708,5666.26308155989,1997,431,0,0,12,0,0,0,0,7,0,3,3,0,222,78,0,0,0,106,0,0,0,0,0
BG,Bulgaria,country,Europe and Central Asia,42.733883,25.48583,CI,Ivory Coast,country,Sub-Saharan Africa,7.539989,-5.54708,4956.1288019931,1997,19,0,0,19,0,0,0,0,0,0,0,0,0,0,0,0,0,0,0,0,0,0,0,0
BF,Burkina Faso,country,Sub-Saharan Africa,12.238333,-1.561593,CI,Ivory Coast,country,Sub-Saharan Africa,7.539989,-5.54708,681.511893943706,1997,75,1,0,0,0,0,0,0,0,5,0,63,0,3,0,0,0,3,0,0,0,0,0,0
CM,Cameroon,country,Sub-Saharan Africa,7.369722,12.354722,CI,Ivory Coast,country,Sub-Saharan Africa,7.539989,-5.54708,1975.92850794525,1997,53,0,0,10,0,0,0,10,6,0,0,0,16,0,0,0,43,0,11,0,0,0,0,0
CA,Canada,country,North America,56.130366,-106.346771,CI,Ivory Coast,country,Sub-Saharan Africa,7.539989,-5.54708,9984.12882348189,1997,794,3,0,1,10,0,0,18,27,0,0,0,3,6,470,1,0,255,0,0,0,0,0,0
CL,Chile,country,Latin America and the Caribbean,-35.675147,-71.542969,CI,Ivory Coast,country,Sub-Saharan Africa,7.539989,-5.54708,8400.02260494521,1997,22,0,0,0,0,0,0,0,22,0,0,0,0,0,0,0,0,0,0,0,0,0,0,0
HK,Hong Kong,country,East Asia and Pacific,22.396428,114.109497,CI,Ivory Coast,country,Sub-Saharan Africa,7.539989,-5.54708,12668.0234094945,1997,5,3,0,0,0,0,0,0,0,0,0,0,0,2,0,0,0,0,0,0,0,0,0,0
CN,China,country,East Asia and Pacific,35.86166,104.195397,CI,Ivory Coast,country,Sub-Saharan Africa,7.539989,-5.54708,11267.3923795811,1997,888,9,0,0,5,0,15,296,5,0,0,1,451,103,1,2,0,0,0,0,0,0,0,0
TW,Taiwan,country,East Asia and Pacific,23.69781,120.960515,CI,Ivory Coast,country,Sub-Saharan Africa,7.539989,-5.54708,13265.3054609692,1997,15,1,0,0,0,0,1,1,9,0,1,0,0,0,2,0,0,0,0,0,0,0,0,0
CO,Colombia,country,Latin America and the Caribbean,4.570868,-74.297333,CI,Ivory Coast,country,Sub-Saharan Africa,7.539989,-5.54708,7610.89219629069,1997,15,0,0,12,0,0,0,0,0,0,0,0,0,3,0,0,0,0,0,0,0,0,0,0
CR,Costa Rica,country,Latin America and the Caribbean,9.748917,-83.753428,CI,Ivory Coast,country,Sub-Saharan Africa,7.539989,-5.54708,8591.4761925189,1997,2,0,0,0,0,0,0,0,2,0,0,0,0,0,0,0,0,0,0,0,0,0,0,0
CU,Cuba,country,Latin America and the Caribbean,21.521757,-77.781167,CI,Ivory Coast,country,Sub-Saharan Africa,7.539989,-5.54708,7876.88297437434,1997,2,0,0,0,0,0,0,0,0,0,0,0,0,1,0,1,0,0,0,0,0,0,0,0
CY,Cyprus,country,Europe and Central Asia,35.126413,33.429859,CI,Ivory Coast,country,Sub-Saharan Africa,7.539989,-5.54708,5020.92149742369,1997,7,0,0,0,0,0,0,2,5,0,0,0,0,0,0,0,0,0,0,0,0,0,0,0
CZ,Czech Republic,country,Europe and Central Asia,49.817492,15.472962,CI,Ivory Coast,country,Sub-Saharan Africa,7.539989,-5.54708,5096.96468478398,1997,6,0,0,0,0,0,0,0,0,0,0,0,0,0,0,0,0,0,6,0,0,0,0,0
DK,Denmark,country,Europe and Central Asia,56.26392,9.501785,CI,Ivory Coast,country,Sub-Saharan Africa,7.539989,-5.54708,5582.45558634852,1997,1221,34,0,2,0,0,0,0,1,0,1,0,0,67,258,49,0,405,404,0,0,0,0,0
DM,Dominica,country,Latin America and the Caribbean,15.414999,-61.370976,CI,Ivory Coast,country,Sub-Saharan Africa,7.539989,-5.54708,6136.96172872149,1997,0,0,0,0,0,0,0,0,0,0,0,0,0,0,0,0,0,0,0,0,0,0,0,0
DO,Dominican Republic,country,Latin America and the Caribbean,18.735693,-70.162651,CI,Ivory Coast,country,Sub-Saharan Africa,7.539989,-5.54708,7080.09227745668,1997,1,0,0,0,0,0,0,0,0,0,0,0,0,1,0,0,0,0,0,0,0,0,0,0
EC,Ecuador,country,Latin America and the Caribbean,-1.831239,-78.183406,CI,Ivory Coast,country,Sub-Saharan Africa,7.539989,-5.54708,8132.06222114685,1997,32,0,0,0,0,0,0,0,1,0,0,0,0,31,0,0,0,0,0,0,0,0,0,0
EG,Egypt,country,Middle East and North Africa,26.820553,30.802498,CI,Ivory Coast,country,Sub-Saharan Africa,7.539989,-5.54708,4395.73378933376,1997,166,0,100,31,0,0,0,8,26,0,0,0,1,0,0,0,0,0,0,0,0,0,0,0
ET,Ethiopia,country,Sub-Saharan Africa,9.145,40.489673,CI,Ivory Coast,country,Sub-Saharan Africa,7.539989,-5.54708,5070.46530687454,1997,24,0,0,0,0,0,0,0,0,0,0,0,24,0,0,0,0,0,0,0,0,0,0,0
FI,Finland,country,Europe and Central Asia,61.92411,25.748151,CI,Ivory Coast,country,Sub-Saharan Africa,7.539989,-5.54708,6572.12716500708,1997,10,0,0,0,0,0,0,0,0,0,0,0,0,0,0,0,0,0,10,0,0,0,0,0
FR,France,country,Europe and Central Asia,46.227638,2.213749,CI,Ivory Coast,country,Sub-Saharan Africa,7.539989,-5.54708,4370.39126855878,1997,284120,232925,2101,7225,55,21,211,3581,2849,1,9,959,172,18133,690,3515,286,2747,8926,0,0,0,0,0
GA,Gabon,country,Sub-Saharan Africa,-0.803689,11.609444,CI,Ivory Coast,country,Sub-Saharan Africa,7.539989,-5.54708,2119.21111851454,1997,0,0,0,0,0,0,0,0,0,0,0,0,0,0,0,0,0,0,0,0,0,0,0,0
GM,The Gambia,country,Sub-Saharan Africa,13.443182,-15.310139,CI,Ivory Coast,country,Sub-Saharan Africa,7.539989,-5.54708,1254.04832662711,1997,3,0,0,0,0,0,0,0,0,0,0,0,0,0,3,0,0,0,0,0,0,0,0,0
DE,Germany,country,Europe and Central Asia,51.165691,10.451526,CI,Ivory Coast,country,Sub-Saharan Africa,7.539989,-5.54708,5075.08263597784,1997,24258,14436,50,3364,0,0,0,115,6,0,0,1,5,190,271,46,0,96,5678,0,0,0,0,0
GH,Ghana,country,Sub-Saharan Africa,7.946527,-1.023194,CI,Ivory Coast,country,Sub-Saharan Africa,7.539989,-5.54708,501.049276283363,1997,15,15,0,0,0,0,0,0,0,0,0,0,0,0,0,0,0,0,0,0,0,0,0,0
GR,Greece,country,Europe and Central Asia,39.074208,21.824312,CI,Ivory Coast,country,Sub-Saharan Africa,7.539989,-5.54708,4451.57879750711,1997,131,0,0,0,0,0,0,53,10,0,0,0,57,11,0,0,0,0,0,0,0,0,0,0
GT,Guatemala,country,Latin America and the Caribbean,15.783471,-90.230759,CI,Ivory Coast,country,Sub-Saharan Africa,7.539989,-5.54708,9225.29983904773,1997,26000,0,0,26000,0,0,0,0,0,0,0,0,0,0,0,0,0,0,0,0,0,0,0,0
GN,Guinea,country,Sub-Saharan Africa,9.945587,-9.696645,CI,Ivory Coast,country,Sub-Saharan Africa,7.539989,-5.54708,529.267168854545,1997,1586,0,0,0,0,0,0,0,0,0,0,0,0,1586,0,0,0,0,0,0,0,0,0,0
HN,Honduras,country,Latin America and the Caribbean,15.199999,-86.241905,CI,Ivory Coast,country,Sub-Saharan Africa,7.539989,-5.54708,8805.39944731665,1997,0,0,0,0,0,0,0,0,0,0,0,0,0,0,0,0,0,0,0,0,0,0,0,0
HU,Hungary,country,Europe and Central Asia,47.162494,19.503304,CI,Ivory Coast,country,Sub-Saharan Africa,7.539989,-5.54708,5011.60681989734,1997,120,0,0,0,0,0,0,120,0,0,0,0,0,0,0,0,0,0,0,0,0,0,0,0
IS,Iceland,country,Europe and Central Asia,64.963051,-19.020835,CI,Ivory Coast,country,Sub-Saharan Africa,7.539989,-5.54708,6479.32977607717,1997,0,0,0,0,0,0,0,0,0,0,0,0,0,0,0,0,0,0,0,0,0,0,0,0
IN,India,country,South Asia,20.593684,78.96288,CI,Ivory Coast,country,Sub-Saharan Africa,7.539989,-5.54708,9155.46018044623,1997,8925,8405,0,24,0,0,0,6,0,0,2,0,2,1,0,0,0,485,0,0,0,0,0,0
ID,Indonesia,country,East Asia and Pacific,-0.789275,113.921327,CI,Ivory Coast,country,Sub-Saharan Africa,7.539989,-5.54708,13280.9184302216,1997,22,6,0,0,0,0,1,0,2,0,1,0,0,12,0,0,0,0,0,0,0,0,0,0
IR,Iran,country,Middle East and North Africa,32.427908,53.688046,CI,Ivory Coast,country,Sub-Saharan Africa,7.539989,-5.54708,6691.05852974488,1997,0,0,0,0,0,0,0,0,0,0,0,0,0,0,0,0,0,0,0,0,0,0,0,0
IE,Ireland,country,Europe and Central Asia,53.41291,-8.24389,CI,Ivory Coast,country,Sub-Saharan Africa,7.539989,-5.54708,5112.36256389571,1997,799,2,0,0,0,0,0,0,0,0,0,0,0,0,0,5,0,0,792,0,0,0,0,0
IL,Israel,country,Middle East and North Africa,31.046051,34.851612,CI,Ivory Coast,country,Sub-Saharan Africa,7.539989,-5.54708,4942.38956276781,1997,35,0,2,0,0,0,0,21,8,0,0,0,0,4,0,0,0,0,0,0,0,0,0,0
IT,Italy,country,Europe and Central Asia,41.87194,12.56738,CI,Ivory Coast,country,Sub-Saharan Africa,7.539989,-5.54708,4217.8390123033,1997,15448,5159,0,3,0,0,0,6769,78,0,0,14,16,2731,103,101,0,467,7,0,0,0,0,0
JM,Jamaica,country,Latin America and the Caribbean,18.109581,-77.297508,CI,Ivory Coast,country,Sub-Saharan Africa,7.539989,-5.54708,7834.14178585357,1997,0,0,0,0,0,0,0,0,0,0,0,0,0,0,0,0,0,0,0,0,0,0,0,0
JP,Japan,country,East Asia and Pacific,36.204824,138.252924,CI,Ivory Coast,country,Sub-Saharan Africa,7.539989,-5.54708,13871.6786958923,1997,7,3,0,1,0,0,0,0,0,0,0,0,0,3,0,0,0,0,0,0,0,0,0,0
JO,Jordan,country,Middle East and North Africa,30.585164,36.238414,CI,Ivory Coast,country,Sub-Saharan Africa,7.539989,-5.54708,5045.21946082715,1997,10,0,0,0,0,0,0,0,0,0,0,0,0,10,0,0,0,0,0,0,0,0,0,0
KE,Kenya,country,Sub-Saharan Africa,-0.023559,37.906193,CI,Ivory Coast,country,Sub-Saharan Africa,7.539989,-5.54708,4895.62480993882,1997,80,0,0,0,0,0,0,0,0,0,0,0,79,0,0,0,0,1,0,0,0,0,0,0
LB,Lebanon,country,Middle East and North Africa,33.854721,35.862285,CI,Ivory Coast,country,Sub-Saharan Africa,7.539989,-5.54708,5156.96399699335,1997,486,24,1,12,50,15,15,47,162,0,20,0,9,62,17,20,0,2,30,0,0,0,0,0
MG,Madagascar,country,Sub-Saharan Africa,-18.766947,46.869107,CI,Ivory Coast,country,Sub-Saharan Africa,7.539989,-5.54708,6453.77103563836,1997,11,0,0,0,0,0,0,0,0,0,2,0,0,9,0,0,0,0,0,0,0,0,0,0
MW,Malawi,country,Sub-Saharan Africa,-13.254308,34.301525,CI,Ivory Coast,country,Sub-Saharan Africa,7.539989,-5.54708,4976.49408716976,1997,28,0,0,0,0,0,0,0,0,0,0,0,0,28,0,0,0,0,0,0,0,0,0,0
MY,Malaysia,country,East Asia and Pacific,4.210484,101.975766,CI,Ivory Coast,country,Sub-Saharan Africa,7.539989,-5.54708,11882.3348684421,1997,16405,12,0,0,0,0,0,10,0,0,0,0,0,0,16109,0,0,0,274,0,0,0,0,0
ML,Mali,country,Sub-Saharan Africa,17.570692,-3.996166,CI,Ivory Coast,country,Sub-Saharan Africa,7.539989,-5.54708,1129.22052772098,1997,43298,3856,1364,0,14,0,34436,2714,194,639,67,0,0,13,0,0,0,0,0,1,0,0,0,0
MT,Malta,country,Middle East and North Africa,35.937496,14.375416,CI,Ivory Coast,country,Sub-Saharan Africa,7.539989,-5.54708,3755.14764842571,1997,0,0,0,0,0,0,0,0,0,0,0,0,0,0,0,0,0,0,0,0,0,0,0,0
MR,Mauritania,country,Sub-Saharan Africa,21.00789,-10.940835,CI,Ivory Coast,country,Sub-Saharan Africa,7.539989,-5.54708,1607.61941043661,1997,0,0,0,0,0,0,0,0,0,0,0,0,0,0,0,0,0,0,0,0,0,0,0,0
MU,Mauritius,country,Sub-Saharan Africa,-20.348404,57.552152,CI,Ivory Coast,country,Sub-Saharan Africa,7.539989,-5.54708,7567.59806227833,1997,0,0,0,0,0,0,0,0,0,0,0,0,0,0,0,0,0,0,0,0,0,0,0,0
MX,Mexico,country,Latin America and the Caribbean,23.634501,-102.552784,CI,Ivory Coast,country,Sub-Saharan Africa,7.539989,-5.54708,10389.9548060867,1997,50,0,0,6,1,0,0,19,0,0,0,0,5,0,0,19,0,0,0,0,0,0,0,0
MA,Morocco,country,Middle East and North Africa,31.791702,-7.09262,CI,Ivory Coast,country,Sub-Saharan Africa,7.539989,-5.54708,2704.44444978598,1997,661,0,1,23,0,0,59,57,187,0,0,0,0,10,0,233,0,0,91,0,0,0,0,0
NL,Netherlands,country,Europe and Central Asia,52.132633,5.291266,CI,Ivory Coast,country,Sub-Saharan Africa,7.539989,-5.54708,5061.89043335153,1997,43949,169,10979,224,0,0,0,21132,22,0,1,30,7,405,474,238,51,370,9898,0,0,0,0,0
NZ,New Zealand,country,East Asia and Pacific,-40.900557,174.885971,CI,Ivory Coast,country,Sub-Saharan Africa,7.539989,-5.54708,16323.5786695911,1997,153,0,0,0,0,0,0,0,5,0,0,0,0,0,0,1,0,19,128,0,0,0,0,0
NE,Niger,country,Sub-Saharan Africa,17.607789,8.081666,CI,Ivory Coast,country,Sub-Saharan Africa,7.539989,-5.54708,1855.18700208386,1997,9,0,0,0,0,0,0,0,0,0,0,0,0,9,0,0,0,0,0,0,0,0,0,0
NG,Nigeria,country,Sub-Saharan Africa,9.081999,8.675277,CI,Ivory Coast,country,Sub-Saharan Africa,7.539989,-5.54708,1575.84080612645,1997,12,12,0,0,0,0,0,0,0,0,0,0,0,0,0,0,0,0,0,0,0,0,0,0
NO,Norway,country,Europe and Central Asia,60.472024,8.468946,CI,Ivory Coast,country,Sub-Saharan Africa,7.539989,-5.54708,6007.85790339122,1997,11,0,0,0,0,0,0,0,0,0,0,0,0,0,0,0,0,0,11,0,0,0,0,0
OM,Oman,country,Middle East and North Africa,21.512583,55.923255,CI,Ivory Coast,country,Sub-Saharan Africa,7.539989,-5.54708,6762.6816384374,1997,41,41,0,0,0,0,0,0,0,0,0,0,0,0,0,0,0,0,0,0,0,0,0,0
PK,Pakistan,country,South Asia,30.375321,69.345116,CI,Ivory Coast,country,Sub-Saharan Africa,7.539989,-5.54708,8147.02149733683,1997,20,12,0,7,0,0,0,0,0,0,0,0,0,0,0,1,0,0,0,0,0,0,0,0
PA,Panama,country,Latin America and the Caribbean,8.537981,-80.782127,CI,Ivory Coast,country,Sub-Saharan Africa,7.539989,-5.54708,8279.44004557867,1997,569,0,0,0,0,0,0,0,0,0,0,0,0,569,0,0,0,0,0,0,0,0,0,0
PY,Paraguay,country,Latin America and the Caribbean,-23.442503,-58.443832,CI,Ivory Coast,country,Sub-Saharan Africa,7.539989,-5.54708,6705.11682330958,1997,11,0,0,0,0,0,0,0,0,0,0,0,0,11,0,0,0,0,0,0,0,0,0,0
PE,Peru,country,Latin America and the Caribbean,-9.189967,-75.015152,CI,Ivory Coast,country,Sub-Saharan Africa,7.539989,-5.54708,7925.87066611809,1997,2,0,0,0,0,0,0,2,0,0,0,0,0,0,0,0,0,0,0,0,0,0,0,0
PH,Philippines,country,East Asia and Pacific,12.879721,121.774017,CI,Ivory Coast,country,Sub-Saharan Africa,7.539989,-5.54708,13784.2102093304,1997,2,0,0,0,0,0,2,0,0,0,0,0,0,0,0,0,0,0,0,0,0,0,0,0
PL,Poland,country,Europe and Central Asia,51.919438,19.145136,CI,Ivory Coast,country,Sub-Saharan Africa,7.539989,-5.54708,5431.31074290287,1997,1,0,0,0,0,0,0,0,1,0,0,0,0,0,0,0,0,0,0,0,0,0,0,0
PT,Portugal,country,Europe and Central Asia,39.399872,-8.224454,CI,Ivory Coast,country,Sub-Saharan Africa,7.539989,-5.54708,3556.71752979477,1997,6,0,0,0,0,0,0,0,1,0,0,0,0,3,0,2,0,0,0,0,0,0,0,0
KR,"Korea, Rep.",country,East Asia and Pacific,35.907757,127.766922,CI,Ivory Coast,country,Sub-Saharan Africa,7.539989,-5.54708,13167.5129026133,1997,19,0,0,0,0,0,0,0,0,0,0,0,0,19,0,0,0,0,0,0,0,0,0,0
RO,Romania,country,Europe and Central Asia,45.943161,24.96676,CI,Ivory Coast,country,Sub-Saharan Africa,7.539989,-5.54708,5177.82666988724,1997,0,0,0,0,0,0,0,0,0,0,0,0,0,0,0,0,0,0,0,0,0,0,0,0
RU,Russian Federation,country,Europe and Central Asia,61.52401,105.318756,CI,Ivory Coast,country,Sub-Saharan Africa,7.539989,-5.54708,10357.0324916913,1997,3,0,0,0,0,0,0,0,0,0,0,3,0,0,0,0,0,0,0,0,0,0,0,0
SA,Saudi Arabia,country,Middle East and North Africa,23.885942,45.079162,CI,Ivory Coast,country,Sub-Saharan Africa,7.539989,-5.54708,5686.79999469402,1997,1,0,0,0,0,0,0,0,1,0,0,0,0,0,0,0,0,0,0,0,0,0,0,0
SN,Senegal,country,Sub-Saharan Africa,14.497401,-14.452362,CI,Ivory Coast,country,Sub-Saharan Africa,7.539989,-5.54708,1243.10698857908,1997,286,15,55,16,0,0,0,13,11,0,30,0,0,11,2,1,4,0,132,0,0,0,0,0
RS,Serbia,country,Europe and Central Asia,44.016521,21.005859,CI,Ivory Coast,country,Sub-Saharan Africa,7.539989,-5.54708,4809.61628628367,1997,1,0,0,0,0,0,0,0,1,0,0,0,0,0,0,0,0,0,0,0,0,0,0,0
SG,Singapore,country,East Asia and Pacific,1.352083,103.819836,CI,Ivory Coast,country,Sub-Saharan Africa,7.539989,-5.54708,12133.7786075691,1997,51,0,0,0,0,0,0,0,0,0,0,0,0,4,13,34,0,0,0,0,0,0,0,0
ZA,S. Africa,country,Sub-Saharan Africa,-30.559482,22.937506,CI,Ivory Coast,country,Sub-Saharan Africa,7.539989,-5.54708,5218.01866045703,1997,5013,3911,1,23,0,0,0,43,799,0,2,2,6,125,0,23,49,15,63,0,0,0,0,0
ES,Spain,country,Europe and Central Asia,40.463667,-3.74922,CI,Ivory Coast,country,Sub-Saharan Africa,7.539989,-5.54708,3669.4017707212,1997,29404,61,0,252,0,13,5,431,209,2,2,0,98,5759,31,22161,0,128,252,0,0,0,0,0
LK,Sri Lanka,country,South Asia,7.873054,80.771797,CI,Ivory Coast,country,Sub-Saharan Africa,7.539989,-5.54708,9501.41429580975,1997,15,0,0,0,0,0,1,0,0,0,0,0,14,0,0,0,0,0,0,0,0,0,0,0
SE,Sweden,country,Europe and Central Asia,60.128161,18.643501,CI,Ivory Coast,country,Sub-Saharan Africa,7.539989,-5.54708,6195.43019688633,1997,42,1,0,0,0,0,0,0,0,0,0,0,0,0,0,0,0,25,16,0,0,0,0,0
CH,Switzerland,country,Europe and Central Asia,46.818188,8.227512,CI,Ivory Coast,country,Sub-Saharan Africa,7.539989,-5.54708,4565.45223271555,1997,81,0,0,0,0,0,0,0,0,0,0,0,0,64,16,0,7,0,1,0,0,0,0,0
SY,Syrian Arab Rep.,country,Middle East and North Africa,34.802075,38.996815,CI,Ivory Coast,country,Sub-Saharan Africa,7.539989,-5.54708,5463.08551987388,1997,2,0,0,0,0,0,2,0,0,0,0,0,0,0,0,0,0,0,0,0,0,0,0,0
TH,Thailand,country,East Asia and Pacific,15.870032,100.992541,CI,Ivory Coast,country,Sub-Saharan Africa,7.539989,-5.54708,11535.5571368882,1997,34344,34326,0,0,0,0,0,1,3,0,0,2,0,11,1,0,0,0,0,0,0,0,0,0
TG,Togo,country,Sub-Saharan Africa,8.619543,0.824782,CI,Ivory Coast,country,Sub-Saharan Africa,7.539989,-5.54708,712.46167154545,1997,14,0,0,0,0,0,0,0,0,14,0,0,0,0,0,0,0,0,0,0,0,0,0,0
TN,Tunisia,country,Middle East and North Africa,33.886917,9.537499,CI,Ivory Coast,country,Sub-Saharan Africa,7.539989,-5.54708,3317.31126279574,1997,2398,2040,0,77,0,0,0,26,4,0,0,0,0,251,0,0,0,0,0,0,0,0,0,0
TR,Turkey,country,Europe and Central Asia,38.963745,35.243322,CI,Ivory Coast,country,Sub-Saharan Africa,7.539989,-5.54708,5369.24942622934,1997,1570,19,0,18,5,2,2,1113,23,0,0,0,8,80,300,0,0,0,0,0,0,0,0,0
TC,Turks and Caicos Islands,country,Latin America and the Caribbean,21.694025,-71.797928,CI,Ivory Coast,country,Sub-Saharan Africa,7.539989,-5.54708,7257.8543983835,1997,16,13,0,0,3,0,0,0,0,0,0,0,0,0,0,0,0,0,0,0,0,0,0,0
AE,United Arab Emirates,country,Middle East and North Africa,23.424076,53.847818,CI,Ivory Coast,country,Sub-Saharan Africa,7.539989,-5.54708,6566.01423607969,1997,293,286,0,0,0,0,0,0,0,0,0,0,0,0,0,7,0,0,0,0,0,0,0,0
GB,United Kingdom,country,Europe and Central Asia,55.378051,-3.435973,CI,Ivory Coast,country,Sub-Saharan Africa,7.539989,-5.54708,5328.59738495614,1997,7804,249,248,397,3,0,0,46,0,0,82,27,24,2168,90,384,0,107,3979,0,0,0,0,0
US,USA,country,North America,37.09024,-95.712891,CI,Ivory Coast,country,Sub-Saharan Africa,7.539989,-5.54708,9528.13940497655,1997,59060,54400,0,2,736,4,2,72,14,0,112,1,2,331,7,45,11,3332,0,0,0,0,0,0
UY,Uruguay,country,Latin America and the Caribbean,-32.522779,-55.765835,CI,Ivory Coast,country,Sub-Saharan Africa,7.539989,-5.54708,6939.09508896859,1997,71,0,0,0,0,0,0,0,1,0,0,0,0,0,0,0,0,70,0,0,0,0,0,0
VN,Vietnam,country,East Asia and Pacific,14.058324,108.277199,CI,Ivory Coast,country,Sub-Saharan Africa,7.539989,-5.54708,12344.202614124,1997,56,14,0,0,0,0,0,0,1,0,2,0,0,38,1,0,0,0,0,0,0,0,0,0
ZW,Zimbabwe,country,Sub-Saharan Africa,-19.015438,29.154857,CI,Ivory Coast,country,Sub-Saharan Africa,7.539989,-5.54708,4819.99531215582,1997,20,0,0,0,0,0,0,0,0,0,0,0,0,18,0,0,0,0,2,0,0,0,0,0
AL,Albania,country,Europe and Central Asia,41.153332,20.168331,CI,Ivory Coast,country,Sub-Saharan Africa,7.539989,-5.54708,4523.5509826958,1998,0,0,0,0,0,0,0,0,0,0,0,0,0,0,0,0,0,0,0,0,0,0,0,0
DZ,Algeria,country,Middle East and North Africa,28.033886,1.659626,CI,Ivory Coast,country,Sub-Saharan Africa,7.539989,-5.54708,2404.15056160486,1998,0,0,0,0,0,0,0,0,0,0,0,0,0,0,0,0,0,0,0,0,0,0,0,0
AR,Argentina,country,Latin America and the Caribbean,-38.416097,-63.616672,CI,Ivory Coast,country,Sub-Saharan Africa,7.539989,-5.54708,7878.65092120982,1998,232,125,0,0,1,0,0,69,2,0,0,0,0,32,3,0,0,0,0,0,0,0,0,0
AU,Australia,country,East Asia and Pacific,-25.274398,133.775136,CI,Ivory Coast,country,Sub-Saharan Africa,7.539989,-5.54708,15293.2880322565,1998,1522,602,0,495,0,0,0,0,2,0,0,0,0,1,16,0,0,203,203,0,0,0,0,0
AT,Austria,country,Europe and Central Asia,47.516231,14.550072,CI,Ivory Coast,country,Sub-Saharan Africa,7.539989,-5.54708,4840.83133195022,1998,18,0,0,0,0,0,0,0,0,0,0,0,0,0,0,0,0,18,0,0,0,0,0,0
BD,Bangladesh,country,South Asia,23.684994,90.356331,CI,Ivory Coast,country,Sub-Saharan Africa,7.539989,-5.54708,10278.1771094849,1998,18826,0,0,0,0,0,0,0,0,18826,0,0,0,0,0,0,0,0,0,0,0,0,0,0
BE,Belgium,country,Europe and Central Asia,50.503887,4.469936,CI,Ivory Coast,country,Sub-Saharan Africa,7.539989,-5.54708,4872.00148170953,1998,23160,9909,439,6690,0,0,17,940,42,0,0,1019,27,362,2191,25,168,262,1237,0,0,0,0,0
BR,Brazil,country,Latin America and the Caribbean,-14.235004,-51.92528,CI,Ivory Coast,country,Sub-Saharan Africa,7.539989,-5.54708,5666.26308155989,1998,21429,37,0,15872,0,0,0,1,1,0,2,801,0,447,4098,0,0,67,103,0,0,0,0,0
BG,Bulgaria,country,Europe and Central Asia,42.733883,25.48583,CI,Ivory Coast,country,Sub-Saharan Africa,7.539989,-5.54708,4956.1288019931,1998,132,0,0,131,0,0,0,0,0,0,0,0,0,0,0,0,0,1,0,0,0,0,0,0
BF,Burkina Faso,country,Sub-Saharan Africa,12.238333,-1.561593,CI,Ivory Coast,country,Sub-Saharan Africa,7.539989,-5.54708,681.511893943706,1998,32,0,0,0,0,0,0,0,0,9,0,0,0,0,0,0,0,23,0,0,0,0,0,0
BI,Burundi,country,Sub-Saharan Africa,-3.373056,29.918886,CI,Ivory Coast,country,Sub-Saharan Africa,7.539989,-5.54708,4122.38767608796,1998,0,0,0,0,0,0,0,0,0,0,0,0,0,0,0,0,0,0,0,0,0,0,0,0
CM,Cameroon,country,Sub-Saharan Africa,7.369722,12.354722,CI,Ivory Coast,country,Sub-Saharan Africa,7.539989,-5.54708,1975.92850794525,1998,35,0,0,17,0,0,0,0,0,0,0,0,17,0,0,0,0,0,1,0,0,0,0,0
CA,Canada,country,North America,56.130366,-106.346771,CI,Ivory Coast,country,Sub-Saharan Africa,7.539989,-5.54708,9984.12882348189,1998,8453,8149,0,1,7,0,0,0,35,0,0,0,5,20,1,4,0,231,0,0,0,0,0,0
KY,Cayman Islands,country,Latin America and the Caribbean,19.513469,-80.566956,CI,Ivory Coast,country,Sub-Saharan Africa,7.539989,-5.54708,8173.02674542623,1998,846,0,0,0,0,0,0,0,0,0,0,0,0,846,0,0,0,0,0,0,0,0,0,0
CF,Central African Rep.,country,Sub-Saharan Africa,6.611111,20.939444,CI,Ivory Coast,country,Sub-Saharan Africa,7.539989,-5.54708,2927.40190690961,1998,18,0,0,0,0,0,0,0,0,0,18,0,0,0,0,0,0,0,0,0,0,0,0,0
CL,Chile,country,Latin America and the Caribbean,-35.675147,-71.542969,CI,Ivory Coast,country,Sub-Saharan Africa,7.539989,-5.54708,8400.02260494521,1998,20,0,0,0,0,0,0,0,20,0,0,0,0,0,0,0,0,0,0,0,0,0,0,0
HK,Hong Kong,country,East Asia and Pacific,22.396428,114.109497,CI,Ivory Coast,country,Sub-Saharan Africa,7.539989,-5.54708,12668.0234094945,1998,2,0,0,0,0,0,0,0,0,0,0,0,0,2,0,0,0,0,0,0,0,0,0,0
CN,China,country,East Asia and Pacific,35.86166,104.195397,CI,Ivory Coast,country,Sub-Saharan Africa,7.539989,-5.54708,11267.3923795811,1998,64012,63222,0,1,0,0,6,479,2,1,0,0,227,71,0,3,0,0,0,0,0,0,0,0
TW,Taiwan,country,East Asia and Pacific,23.69781,120.960515,CI,Ivory Coast,country,Sub-Saharan Africa,7.539989,-5.54708,13265.3054609692,1998,9,2,0,0,0,0,1,0,3,0,0,0,0,2,0,1,0,0,0,0,0,0,0,0
CO,Colombia,country,Latin America and the Caribbean,4.570868,-74.297333,CI,Ivory Coast,country,Sub-Saharan Africa,7.539989,-5.54708,7610.89219629069,1998,181,0,0,163,0,0,0,0,0,0,0,0,9,9,0,0,0,0,0,0,0,0,0,0
CG,"Congo, Rep.",country,Sub-Saharan Africa,-0.228021,15.827659,CI,Ivory Coast,country,Sub-Saharan Africa,7.539989,-5.54708,2525.34480215893,1998,6,0,0,0,0,0,0,0,0,0,0,0,0,6,0,0,0,0,0,0,0,0,0,0
CR,Costa Rica,country,Latin America and the Caribbean,9.748917,-83.753428,CI,Ivory Coast,country,Sub-Saharan Africa,7.539989,-5.54708,8591.4761925189,1998,2,0,0,0,0,0,0,0,2,0,0,0,0,0,0,0,0,0,0,0,0,0,0,0
CU,Cuba,country,Latin America and the Caribbean,21.521757,-77.781167,CI,Ivory Coast,country,Sub-Saharan Africa,7.539989,-5.54708,7876.88297437434,1998,2,0,0,0,0,0,0,0,1,0,0,0,0,1,0,0,0,0,0,0,0,0,0,0
CY,Cyprus,country,Europe and Central Asia,35.126413,33.429859,CI,Ivory Coast,country,Sub-Saharan Africa,7.539989,-5.54708,5020.92149742369,1998,15,0,0,0,0,0,0,9,5,0,0,0,0,1,0,0,0,0,0,0,0,0,0,0
CZ,Czech Republic,country,Europe and Central Asia,49.817492,15.472962,CI,Ivory Coast,country,Sub-Saharan Africa,7.539989,-5.54708,5096.96468478398,1998,38,0,23,0,0,0,0,0,0,0,0,0,0,0,0,0,0,0,15,0,0,0,0,0
KP,"Korea, Dem. Rep.",country,East Asia and Pacific,40.339852,127.510093,CI,Ivory Coast,country,Sub-Saharan Africa,7.539989,-5.54708,12860.4886184806,1998,1,0,0,0,0,0,1,0,0,0,0,0,0,0,0,0,0,0,0,0,0,0,0,0
DK,Denmark,country,Europe and Central Asia,56.26392,9.501785,CI,Ivory Coast,country,Sub-Saharan Africa,7.539989,-5.54708,5582.45558634852,1998,463,88,0,2,0,0,0,0,0,0,0,0,0,64,0,47,0,71,191,0,0,0,0,0
DM,Dominica,country,Latin America and the Caribbean,15.414999,-61.370976,CI,Ivory Coast,country,Sub-Saharan Africa,7.539989,-5.54708,6136.96172872149,1998,0,0,0,0,0,0,0,0,0,0,0,0,0,0,0,0,0,0,0,0,0,0,0,0
DO,Dominican Republic,country,Latin America and the Caribbean,18.735693,-70.162651,CI,Ivory Coast,country,Sub-Saharan Africa,7.539989,-5.54708,7080.09227745668,1998,0,0,0,0,0,0,0,0,0,0,0,0,0,0,0,0,0,0,0,0,0,0,0,0
EC,Ecuador,country,Latin America and the Caribbean,-1.831239,-78.183406,CI,Ivory Coast,country,Sub-Saharan Africa,7.539989,-5.54708,8132.06222114685,1998,8,0,0,0,0,0,0,0,6,0,0,0,0,2,0,0,0,0,0,0,0,0,0,0
EG,Egypt,country,Middle East and North Africa,26.820553,30.802498,CI,Ivory Coast,country,Sub-Saharan Africa,7.539989,-5.54708,4395.73378933376,1998,4508,4343,0,0,0,0,0,125,40,0,0,0,0,0,0,0,0,0,0,0,0,0,0,0
SV,El Salvador,country,Latin America and the Caribbean,13.794185,-88.89653,CI,Ivory Coast,country,Sub-Saharan Africa,7.539989,-5.54708,9104.91080429021,1998,4,0,0,0,0,0,0,0,0,0,0,0,0,4,0,0,0,0,0,0,0,0,0,0
GQ,Equatorial Guinea,country,Sub-Saharan Africa,1.650801,10.267895,CI,Ivory Coast,country,Sub-Saharan Africa,7.539989,-5.54708,1872.54113575585,1998,21,0,0,0,0,0,0,0,0,0,0,0,0,0,0,21,0,0,0,0,0,0,0,0
ET,Ethiopia,country,Sub-Saharan Africa,9.145,40.489673,CI,Ivory Coast,country,Sub-Saharan Africa,7.539989,-5.54708,5070.46530687454,1998,18,0,0,0,0,0,0,0,0,0,0,0,18,0,0,0,0,0,0,0,0,0,0,0
FI,Finland,country,Europe and Central Asia,61.92411,25.748151,CI,Ivory Coast,country,Sub-Saharan Africa,7.539989,-5.54708,6572.12716500708,1998,0,0,0,0,0,0,0,0,0,0,0,0,0,0,0,0,0,0,0,0,0,0,0,0
FR,France,country,Europe and Central Asia,46.227638,2.213749,CI,Ivory Coast,country,Sub-Saharan Africa,7.539989,-5.54708,4370.39126855878,1998,320127,253730,4015,18640,78,82,226,4644,4218,2,11,931,213,17105,1129,3935,343,2598,8570,0,0,0,0,0
DE,Germany,country,Europe and Central Asia,51.165691,10.451526,CI,Ivory Coast,country,Sub-Saharan Africa,7.539989,-5.54708,5075.08263597784,1998,60590,50273,0,5987,0,0,0,764,33,0,0,1,1,128,347,56,0,176,2824,0,0,0,0,0
GH,Ghana,country,Sub-Saharan Africa,7.946527,-1.023194,CI,Ivory Coast,country,Sub-Saharan Africa,7.539989,-5.54708,501.049276283363,1998,164,26,0,0,0,0,0,0,0,0,0,0,0,138,0,0,0,0,0,0,0,0,0,0
GR,Greece,country,Europe and Central Asia,39.074208,21.824312,CI,Ivory Coast,country,Sub-Saharan Africa,7.539989,-5.54708,4451.57879750711,1998,164,0,0,0,0,0,0,119,10,0,0,0,27,8,0,0,0,0,0,0,0,0,0,0
GT,Guatemala,country,Latin America and the Caribbean,15.783471,-90.230759,CI,Ivory Coast,country,Sub-Saharan Africa,7.539989,-5.54708,9225.29983904773,1998,12000,0,0,12000,0,0,0,0,0,0,0,0,0,0,0,0,0,0,0,0,0,0,0,0
GN,Guinea,country,Sub-Saharan Africa,9.945587,-9.696645,CI,Ivory Coast,country,Sub-Saharan Africa,7.539989,-5.54708,529.267168854545,1998,568,0,0,0,0,0,0,0,0,0,0,0,0,568,0,0,0,0,0,0,0,0,0,0
HT,Haiti,country,Latin America and the Caribbean,18.971187,-72.285215,CI,Ivory Coast,country,Sub-Saharan Africa,7.539989,-5.54708,7303.91399181058,1998,0,0,0,0,0,0,0,0,0,0,0,0,0,0,0,0,0,0,0,0,0,0,0,0
HN,Honduras,country,Latin America and the Caribbean,15.199999,-86.241905,CI,Ivory Coast,country,Sub-Saharan Africa,7.539989,-5.54708,8805.39944731665,1998,274,0,0,0,0,0,0,0,0,0,0,0,0,274,0,0,0,0,0,0,0,0,0,0
HU,Hungary,country,Europe and Central Asia,47.162494,19.503304,CI,Ivory Coast,country,Sub-Saharan Africa,7.539989,-5.54708,5011.60681989734,1998,196,0,0,0,0,0,0,194,0,0,0,1,0,0,0,0,0,1,0,0,0,0,0,0
IS,Iceland,country,Europe and Central Asia,64.963051,-19.020835,CI,Ivory Coast,country,Sub-Saharan Africa,7.539989,-5.54708,6479.32977607717,1998,75,0,0,0,0,0,0,0,0,0,0,0,0,0,0,0,0,0,75,0,0,0,0,0
IN,India,country,South Asia,20.593684,78.96288,CI,Ivory Coast,country,Sub-Saharan Africa,7.539989,-5.54708,9155.46018044623,1998,170623,170003,0,1,0,0,0,0,0,0,3,0,0,10,0,1,0,605,0,0,0,0,0,0
ID,Indonesia,country,East Asia and Pacific,-0.789275,113.921327,CI,Ivory Coast,country,Sub-Saharan Africa,7.539989,-5.54708,13280.9184302216,1998,4216,0,0,0,0,0,0,0,2,0,0,0,0,13,4201,0,0,0,0,0,0,0,0,0
IR,Iran,country,Middle East and North Africa,32.427908,53.688046,CI,Ivory Coast,country,Sub-Saharan Africa,7.539989,-5.54708,6691.05852974488,1998,40,0,0,0,0,0,0,0,0,0,0,0,0,40,0,0,0,0,0,0,0,0,0,0
IE,Ireland,country,Europe and Central Asia,53.41291,-8.24389,CI,Ivory Coast,country,Sub-Saharan Africa,7.539989,-5.54708,5112.36256389571,1998,1481,62,0,0,0,0,0,0,0,0,0,0,0,0,0,4,0,0,1415,0,0,0,0,0
IL,Israel,country,Middle East and North Africa,31.046051,34.851612,CI,Ivory Coast,country,Sub-Saharan Africa,7.539989,-5.54708,4942.38956276781,1998,17,0,0,0,0,0,0,1,11,0,0,0,0,5,0,0,3,0,0,0,0,0,0,0
IT,Italy,country,Europe and Central Asia,41.87194,12.56738,CI,Ivory Coast,country,Sub-Saharan Africa,7.539989,-5.54708,4217.8390123033,1998,13512,3400,164,2691,0,0,0,2809,101,0,0,23,16,3462,104,140,0,572,30,0,0,0,0,0
JM,Jamaica,country,Latin America and the Caribbean,18.109581,-77.297508,CI,Ivory Coast,country,Sub-Saharan Africa,7.539989,-5.54708,7834.14178585357,1998,0,0,0,0,0,0,0,0,0,0,0,0,0,0,0,0,0,0,0,0,0,0,0,0
JP,Japan,country,East Asia and Pacific,36.204824,138.252924,CI,Ivory Coast,country,Sub-Saharan Africa,7.539989,-5.54708,13871.6786958923,1998,26,0,0,0,0,0,0,21,0,0,0,1,0,4,0,0,0,0,0,0,0,0,0,0
KE,Kenya,country,Sub-Saharan Africa,-0.023559,37.906193,CI,Ivory Coast,country,Sub-Saharan Africa,7.539989,-5.54708,4895.62480993882,1998,104,0,0,0,0,0,0,0,0,0,0,0,103,0,0,0,0,1,0,0,0,0,0,0
LB,Lebanon,country,Middle East and North Africa,33.854721,35.862285,CI,Ivory Coast,country,Sub-Saharan Africa,7.539989,-5.54708,5156.96399699335,1998,601,42,0,11,108,14,26,47,163,0,12,0,17,102,25,21,0,2,11,0,0,0,0,0
LR,Liberia,country,Sub-Saharan Africa,6.428055,-9.429499,CI,Ivory Coast,country,Sub-Saharan Africa,7.539989,-5.54708,446.475128720309,1998,4465,285,6,45,0,0,162,207,269,0,16,1,307,1683,30,1351,0,0,103,0,0,0,0,0
MG,Madagascar,country,Sub-Saharan Africa,-18.766947,46.869107,CI,Ivory Coast,country,Sub-Saharan Africa,7.539989,-5.54708,6453.77103563836,1998,110,0,0,0,0,0,0,0,0,0,1,0,0,3,106,0,0,0,0,0,0,0,0,0
MW,Malawi,country,Sub-Saharan Africa,-13.254308,34.301525,CI,Ivory Coast,country,Sub-Saharan Africa,7.539989,-5.54708,4976.49408716976,1998,20,0,0,0,0,0,0,0,0,0,0,0,0,20,0,0,0,0,0,0,0,0,0,0
MY,Malaysia,country,East Asia and Pacific,4.210484,101.975766,CI,Ivory Coast,country,Sub-Saharan Africa,7.539989,-5.54708,11882.3348684421,1998,931,0,0,0,0,0,0,0,0,0,0,0,0,10,153,0,0,0,768,0,0,0,0,0
ML,Mali,country,Sub-Saharan Africa,17.570692,-3.996166,CI,Ivory Coast,country,Sub-Saharan Africa,7.539989,-5.54708,1129.22052772098,1998,34553,341,317,0,0,0,29880,1636,44,100,1,37,0,2197,0,0,0,0,0,0,0,0,0,0
MX,Mexico,country,Latin America and the Caribbean,23.634501,-102.552784,CI,Ivory Coast,country,Sub-Saharan Africa,7.539989,-5.54708,10389.9548060867,1998,887,0,0,534,0,0,0,0,0,0,0,0,0,0,0,10,0,0,343,0,0,0,0,0
MA,Morocco,country,Middle East and North Africa,31.791702,-7.09262,CI,Ivory Coast,country,Sub-Saharan Africa,7.539989,-5.54708,2704.44444978598,1998,878,23,3,0,5,0,96,54,197,0,0,0,0,14,0,394,0,0,92,0,0,0,0,0
MZ,Mozambique,country,Sub-Saharan Africa,-18.665695,35.529562,CI,Ivory Coast,country,Sub-Saharan Africa,7.539989,-5.54708,5370.06485851375,1998,2,0,0,0,0,0,0,0,0,0,2,0,0,0,0,0,0,0,0,0,0,0,0,0
NL,Netherlands,country,Europe and Central Asia,52.132633,5.291266,CI,Ivory Coast,country,Sub-Saharan Africa,7.539989,-5.54708,5061.89043335153,1998,37836,1194,10498,0,0,0,0,15189,21,0,2,168,9,314,260,258,43,289,9634,0,0,0,0,0
NZ,New Zealand,country,East Asia and Pacific,-40.900557,174.885971,CI,Ivory Coast,country,Sub-Saharan Africa,7.539989,-5.54708,16323.5786695911,1998,41,0,0,0,0,0,0,0,13,0,0,0,0,0,0,0,0,28,0,0,0,0,0,0
NI,Nicaragua,country,Latin America and the Caribbean,12.865416,-85.207229,CI,Ivory Coast,country,Sub-Saharan Africa,7.539989,-5.54708,8716.98300245814,1998,10000,0,0,10000,0,0,0,0,0,0,0,0,0,0,0,0,0,0,0,0,0,0,0,0
NG,Nigeria,country,Sub-Saharan Africa,9.081999,8.675277,CI,Ivory Coast,country,Sub-Saharan Africa,7.539989,-5.54708,1575.84080612645,1998,28,0,0,0,0,0,0,0,0,0,0,0,24,0,0,4,0,0,0,0,0,0,0,0
NO,Norway,country,Europe and Central Asia,60.472024,8.468946,CI,Ivory Coast,country,Sub-Saharan Africa,7.539989,-5.54708,6007.85790339122,1998,17,0,0,0,0,0,0,0,0,0,0,0,0,2,0,0,0,0,15,0,0,0,0,0
OM,Oman,country,Middle East and North Africa,21.512583,55.923255,CI,Ivory Coast,country,Sub-Saharan Africa,7.539989,-5.54708,6762.6816384374,1998,58,58,0,0,0,0,0,0,0,0,0,0,0,0,0,0,0,0,0,0,0,0,0,0
PK,Pakistan,country,South Asia,30.375321,69.345116,CI,Ivory Coast,country,Sub-Saharan Africa,7.539989,-5.54708,8147.02149733683,1998,61516,61516,0,0,0,0,0,0,0,0,0,0,0,0,0,0,0,0,0,0,0,0,0,0
PA,Panama,country,Latin America and the Caribbean,8.537981,-80.782127,CI,Ivory Coast,country,Sub-Saharan Africa,7.539989,-5.54708,8279.44004557867,1998,2791,0,0,0,0,0,0,0,0,0,0,0,0,2791,0,0,0,0,0,0,0,0,0,0
PY,Paraguay,country,Latin America and the Caribbean,-23.442503,-58.443832,CI,Ivory Coast,country,Sub-Saharan Africa,7.539989,-5.54708,6705.11682330958,1998,3,0,0,0,0,0,0,0,0,0,0,0,0,3,0,0,0,0,0,0,0,0,0,0
PE,Peru,country,Latin America and the Caribbean,-9.189967,-75.015152,CI,Ivory Coast,country,Sub-Saharan Africa,7.539989,-5.54708,7925.87066611809,1998,2,0,0,0,0,0,0,2,0,0,0,0,0,0,0,0,0,0,0,0,0,0,0,0
PH,Philippines,country,East Asia and Pacific,12.879721,121.774017,CI,Ivory Coast,country,Sub-Saharan Africa,7.539989,-5.54708,13784.2102093304,1998,2,0,0,0,0,0,2,0,0,0,0,0,0,0,0,0,0,0,0,0,0,0,0,0
PL,Poland,country,Europe and Central Asia,51.919438,19.145136,CI,Ivory Coast,country,Sub-Saharan Africa,7.539989,-5.54708,5431.31074290287,1998,0,0,0,0,0,0,0,0,0,0,0,0,0,0,0,0,0,0,0,0,0,0,0,0
PT,Portugal,country,Europe and Central Asia,39.399872,-8.224454,CI,Ivory Coast,country,Sub-Saharan Africa,7.539989,-5.54708,3556.71752979477,1998,171,3,0,0,0,0,0,101,14,0,0,0,0,8,25,19,0,0,1,0,0,0,0,0
KR,"Korea, Rep.",country,East Asia and Pacific,35.907757,127.766922,CI,Ivory Coast,country,Sub-Saharan Africa,7.539989,-5.54708,13167.5129026133,1998,2,2,0,0,0,0,0,0,0,0,0,0,0,0,0,0,0,0,0,0,0,0,0,0
RO,Romania,country,Europe and Central Asia,45.943161,24.96676,CI,Ivory Coast,country,Sub-Saharan Africa,7.539989,-5.54708,5177.82666988724,1998,1,0,0,1,0,0,0,0,0,0,0,0,0,0,0,0,0,0,0,0,0,0,0,0
RU,Russian Federation,country,Europe and Central Asia,61.52401,105.318756,CI,Ivory Coast,country,Sub-Saharan Africa,7.539989,-5.54708,10357.0324916913,1998,1,0,0,0,0,0,0,0,0,0,0,1,0,0,0,0,0,0,0,0,0,0,0,0
VC,St. Vincent & Grenadines,country,Latin America and the Caribbean,12.984305,-61.287228,CI,Ivory Coast,country,Sub-Saharan Africa,7.539989,-5.54708,6124.77863991545,1998,3626,0,0,0,0,0,0,0,0,0,0,0,0,3626,0,0,0,0,0,0,0,0,0,0
SA,Saudi Arabia,country,Middle East and North Africa,23.885942,45.079162,CI,Ivory Coast,country,Sub-Saharan Africa,7.539989,-5.54708,5686.79999469402,1998,8,8,0,0,0,0,0,0,0,0,0,0,0,0,0,0,0,0,0,0,0,0,0,0
SN,Senegal,country,Sub-Saharan Africa,14.497401,-14.452362,CI,Ivory Coast,country,Sub-Saharan Africa,7.539989,-5.54708,1243.10698857908,1998,420,1,0,17,0,0,0,13,4,0,42,0,0,2,1,13,11,0,327,0,0,0,0,0
RS,Serbia,country,Europe and Central Asia,44.016521,21.005859,CI,Ivory Coast,country,Sub-Saharan Africa,7.539989,-5.54708,4809.61628628367,1998,1,0,0,0,0,0,0,1,0,0,0,0,0,0,0,0,0,0,0,0,0,0,0,0
SG,Singapore,country,East Asia and Pacific,1.352083,103.819836,CI,Ivory Coast,country,Sub-Saharan Africa,7.539989,-5.54708,12133.7786075691,1998,13,0,0,0,0,0,0,0,0,0,0,0,0,0,13,0,0,0,0,0,0,0,0,0
ZA,S. Africa,country,Sub-Saharan Africa,-30.559482,22.937506,CI,Ivory Coast,country,Sub-Saharan Africa,7.539989,-5.54708,5218.01866045703,1998,3473,718,135,528,15,0,0,170,1604,0,1,1,5,133,0,90,0,15,58,0,0,0,0,0
ES,Spain,country,Europe and Central Asia,40.463667,-3.74922,CI,Ivory Coast,country,Sub-Saharan Africa,7.539989,-5.54708,3669.4017707212,1998,36798,2675,217,49,0,10,10,835,173,7,1,2,19,7838,26,22241,0,51,2644,0,0,0,0,0
LK,Sri Lanka,country,South Asia,7.873054,80.771797,CI,Ivory Coast,country,Sub-Saharan Africa,7.539989,-5.54708,9501.41429580975,1998,122,0,0,0,0,0,0,0,0,0,0,0,122,0,0,0,0,0,0,0,0,0,0,0
SE,Sweden,country,Europe and Central Asia,60.128161,18.643501,CI,Ivory Coast,country,Sub-Saharan Africa,7.539989,-5.54708,6195.43019688633,1998,186,1,0,43,0,0,0,0,0,0,0,0,0,0,0,0,0,48,94,0,0,0,0,0
CH,Switzerland,country,Europe and Central Asia,46.818188,8.227512,CI,Ivory Coast,country,Sub-Saharan Africa,7.539989,-5.54708,4565.45223271555,1998,231,83,0,21,0,0,0,0,0,0,0,0,0,93,11,1,0,0,22,0,0,0,0,0
SY,Syrian Arab Rep.,country,Middle East and North Africa,34.802075,38.996815,CI,Ivory Coast,country,Sub-Saharan Africa,7.539989,-5.54708,5463.08551987388,1998,45,41,0,0,3,0,0,0,0,0,0,0,0,1,0,0,0,0,0,0,0,0,0,0
TH,Thailand,country,East Asia and Pacific,15.870032,100.992541,CI,Ivory Coast,country,Sub-Saharan Africa,7.539989,-5.54708,11535.5571368882,1998,166600,166278,0,302,0,0,0,0,8,0,1,3,0,6,0,0,0,1,1,0,0,0,0,0
TG,Togo,country,Sub-Saharan Africa,8.619543,0.824782,CI,Ivory Coast,country,Sub-Saharan Africa,7.539989,-5.54708,712.46167154545,1998,55,0,0,0,0,0,0,0,0,0,3,0,0,0,0,52,0,0,0,0,0,0,0,0
TN,Tunisia,country,Middle East and North Africa,33.886917,9.537499,CI,Ivory Coast,country,Sub-Saharan Africa,7.539989,-5.54708,3317.31126279574,1998,6506,5744,0,201,0,0,0,0,24,0,0,0,0,537,0,0,0,0,0,0,0,0,0,0
TR,Turkey,country,Europe and Central Asia,38.963745,35.243322,CI,Ivory Coast,country,Sub-Saharan Africa,7.539989,-5.54708,5369.24942622934,1998,1883,50,0,0,6,2,1,514,20,0,0,0,4,86,1200,0,0,0,0,0,0,0,0,0
AE,United Arab Emirates,country,Middle East and North Africa,23.424076,53.847818,CI,Ivory Coast,country,Sub-Saharan Africa,7.539989,-5.54708,6566.01423607969,1998,382,382,0,0,0,0,0,0,0,0,0,0,0,0,0,0,0,0,0,0,0,0,0,0
GB,United Kingdom,country,Europe and Central Asia,55.378051,-3.435973,CI,Ivory Coast,country,Sub-Saharan Africa,7.539989,-5.54708,5328.59738495614,1998,7893,273,154,129,0,0,0,72,6,0,59,25,6,261,19,355,10,38,6496,0,0,0,0,0
TZ,Tanzania,country,Sub-Saharan Africa,-6.369028,34.888822,CI,Ivory Coast,country,Sub-Saharan Africa,7.539989,-5.54708,4749.36243155675,1998,434,0,0,0,0,0,0,0,0,0,0,0,0,434,0,0,0,0,0,0,0,0,0,0
US,USA,country,North America,37.09024,-95.712891,CI,Ivory Coast,country,Sub-Saharan Africa,7.539989,-5.54708,9528.13940497655,1998,16913,11023,0,0,0,2,0,100,6,0,75,4,4,1008,317,7,0,4367,0,0,0,0,0,0
VU,Vanuatu,country,East Asia and Pacific,-15.376706,166.959158,CI,Ivory Coast,country,Sub-Saharan Africa,7.539989,-5.54708,18842.4072988384,1998,506,0,0,0,0,0,0,0,0,0,0,0,0,506,0,0,0,0,0,0,0,0,0,0
VN,Vietnam,country,East Asia and Pacific,14.058324,108.277199,CI,Ivory Coast,country,Sub-Saharan Africa,7.539989,-5.54708,12344.202614124,1998,49212,49201,0,3,0,0,0,0,1,0,0,0,1,6,0,0,0,0,0,0,0,0,0,0
ZM,Zambia,country,Sub-Saharan Africa,-13.133897,27.849332,CI,Ivory Coast,country,Sub-Saharan Africa,7.539989,-5.54708,4351.06980518422,1998,0,0,0,0,0,0,0,0,0,0,0,0,0,0,0,0,0,0,0,0,0,0,0,0
ZW,Zimbabwe,country,Sub-Saharan Africa,-19.015438,29.154857,CI,Ivory Coast,country,Sub-Saharan Africa,7.539989,-5.54708,4819.99531215582,1998,34,0,0,0,0,0,0,0,0,0,0,0,0,29,0,0,0,0,5,0,0,0,0,0
AL,Albania,country,Europe and Central Asia,41.153332,20.168331,CI,Ivory Coast,country,Sub-Saharan Africa,7.539989,-5.54708,4523.5509826958,1999,0,0,0,0,0,0,0,0,0,0,0,0,0,0,0,0,0,0,0,0,0,0,0,0
DZ,Algeria,country,Middle East and North Africa,28.033886,1.659626,CI,Ivory Coast,country,Sub-Saharan Africa,7.539989,-5.54708,2404.15056160486,1999,0,0,0,0,0,0,0,0,0,0,0,0,0,0,0,0,0,0,0,0,0,0,0,0
AR,Argentina,country,Latin America and the Caribbean,-38.416097,-63.616672,CI,Ivory Coast,country,Sub-Saharan Africa,7.539989,-5.54708,7878.65092120982,1999,319,0,0,0,1,0,0,88,3,0,0,11,0,85,1,0,0,116,14,0,0,0,0,0
AU,Australia,country,East Asia and Pacific,-25.274398,133.775136,CI,Ivory Coast,country,Sub-Saharan Africa,7.539989,-5.54708,15293.2880322565,1999,398,0,0,0,0,0,0,0,3,0,0,0,0,0,16,0,0,346,33,0,0,0,0,0
AT,Austria,country,Europe and Central Asia,47.516231,14.550072,CI,Ivory Coast,country,Sub-Saharan Africa,7.539989,-5.54708,4840.83133195022,1999,0,0,0,0,0,0,0,0,0,0,0,0,0,0,0,0,0,0,0,0,0,0,0,0
BS,The Bahamas,country,Latin America and the Caribbean,25.03428,-77.39628,CI,Ivory Coast,country,Sub-Saharan Africa,7.539989,-5.54708,7837.65324029741,1999,2,0,0,0,0,0,0,0,0,0,0,0,0,0,0,2,0,0,0,0,0,0,0,0
BD,Bangladesh,country,South Asia,23.684994,90.356331,CI,Ivory Coast,country,Sub-Saharan Africa,7.539989,-5.54708,10278.1771094849,1999,9739,0,0,0,0,0,0,0,0,9739,0,0,0,0,0,0,0,0,0,0,0,0,0,0
BE,Belgium,country,Europe and Central Asia,50.503887,4.469936,CI,Ivory Coast,country,Sub-Saharan Africa,7.539989,-5.54708,4872.00148170953,1999,21801,5425,181,11939,0,0,0,896,33,0,0,689,4,297,1690,46,43,213,388,0,0,0,0,0
BJ,Benin,country,Sub-Saharan Africa,9.30769,2.315834,CI,Ivory Coast,country,Sub-Saharan Africa,7.539989,-5.54708,887.881706377971,1999,0,0,0,0,0,0,0,0,0,0,0,0,0,0,0,0,0,0,0,0,0,0,0,0
BW,Botswana,country,Sub-Saharan Africa,-22.328474,24.684866,CI,Ivory Coast,country,Sub-Saharan Africa,7.539989,-5.54708,4682.03240432099,1999,12,0,0,0,0,0,0,0,0,0,0,0,0,0,0,12,0,0,0,0,0,0,0,0
BR,Brazil,country,Latin America and the Caribbean,-14.235004,-51.92528,CI,Ivory Coast,country,Sub-Saharan Africa,7.539989,-5.54708,5666.26308155989,1999,2789,19,0,584,0,0,0,0,8,0,2,500,19,483,1098,0,0,0,76,0,0,0,0,0
BG,Bulgaria,country,Europe and Central Asia,42.733883,25.48583,CI,Ivory Coast,country,Sub-Saharan Africa,7.539989,-5.54708,4956.1288019931,1999,1,0,0,0,0,0,0,0,0,0,0,0,0,0,0,0,0,1,0,0,0,0,0,0
CM,Cameroon,country,Sub-Saharan Africa,7.369722,12.354722,CI,Ivory Coast,country,Sub-Saharan Africa,7.539989,-5.54708,1975.92850794525,1999,78,0,0,0,0,0,0,0,0,0,0,0,20,0,0,44,0,0,14,0,0,0,0,0
CA,Canada,country,North America,56.130366,-106.346771,CI,Ivory Coast,country,Sub-Saharan Africa,7.539989,-5.54708,9984.12882348189,1999,18151,16121,0,3,16,0,1,1,13,0,0,0,4,43,2,1,0,295,1651,0,0,0,0,0
CF,Central African Rep.,country,Sub-Saharan Africa,6.611111,20.939444,CI,Ivory Coast,country,Sub-Saharan Africa,7.539989,-5.54708,2927.40190690961,1999,5,0,0,0,0,0,0,0,0,0,5,0,0,0,0,0,0,0,0,0,0,0,0,0
TD,Chad,country,Sub-Saharan Africa,15.454166,18.732207,CI,Ivory Coast,country,Sub-Saharan Africa,7.539989,-5.54708,2788.1944592873,1999,0,0,0,0,0,0,0,0,0,0,0,0,0,0,0,0,0,0,0,0,0,0,0,0
CL,Chile,country,Latin America and the Caribbean,-35.675147,-71.542969,CI,Ivory Coast,country,Sub-Saharan Africa,7.539989,-5.54708,8400.02260494521,1999,19,0,0,0,0,0,0,0,19,0,0,0,0,0,0,0,0,0,0,0,0,0,0,0
HK,Hong Kong,country,East Asia and Pacific,22.396428,114.109497,CI,Ivory Coast,country,Sub-Saharan Africa,7.539989,-5.54708,12668.0234094945,1999,74,2,0,0,0,0,1,0,0,0,0,0,30,3,0,38,0,0,0,0,0,0,0,0
CN,China,country,East Asia and Pacific,35.86166,104.195397,CI,Ivory Coast,country,Sub-Saharan Africa,7.539989,-5.54708,11267.3923795811,1999,82048,80361,0,0,0,0,5,637,3,1,0,0,827,95,1,9,0,14,95,0,0,0,0,0
TW,Taiwan,country,East Asia and Pacific,23.69781,120.960515,CI,Ivory Coast,country,Sub-Saharan Africa,7.539989,-5.54708,13265.3054609692,1999,24,0,0,0,0,0,0,0,2,0,0,0,0,6,16,0,0,0,0,0,0,0,0,0
CO,Colombia,country,Latin America and the Caribbean,4.570868,-74.297333,CI,Ivory Coast,country,Sub-Saharan Africa,7.539989,-5.54708,7610.89219629069,1999,118,0,0,93,0,0,0,0,0,0,0,0,25,0,0,0,0,0,0,0,0,0,0,0
CG,"Congo, Rep.",country,Sub-Saharan Africa,-0.228021,15.827659,CI,Ivory Coast,country,Sub-Saharan Africa,7.539989,-5.54708,2525.34480215893,1999,0,0,0,0,0,0,0,0,0,0,0,0,0,0,0,0,0,0,0,0,0,0,0,0
CR,Costa Rica,country,Latin America and the Caribbean,9.748917,-83.753428,CI,Ivory Coast,country,Sub-Saharan Africa,7.539989,-5.54708,8591.4761925189,1999,2,0,0,0,0,0,0,0,2,0,0,0,0,0,0,0,0,0,0,0,0,0,0,0
CU,Cuba,country,Latin America and the Caribbean,21.521757,-77.781167,CI,Ivory Coast,country,Sub-Saharan Africa,7.539989,-5.54708,7876.88297437434,1999,1,0,0,0,0,0,0,0,0,0,0,0,0,1,0,0,0,0,0,0,0,0,0,0
CY,Cyprus,country,Europe and Central Asia,35.126413,33.429859,CI,Ivory Coast,country,Sub-Saharan Africa,7.539989,-5.54708,5020.92149742369,1999,12,0,0,0,1,0,0,9,0,0,0,0,0,1,0,0,0,0,1,0,0,0,0,0
CZ,Czech Republic,country,Europe and Central Asia,49.817492,15.472962,CI,Ivory Coast,country,Sub-Saharan Africa,7.539989,-5.54708,5096.96468478398,1999,140,0,0,0,0,0,0,0,0,0,0,0,0,0,0,109,0,0,31,0,0,0,0,0
KP,"Korea, Dem. Rep.",country,East Asia and Pacific,40.339852,127.510093,CI,Ivory Coast,country,Sub-Saharan Africa,7.539989,-5.54708,12860.4886184806,1999,0,0,0,0,0,0,0,0,0,0,0,0,0,0,0,0,0,0,0,0,0,0,0,0
CD,"Congo, Dem. Rep.",country,Sub-Saharan Africa,-4.038333,21.758664,CI,Ivory Coast,country,Sub-Saharan Africa,7.539989,-5.54708,3295.50483663146,1999,31,0,0,0,0,0,0,0,0,0,31,0,0,0,0,0,0,0,0,0,0,0,0,0
DK,Denmark,country,Europe and Central Asia,56.26392,9.501785,CI,Ivory Coast,country,Sub-Saharan Africa,7.539989,-5.54708,5582.45558634852,1999,191,47,0,1,0,0,0,0,0,0,0,0,1,77,0,62,0,0,3,0,0,0,0,0
DM,Dominica,country,Latin America and the Caribbean,15.414999,-61.370976,CI,Ivory Coast,country,Sub-Saharan Africa,7.539989,-5.54708,6136.96172872149,1999,0,0,0,0,0,0,0,0,0,0,0,0,0,0,0,0,0,0,0,0,0,0,0,0
DO,Dominican Republic,country,Latin America and the Caribbean,18.735693,-70.162651,CI,Ivory Coast,country,Sub-Saharan Africa,7.539989,-5.54708,7080.09227745668,1999,0,0,0,0,0,0,0,0,0,0,0,0,0,0,0,0,0,0,0,0,0,0,0,0
EC,Ecuador,country,Latin America and the Caribbean,-1.831239,-78.183406,CI,Ivory Coast,country,Sub-Saharan Africa,7.539989,-5.54708,8132.06222114685,1999,27,0,0,0,0,0,0,0,2,0,0,0,0,25,0,0,0,0,0,0,0,0,0,0
EG,Egypt,country,Middle East and North Africa,26.820553,30.802498,CI,Ivory Coast,country,Sub-Saharan Africa,7.539989,-5.54708,4395.73378933376,1999,108,4,0,32,0,0,2,7,46,0,0,0,7,5,5,0,0,0,0,0,0,0,0,0
ET,Ethiopia,country,Sub-Saharan Africa,9.145,40.489673,CI,Ivory Coast,country,Sub-Saharan Africa,7.539989,-5.54708,5070.46530687454,1999,18,0,0,0,0,0,0,0,0,0,0,0,18,0,0,0,0,0,0,0,0,0,0,0
FI,Finland,country,Europe and Central Asia,61.92411,25.748151,CI,Ivory Coast,country,Sub-Saharan Africa,7.539989,-5.54708,6572.12716500708,1999,197,0,0,0,0,0,0,0,0,0,0,0,0,0,170,0,0,24,3,0,0,0,0,0
FR,France,country,Europe and Central Asia,46.227638,2.213749,CI,Ivory Coast,country,Sub-Saharan Africa,7.539989,-5.54708,4370.39126855878,1999,304548,251562,4046,16876,178,8,275,8231,3230,5,14,985,330,3119,924,5494,366,3939,5332,0,0,0,0,0
DE,Germany,country,Europe and Central Asia,51.165691,10.451526,CI,Ivory Coast,country,Sub-Saharan Africa,7.539989,-5.54708,5075.08263597784,1999,34414,18314,0,11784,0,0,0,146,19,0,0,4,2,70,128,76,0,105,3766,0,0,0,0,0
GH,Ghana,country,Sub-Saharan Africa,7.946527,-1.023194,CI,Ivory Coast,country,Sub-Saharan Africa,7.539989,-5.54708,501.049276283363,1999,10,0,0,10,0,0,0,0,0,0,0,0,0,0,0,0,0,0,0,0,0,0,0,0
GR,Greece,country,Europe and Central Asia,39.074208,21.824312,CI,Ivory Coast,country,Sub-Saharan Africa,7.539989,-5.54708,4451.57879750711,1999,231,0,0,0,0,0,0,137,7,0,0,0,67,2,0,18,0,0,0,0,0,0,0,0
GL,Greenland,country,Europe and Central Asia,71.706936,-42.604303,CI,Ivory Coast,country,Sub-Saharan Africa,7.539989,-5.54708,7581.41977345507,1999,0,0,0,0,0,0,0,0,0,0,0,0,0,0,0,0,0,0,0,0,0,0,0,0
GT,Guatemala,country,Latin America and the Caribbean,15.783471,-90.230759,CI,Ivory Coast,country,Sub-Saharan Africa,7.539989,-5.54708,9225.29983904773,1999,0,0,0,0,0,0,0,0,0,0,0,0,0,0,0,0,0,0,0,0,0,0,0,0
GN,Guinea,country,Sub-Saharan Africa,9.945587,-9.696645,CI,Ivory Coast,country,Sub-Saharan Africa,7.539989,-5.54708,529.267168854545,1999,439,0,0,0,0,0,0,0,0,0,0,0,0,422,0,17,0,0,0,0,0,0,0,0
HN,Honduras,country,Latin America and the Caribbean,15.199999,-86.241905,CI,Ivory Coast,country,Sub-Saharan Africa,7.539989,-5.54708,8805.39944731665,1999,0,0,0,0,0,0,0,0,0,0,0,0,0,0,0,0,0,0,0,0,0,0,0,0
HU,Hungary,country,Europe and Central Asia,47.162494,19.503304,CI,Ivory Coast,country,Sub-Saharan Africa,7.539989,-5.54708,5011.60681989734,1999,93,0,0,0,0,0,0,55,0,0,0,3,0,0,0,0,0,4,31,0,0,0,0,0
IN,India,country,South Asia,20.593684,78.96288,CI,Ivory Coast,country,Sub-Saharan Africa,7.539989,-5.54708,9155.46018044623,1999,44841,44403,0,0,0,1,0,0,0,0,11,0,18,0,0,0,0,408,0,0,0,0,0,0
ID,Indonesia,country,East Asia and Pacific,-0.789275,113.921327,CI,Ivory Coast,country,Sub-Saharan Africa,7.539989,-5.54708,13280.9184302216,1999,14084,0,0,10,1,0,0,1,0,0,1,0,9,10,14052,0,0,0,0,0,0,0,0,0
IR,Iran,country,Middle East and North Africa,32.427908,53.688046,CI,Ivory Coast,country,Sub-Saharan Africa,7.539989,-5.54708,6691.05852974488,1999,90,0,0,0,0,0,0,0,0,0,0,0,0,90,0,0,0,0,0,0,0,0,0,0
IE,Ireland,country,Europe and Central Asia,53.41291,-8.24389,CI,Ivory Coast,country,Sub-Saharan Africa,7.539989,-5.54708,5112.36256389571,1999,2684,0,0,0,0,0,0,0,0,0,0,0,0,0,0,2,0,0,2682,0,0,0,0,0
IL,Israel,country,Middle East and North Africa,31.046051,34.851612,CI,Ivory Coast,country,Sub-Saharan Africa,7.539989,-5.54708,4942.38956276781,1999,13,0,0,0,0,0,0,0,6,0,0,0,0,4,0,0,0,0,3,0,0,0,0,0
IT,Italy,country,Europe and Central Asia,41.87194,12.56738,CI,Ivory Coast,country,Sub-Saharan Africa,7.539989,-5.54708,4217.8390123033,1999,20554,9080,29,1204,7,1,0,5070,105,0,0,3,20,3380,190,214,0,751,500,0,0,0,0,0
JM,Jamaica,country,Latin America and the Caribbean,18.109581,-77.297508,CI,Ivory Coast,country,Sub-Saharan Africa,7.539989,-5.54708,7834.14178585357,1999,0,0,0,0,0,0,0,0,0,0,0,0,0,0,0,0,0,0,0,0,0,0,0,0
JP,Japan,country,East Asia and Pacific,36.204824,138.252924,CI,Ivory Coast,country,Sub-Saharan Africa,7.539989,-5.54708,13871.6786958923,1999,4,2,0,0,0,0,0,0,0,0,0,1,0,1,0,0,0,0,0,0,0,0,0,0
JO,Jordan,country,Middle East and North Africa,30.585164,36.238414,CI,Ivory Coast,country,Sub-Saharan Africa,7.539989,-5.54708,5045.21946082715,1999,9,0,0,0,0,0,0,0,0,0,0,0,0,9,0,0,0,0,0,0,0,0,0,0
KE,Kenya,country,Sub-Saharan Africa,-0.023559,37.906193,CI,Ivory Coast,country,Sub-Saharan Africa,7.539989,-5.54708,4895.62480993882,1999,109,0,0,0,0,0,0,0,0,0,0,0,107,0,0,0,0,2,0,0,0,0,0,0
LB,Lebanon,country,Middle East and North Africa,33.854721,35.862285,CI,Ivory Coast,country,Sub-Saharan Africa,7.539989,-5.54708,5156.96399699335,1999,412,54,0,6,44,10,17,47,118,0,8,0,13,50,18,13,0,2,12,0,0,0,0,0
LR,Liberia,country,Sub-Saharan Africa,6.428055,-9.429499,CI,Ivory Coast,country,Sub-Saharan Africa,7.539989,-5.54708,446.475128720309,1999,2046,0,0,0,0,0,0,0,0,0,0,0,0,2046,0,0,0,0,0,0,0,0,0,0
MG,Madagascar,country,Sub-Saharan Africa,-18.766947,46.869107,CI,Ivory Coast,country,Sub-Saharan Africa,7.539989,-5.54708,6453.77103563836,1999,1,0,0,0,0,0,0,0,0,0,1,0,0,0,0,0,0,0,0,0,0,0,0,0
MW,Malawi,country,Sub-Saharan Africa,-13.254308,34.301525,CI,Ivory Coast,country,Sub-Saharan Africa,7.539989,-5.54708,4976.49408716976,1999,38,0,0,0,0,0,0,0,0,0,0,0,0,38,0,0,0,0,0,0,0,0,0,0
MY,Malaysia,country,East Asia and Pacific,4.210484,101.975766,CI,Ivory Coast,country,Sub-Saharan Africa,7.539989,-5.54708,11882.3348684421,1999,4478,0,0,0,0,0,0,0,0,0,0,0,0,0,1555,0,0,0,2923,0,0,0,0,0
ML,Mali,country,Sub-Saharan Africa,17.570692,-3.996166,CI,Ivory Coast,country,Sub-Saharan Africa,7.539989,-5.54708,1129.22052772098,1999,7135,5705,22,0,132,0,0,953,185,19,12,0,0,70,1,36,0,0,0,0,0,0,0,0
MT,Malta,country,Middle East and North Africa,35.937496,14.375416,CI,Ivory Coast,country,Sub-Saharan Africa,7.539989,-5.54708,3755.14764842571,1999,0,0,0,0,0,0,0,0,0,0,0,0,0,0,0,0,0,0,0,0,0,0,0,0
MX,Mexico,country,Latin America and the Caribbean,23.634501,-102.552784,CI,Ivory Coast,country,Sub-Saharan Africa,7.539989,-5.54708,10389.9548060867,1999,485,0,0,466,0,0,0,0,0,0,0,0,0,0,0,19,0,0,0,0,0,0,0,0
MA,Morocco,country,Middle East and North Africa,31.791702,-7.09262,CI,Ivory Coast,country,Sub-Saharan Africa,7.539989,-5.54708,2704.44444978598,1999,989,7,0,21,7,0,144,61,198,0,6,0,2,177,1,282,0,0,83,0,0,0,0,0
NL,Netherlands,country,Europe and Central Asia,52.132633,5.291266,CI,Ivory Coast,country,Sub-Saharan Africa,7.539989,-5.54708,5061.89043335153,1999,43236,162,6404,1106,0,0,0,16799,16,0,1,44,8,204,7921,238,89,1175,9158,0,0,0,0,0
NZ,New Zealand,country,East Asia and Pacific,-40.900557,174.885971,CI,Ivory Coast,country,Sub-Saharan Africa,7.539989,-5.54708,16323.5786695911,1999,172,0,0,0,0,0,0,0,6,0,0,0,0,0,0,0,0,72,94,0,0,0,0,0
NI,Nicaragua,country,Latin America and the Caribbean,12.865416,-85.207229,CI,Ivory Coast,country,Sub-Saharan Africa,7.539989,-5.54708,8716.98300245814,1999,7280,0,0,7280,0,0,0,0,0,0,0,0,0,0,0,0,0,0,0,0,0,0,0,0
NE,Niger,country,Sub-Saharan Africa,17.607789,8.081666,CI,Ivory Coast,country,Sub-Saharan Africa,7.539989,-5.54708,1855.18700208386,1999,1,0,0,0,0,0,0,0,0,0,0,0,0,1,0,0,0,0,0,0,0,0,0,0
NG,Nigeria,country,Sub-Saharan Africa,9.081999,8.675277,CI,Ivory Coast,country,Sub-Saharan Africa,7.539989,-5.54708,1575.84080612645,1999,0,0,0,0,0,0,0,0,0,0,0,0,0,0,0,0,0,0,0,0,0,0,0,0
NO,Norway,country,Europe and Central Asia,60.472024,8.468946,CI,Ivory Coast,country,Sub-Saharan Africa,7.539989,-5.54708,6007.85790339122,1999,9,0,0,0,0,0,0,0,0,0,0,0,0,0,0,0,0,0,9,0,0,0,0,0
PK,Pakistan,country,South Asia,30.375321,69.345116,CI,Ivory Coast,country,Sub-Saharan Africa,7.539989,-5.54708,8147.02149733683,1999,74773,74773,0,0,0,0,0,0,0,0,0,0,0,0,0,0,0,0,0,0,0,0,0,0
PY,Paraguay,country,Latin America and the Caribbean,-23.442503,-58.443832,CI,Ivory Coast,country,Sub-Saharan Africa,7.539989,-5.54708,6705.11682330958,1999,9,0,0,0,0,0,0,0,0,0,0,0,0,9,0,0,0,0,0,0,0,0,0,0
PE,Peru,country,Latin America and the Caribbean,-9.189967,-75.015152,CI,Ivory Coast,country,Sub-Saharan Africa,7.539989,-5.54708,7925.87066611809,1999,2,0,0,0,0,0,0,2,0,0,0,0,0,0,0,0,0,0,0,0,0,0,0,0
PH,Philippines,country,East Asia and Pacific,12.879721,121.774017,CI,Ivory Coast,country,Sub-Saharan Africa,7.539989,-5.54708,13784.2102093304,1999,3,0,0,0,0,0,2,0,0,0,0,0,0,1,0,0,0,0,0,0,0,0,0,0
PL,Poland,country,Europe and Central Asia,51.919438,19.145136,CI,Ivory Coast,country,Sub-Saharan Africa,7.539989,-5.54708,5431.31074290287,1999,89,0,88,0,0,0,0,0,1,0,0,0,0,0,0,0,0,0,0,0,0,0,0,0
PT,Portugal,country,Europe and Central Asia,39.399872,-8.224454,CI,Ivory Coast,country,Sub-Saharan Africa,7.539989,-5.54708,3556.71752979477,1999,130,19,56,0,0,0,0,0,0,0,0,0,0,19,13,2,0,0,21,0,0,0,0,0
KR,"Korea, Rep.",country,East Asia and Pacific,35.907757,127.766922,CI,Ivory Coast,country,Sub-Saharan Africa,7.539989,-5.54708,13167.5129026133,1999,8,2,0,1,0,0,0,0,0,0,0,0,0,5,0,0,0,0,0,0,0,0,0,0
RO,Romania,country,Europe and Central Asia,45.943161,24.96676,CI,Ivory Coast,country,Sub-Saharan Africa,7.539989,-5.54708,5177.82666988724,1999,1,0,0,1,0,0,0,0,0,0,0,0,0,0,0,0,0,0,0,0,0,0,0,0
RU,Russian Federation,country,Europe and Central Asia,61.52401,105.318756,CI,Ivory Coast,country,Sub-Saharan Africa,7.539989,-5.54708,10357.0324916913,1999,36,0,0,0,0,0,0,0,0,0,0,4,0,0,0,0,0,0,32,0,0,0,0,0
SA,Saudi Arabia,country,Middle East and North Africa,23.885942,45.079162,CI,Ivory Coast,country,Sub-Saharan Africa,7.539989,-5.54708,5686.79999469402,1999,16,15,0,0,0,0,0,0,0,0,0,0,0,1,0,0,0,0,0,0,0,0,0,0
SN,Senegal,country,Sub-Saharan Africa,14.497401,-14.452362,CI,Ivory Coast,country,Sub-Saharan Africa,7.539989,-5.54708,1243.10698857908,1999,228,1,0,13,0,0,1,2,0,0,14,0,0,4,0,0,8,0,193,0,0,0,0,0
RS,Serbia,country,Europe and Central Asia,44.016521,21.005859,CI,Ivory Coast,country,Sub-Saharan Africa,7.539989,-5.54708,4809.61628628367,1999,2,0,0,0,0,0,0,0,1,0,0,1,0,0,0,0,0,0,0,0,0,0,0,0
SG,Singapore,country,East Asia and Pacific,1.352083,103.819836,CI,Ivory Coast,country,Sub-Saharan Africa,7.539989,-5.54708,12133.7786075691,1999,469,0,0,0,0,0,0,0,0,0,0,0,0,7,50,0,0,0,412,0,0,0,0,0
ZA,S. Africa,country,Sub-Saharan Africa,-30.559482,22.937506,CI,Ivory Coast,country,Sub-Saharan Africa,7.539989,-5.54708,5218.01866045703,1999,6098,1622,723,101,0,0,0,460,2651,0,1,56,4,156,1,290,0,19,14,0,0,0,0,0
ES,Spain,country,Europe and Central Asia,40.463667,-3.74922,CI,Ivory Coast,country,Sub-Saharan Africa,7.539989,-5.54708,3669.4017707212,1999,30025,69,503,24,0,8,2,1105,227,3,1,12,68,3748,495,21446,0,460,1854,0,0,0,0,0
LK,Sri Lanka,country,South Asia,7.873054,80.771797,CI,Ivory Coast,country,Sub-Saharan Africa,7.539989,-5.54708,9501.41429580975,1999,98,0,0,0,0,0,0,0,0,0,0,0,98,0,0,0,0,0,0,0,0,0,0,0
SD,Sudan,country,Sub-Saharan Africa,12.862807,30.217636,CI,Ivory Coast,country,Sub-Saharan Africa,7.539989,-5.54708,3959.32695732099,1999,1,0,0,0,0,0,0,0,0,0,0,0,0,0,1,0,0,0,0,0,0,0,0,0
SE,Sweden,country,Europe and Central Asia,60.128161,18.643501,CI,Ivory Coast,country,Sub-Saharan Africa,7.539989,-5.54708,6195.43019688633,1999,329,1,0,0,0,0,0,0,0,0,0,0,0,0,0,0,0,0,328,0,0,0,0,0
CH,Switzerland,country,Europe and Central Asia,46.818188,8.227512,CI,Ivory Coast,country,Sub-Saharan Africa,7.539989,-5.54708,4565.45223271555,1999,233,46,0,3,0,0,0,0,0,0,0,0,1,141,20,0,0,0,22,0,0,0,0,0
SY,Syrian Arab Rep.,country,Middle East and North Africa,34.802075,38.996815,CI,Ivory Coast,country,Sub-Saharan Africa,7.539989,-5.54708,5463.08551987388,1999,10,0,0,1,0,0,6,2,1,0,0,0,0,0,0,0,0,0,0,0,0,0,0,0
TH,Thailand,country,East Asia and Pacific,15.870032,100.992541,CI,Ivory Coast,country,Sub-Saharan Africa,7.539989,-5.54708,11535.5571368882,1999,173030,173016,0,0,0,0,0,2,4,0,0,2,0,5,0,0,0,0,1,0,0,0,0,0
TG,Togo,country,Sub-Saharan Africa,8.619543,0.824782,CI,Ivory Coast,country,Sub-Saharan Africa,7.539989,-5.54708,712.46167154545,1999,36,0,0,0,0,0,0,0,0,0,0,0,0,0,0,35,0,1,0,0,0,0,0,0
TN,Tunisia,country,Middle East and North Africa,33.886917,9.537499,CI,Ivory Coast,country,Sub-Saharan Africa,7.539989,-5.54708,3317.31126279574,1999,6548,5567,0,349,0,0,0,23,7,0,40,0,0,552,10,0,0,0,0,0,0,0,0,0
TR,Turkey,country,Europe and Central Asia,38.963745,35.243322,CI,Ivory Coast,country,Sub-Saharan Africa,7.539989,-5.54708,5369.24942622934,1999,2854,17,0,898,2,2,1,892,38,5,0,0,0,220,779,0,0,0,0,0,0,0,0,0
UG,Uganda,country,Sub-Saharan Africa,1.373333,32.290275,CI,Ivory Coast,country,Sub-Saharan Africa,7.539989,-5.54708,4252.51026543554,1999,0,0,0,0,0,0,0,0,0,0,0,0,0,0,0,0,0,0,0,0,0,0,0,0
AE,United Arab Emirates,country,Middle East and North Africa,23.424076,53.847818,CI,Ivory Coast,country,Sub-Saharan Africa,7.539989,-5.54708,6566.01423607969,1999,4,0,0,2,0,0,0,0,2,0,0,0,0,0,0,0,0,0,0,0,0,0,0,0
GB,United Kingdom,country,Europe and Central Asia,55.378051,-3.435973,CI,Ivory Coast,country,Sub-Saharan Africa,7.539989,-5.54708,5328.59738495614,1999,6762,190,0,79,0,0,0,47,3,0,9,45,11,256,101,311,0,0,5710,0,0,0,0,0
US,USA,country,North America,37.09024,-95.712891,CI,Ivory Coast,country,Sub-Saharan Africa,7.539989,-5.54708,9528.13940497655,1999,33063,21388,0,4,0,1,0,71,8,0,70,1,5640,501,1,39,0,5325,14,0,0,0,0,0
VN,Vietnam,country,East Asia and Pacific,14.058324,108.277199,CI,Ivory Coast,country,Sub-Saharan Africa,7.539989,-5.54708,12344.202614124,1999,34491,34465,0,0,0,0,0,1,5,0,0,0,1,19,0,0,0,0,0,0,0,0,0,0
ZW,Zimbabwe,country,Sub-Saharan Africa,-19.015438,29.154857,CI,Ivory Coast,country,Sub-Saharan Africa,7.539989,-5.54708,4819.99531215582,1999,23,0,0,0,0,0,0,0,0,0,0,0,0,23,0,0,0,0,0,0,0,0,0,0
AL,Albania,country,Europe and Central Asia,41.153332,20.168331,CI,Ivory Coast,country,Sub-Saharan Africa,7.539989,-5.54708,4523.5509826958,2000,0,0,0,0,0,0,0,0,0,0,0,0,0,0,0,0,0,0,0,0,0,0,0,0
DZ,Algeria,country,Middle East and North Africa,28.033886,1.659626,CI,Ivory Coast,country,Sub-Saharan Africa,7.539989,-5.54708,2404.15056160486,2000,1,0,0,0,0,0,0,0,0,0,0,0,0,0,0,1,0,0,0,0,0,0,0,0
AR,Argentina,country,Latin America and the Caribbean,-38.416097,-63.616672,CI,Ivory Coast,country,Sub-Saharan Africa,7.539989,-5.54708,7878.65092120982,2000,694,85,0,0,0,0,0,8,7,0,0,0,0,31,0,0,0,96,467,0,0,0,0,0
AU,Australia,country,East Asia and Pacific,-25.274398,133.775136,CI,Ivory Coast,country,Sub-Saharan Africa,7.539989,-5.54708,15293.2880322565,2000,1384,645,0,0,0,0,0,0,0,0,0,0,0,0,16,0,0,633,90,0,0,0,0,0
AT,Austria,country,Europe and Central Asia,47.516231,14.550072,CI,Ivory Coast,country,Sub-Saharan Africa,7.539989,-5.54708,4840.83133195022,2000,2,0,0,0,0,0,0,0,0,0,0,2,0,0,0,0,0,0,0,0,0,0,0,0
BD,Bangladesh,country,South Asia,23.684994,90.356331,CI,Ivory Coast,country,Sub-Saharan Africa,7.539989,-5.54708,10278.1771094849,2000,18841,0,0,0,0,0,0,0,0,18841,0,0,0,0,0,0,0,0,0,0,0,0,0,0
BE,Belgium,country,Europe and Central Asia,50.503887,4.469936,CI,Ivory Coast,country,Sub-Saharan Africa,7.539989,-5.54708,4872.00148170953,2000,15524,2737,831,7090,27,0,0,1506,17,0,0,508,4,272,1488,22,53,260,762,0,0,0,0,0
BJ,Benin,country,Sub-Saharan Africa,9.30769,2.315834,CI,Ivory Coast,country,Sub-Saharan Africa,7.539989,-5.54708,887.881706377971,2000,4,0,0,0,0,0,0,0,0,4,0,0,0,0,0,0,0,0,0,0,0,0,0,0
BR,Brazil,country,Latin America and the Caribbean,-14.235004,-51.92528,CI,Ivory Coast,country,Sub-Saharan Africa,7.539989,-5.54708,5666.26308155989,2000,1236,25,0,543,0,0,0,1,3,0,2,0,38,340,40,0,0,203,41,0,0,0,0,0
BG,Bulgaria,country,Europe and Central Asia,42.733883,25.48583,CI,Ivory Coast,country,Sub-Saharan Africa,7.539989,-5.54708,4956.1288019931,2000,20,0,0,20,0,0,0,0,0,0,0,0,0,0,0,0,0,0,0,0,0,0,0,0
BF,Burkina Faso,country,Sub-Saharan Africa,12.238333,-1.561593,CI,Ivory Coast,country,Sub-Saharan Africa,7.539989,-5.54708,681.511893943706,2000,0,0,0,0,0,0,0,0,0,0,0,0,0,0,0,0,0,0,0,0,0,0,0,0
CM,Cameroon,country,Sub-Saharan Africa,7.369722,12.354722,CI,Ivory Coast,country,Sub-Saharan Africa,7.539989,-5.54708,1975.92850794525,2000,26,0,0,0,0,0,0,0,0,0,0,0,0,0,0,18,0,0,8,0,0,0,0,0
CA,Canada,country,North America,56.130366,-106.346771,CI,Ivory Coast,country,Sub-Saharan Africa,7.539989,-5.54708,9984.12882348189,2000,24984,23950,0,1,0,0,0,2,3,0,0,0,1,50,0,0,0,627,350,0,0,0,0,0
CL,Chile,country,Latin America and the Caribbean,-35.675147,-71.542969,CI,Ivory Coast,country,Sub-Saharan Africa,7.539989,-5.54708,8400.02260494521,2000,8,0,0,0,0,0,0,0,8,0,0,0,0,0,0,0,0,0,0,0,0,0,0,0
HK,Hong Kong,country,East Asia and Pacific,22.396428,114.109497,CI,Ivory Coast,country,Sub-Saharan Africa,7.539989,-5.54708,12668.0234094945,2000,12,0,0,0,0,0,0,0,0,0,0,0,11,1,0,0,0,0,0,0,0,0,0,0
CN,China,country,East Asia and Pacific,35.86166,104.195397,CI,Ivory Coast,country,Sub-Saharan Africa,7.539989,-5.54708,11267.3923795811,2000,183545,181745,0,3,0,1,16,787,2,0,1,0,561,420,1,3,0,4,1,0,0,0,0,0
TW,Taiwan,country,East Asia and Pacific,23.69781,120.960515,CI,Ivory Coast,country,Sub-Saharan Africa,7.539989,-5.54708,13265.3054609692,2000,4143,4000,0,0,0,0,1,0,3,0,0,0,0,5,5,0,0,0,129,0,0,0,0,0
CO,Colombia,country,Latin America and the Caribbean,4.570868,-74.297333,CI,Ivory Coast,country,Sub-Saharan Africa,7.539989,-5.54708,7610.89219629069,2000,82,0,0,57,0,0,0,0,0,0,0,0,18,7,0,0,0,0,0,0,0,0,0,0
CG,"Congo, Rep.",country,Sub-Saharan Africa,-0.228021,15.827659,CI,Ivory Coast,country,Sub-Saharan Africa,7.539989,-5.54708,2525.34480215893,2000,0,0,0,0,0,0,0,0,0,0,0,0,0,0,0,0,0,0,0,0,0,0,0,0
CR,Costa Rica,country,Latin America and the Caribbean,9.748917,-83.753428,CI,Ivory Coast,country,Sub-Saharan Africa,7.539989,-5.54708,8591.4761925189,2000,3,0,0,0,0,0,0,0,3,0,0,0,0,0,0,0,0,0,0,0,0,0,0,0
CU,Cuba,country,Latin America and the Caribbean,21.521757,-77.781167,CI,Ivory Coast,country,Sub-Saharan Africa,7.539989,-5.54708,7876.88297437434,2000,1,0,0,0,0,0,0,0,1,0,0,0,0,0,0,0,0,0,0,0,0,0,0,0
CY,Cyprus,country,Europe and Central Asia,35.126413,33.429859,CI,Ivory Coast,country,Sub-Saharan Africa,7.539989,-5.54708,5020.92149742369,2000,1,0,0,0,0,0,0,0,0,0,0,0,0,0,0,0,0,0,1,0,0,0,0,0
CZ,Czech Republic,country,Europe and Central Asia,49.817492,15.472962,CI,Ivory Coast,country,Sub-Saharan Africa,7.539989,-5.54708,5096.96468478398,2000,317,0,0,0,0,0,0,0,0,0,0,0,0,0,0,0,0,0,317,0,0,0,0,0
KP,"Korea, Dem. Rep.",country,East Asia and Pacific,40.339852,127.510093,CI,Ivory Coast,country,Sub-Saharan Africa,7.539989,-5.54708,12860.4886184806,2000,0,0,0,0,0,0,0,0,0,0,0,0,0,0,0,0,0,0,0,0,0,0,0,0
DK,Denmark,country,Europe and Central Asia,56.26392,9.501785,CI,Ivory Coast,country,Sub-Saharan Africa,7.539989,-5.54708,5582.45558634852,2000,622,56,0,325,0,0,0,0,14,0,0,22,1,43,37,48,0,25,51,0,0,0,0,0
DM,Dominica,country,Latin America and the Caribbean,15.414999,-61.370976,CI,Ivory Coast,country,Sub-Saharan Africa,7.539989,-5.54708,6136.96172872149,2000,0,0,0,0,0,0,0,0,0,0,0,0,0,0,0,0,0,0,0,0,0,0,0,0
EC,Ecuador,country,Latin America and the Caribbean,-1.831239,-78.183406,CI,Ivory Coast,country,Sub-Saharan Africa,7.539989,-5.54708,8132.06222114685,2000,1,0,0,0,0,0,0,0,1,0,0,0,0,0,0,0,0,0,0,0,0,0,0,0
EG,Egypt,country,Middle East and North Africa,26.820553,30.802498,CI,Ivory Coast,country,Sub-Saharan Africa,7.539989,-5.54708,4395.73378933376,2000,105,100,0,0,0,0,0,0,5,0,0,0,0,0,0,0,0,0,0,0,0,0,0,0
FI,Finland,country,Europe and Central Asia,61.92411,25.748151,CI,Ivory Coast,country,Sub-Saharan Africa,7.539989,-5.54708,6572.12716500708,2000,1,0,0,0,0,0,0,0,0,0,0,0,0,0,0,0,0,0,1,0,0,0,0,0
FR,France,country,Europe and Central Asia,46.227638,2.213749,CI,Ivory Coast,country,Sub-Saharan Africa,7.539989,-5.54708,4370.39126855878,2000,285824,238971,5357,10061,250,14,284,5573,2998,2,11,1030,190,3735,1033,5206,278,5130,5978,1,0,0,0,0
DE,Germany,country,Europe and Central Asia,51.165691,10.451526,CI,Ivory Coast,country,Sub-Saharan Africa,7.539989,-5.54708,5075.08263597784,2000,26118,11634,0,12289,160,0,0,185,4,0,0,0,2,75,466,78,0,48,1177,0,0,0,0,0
GR,Greece,country,Europe and Central Asia,39.074208,21.824312,CI,Ivory Coast,country,Sub-Saharan Africa,7.539989,-5.54708,4451.57879750711,2000,164,7,0,0,0,0,8,0,2,0,0,0,140,7,0,0,0,0,0,0,0,0,0,0
GN,Guinea,country,Sub-Saharan Africa,9.945587,-9.696645,CI,Ivory Coast,country,Sub-Saharan Africa,7.539989,-5.54708,529.267168854545,2000,674,0,0,0,0,0,0,0,0,0,0,0,0,674,0,0,0,0,0,0,0,0,0,0
HU,Hungary,country,Europe and Central Asia,47.162494,19.503304,CI,Ivory Coast,country,Sub-Saharan Africa,7.539989,-5.54708,5011.60681989734,2000,1,0,0,1,0,0,0,0,0,0,0,0,0,0,0,0,0,0,0,0,0,0,0,0
IS,Iceland,country,Europe and Central Asia,64.963051,-19.020835,CI,Ivory Coast,country,Sub-Saharan Africa,7.539989,-5.54708,6479.32977607717,2000,0,0,0,0,0,0,0,0,0,0,0,0,0,0,0,0,0,0,0,0,0,0,0,0
IN,India,country,South Asia,20.593684,78.96288,CI,Ivory Coast,country,Sub-Saharan Africa,7.539989,-5.54708,9155.46018044623,2000,546,60,14,0,132,1,0,4,5,0,12,0,2,13,0,0,0,303,0,0,0,0,0,0
ID,Indonesia,country,East Asia and Pacific,-0.789275,113.921327,CI,Ivory Coast,country,Sub-Saharan Africa,7.539989,-5.54708,13280.9184302216,2000,12805,0,0,0,9,0,0,8,0,0,1,0,0,11,12776,0,0,0,0,0,0,0,0,0
IR,Iran,country,Middle East and North Africa,32.427908,53.688046,CI,Ivory Coast,country,Sub-Saharan Africa,7.539989,-5.54708,6691.05852974488,2000,0,0,0,0,0,0,0,0,0,0,0,0,0,0,0,0,0,0,0,0,0,0,0,0
IE,Ireland,country,Europe and Central Asia,53.41291,-8.24389,CI,Ivory Coast,country,Sub-Saharan Africa,7.539989,-5.54708,5112.36256389571,2000,3228,0,0,0,0,0,0,0,0,0,0,0,0,0,0,1,0,25,3202,0,0,0,0,0
IL,Israel,country,Middle East and North Africa,31.046051,34.851612,CI,Ivory Coast,country,Sub-Saharan Africa,7.539989,-5.54708,4942.38956276781,2000,5,0,0,0,0,0,0,2,3,0,0,0,0,0,0,0,0,0,0,0,0,0,0,0
IT,Italy,country,Europe and Central Asia,41.87194,12.56738,CI,Ivory Coast,country,Sub-Saharan Africa,7.539989,-5.54708,4217.8390123033,2000,7019,736,486,63,60,0,0,2604,75,0,0,2,27,1652,295,152,0,660,200,7,0,0,0,0
JM,Jamaica,country,Latin America and the Caribbean,18.109581,-77.297508,CI,Ivory Coast,country,Sub-Saharan Africa,7.539989,-5.54708,7834.14178585357,2000,0,0,0,0,0,0,0,0,0,0,0,0,0,0,0,0,0,0,0,0,0,0,0,0
JP,Japan,country,East Asia and Pacific,36.204824,138.252924,CI,Ivory Coast,country,Sub-Saharan Africa,7.539989,-5.54708,13871.6786958923,2000,3278,3275,0,0,0,0,0,0,0,0,0,2,0,1,0,0,0,0,0,0,0,0,0,0
KE,Kenya,country,Sub-Saharan Africa,-0.023559,37.906193,CI,Ivory Coast,country,Sub-Saharan Africa,7.539989,-5.54708,4895.62480993882,2000,75,0,0,11,0,0,0,0,0,0,0,0,63,0,0,0,0,1,0,0,0,0,0,0
KW,Kuwait,country,Middle East and North Africa,29.31166,47.481766,CI,Ivory Coast,country,Sub-Saharan Africa,7.539989,-5.54708,6040.11252914554,2000,8,0,0,0,0,0,0,0,0,0,0,0,1,7,0,0,0,0,0,0,0,0,0,0
LB,Lebanon,country,Middle East and North Africa,33.854721,35.862285,CI,Ivory Coast,country,Sub-Saharan Africa,7.539989,-5.54708,5156.96399699335,2000,386,24,0,4,73,20,13,49,126,0,9,0,6,40,11,3,0,2,6,0,0,0,0,0
LR,Liberia,country,Sub-Saharan Africa,6.428055,-9.429499,CI,Ivory Coast,country,Sub-Saharan Africa,7.539989,-5.54708,446.475128720309,2000,1998,0,0,0,0,0,0,0,0,0,0,0,0,1998,0,0,0,0,0,0,0,0,0,0
MG,Madagascar,country,Sub-Saharan Africa,-18.766947,46.869107,CI,Ivory Coast,country,Sub-Saharan Africa,7.539989,-5.54708,6453.77103563836,2000,0,0,0,0,0,0,0,0,0,0,0,0,0,0,0,0,0,0,0,0,0,0,0,0
MY,Malaysia,country,East Asia and Pacific,4.210484,101.975766,CI,Ivory Coast,country,Sub-Saharan Africa,7.539989,-5.54708,11882.3348684421,2000,1136,0,0,0,0,0,0,0,0,0,0,0,0,0,471,0,0,0,665,0,0,0,0,0
ML,Mali,country,Sub-Saharan Africa,17.570692,-3.996166,CI,Ivory Coast,country,Sub-Saharan Africa,7.539989,-5.54708,1129.22052772098,2000,23975,17257,965,0,511,23,1632,2589,353,320,56,0,0,257,0,0,0,0,0,12,0,0,0,0
MX,Mexico,country,Latin America and the Caribbean,23.634501,-102.552784,CI,Ivory Coast,country,Sub-Saharan Africa,7.539989,-5.54708,10389.9548060867,2000,90,0,0,0,0,0,0,0,0,0,0,0,0,64,0,26,0,0,0,0,0,0,0,0
MA,Morocco,country,Middle East and North Africa,31.791702,-7.09262,CI,Ivory Coast,country,Sub-Saharan Africa,7.539989,-5.54708,2704.44444978598,2000,570,3,0,36,9,0,83,14,212,0,3,0,0,43,0,95,0,0,72,0,0,0,0,0
NL,Netherlands,country,Europe and Central Asia,52.132633,5.291266,CI,Ivory Coast,country,Sub-Saharan Africa,7.539989,-5.54708,5061.89043335153,2000,39928,173,9955,347,0,0,0,18025,22,0,0,57,13,154,827,287,77,1291,8777,0,0,0,0,0
NZ,New Zealand,country,East Asia and Pacific,-40.900557,174.885971,CI,Ivory Coast,country,Sub-Saharan Africa,7.539989,-5.54708,16323.5786695911,2000,123,0,0,0,0,0,0,3,5,0,0,0,0,0,0,0,0,34,81,0,0,0,0,0
NG,Nigeria,country,Sub-Saharan Africa,9.081999,8.675277,CI,Ivory Coast,country,Sub-Saharan Africa,7.539989,-5.54708,1575.84080612645,2000,0,0,0,0,0,0,0,0,0,0,0,0,0,0,0,0,0,0,0,0,0,0,0,0
NO,Norway,country,Europe and Central Asia,60.472024,8.468946,CI,Ivory Coast,country,Sub-Saharan Africa,7.539989,-5.54708,6007.85790339122,2000,9,0,0,0,0,0,0,0,0,0,0,0,0,0,0,0,0,0,9,0,0,0,0,0
OM,Oman,country,Middle East and North Africa,21.512583,55.923255,CI,Ivory Coast,country,Sub-Saharan Africa,7.539989,-5.54708,6762.6816384374,2000,37,0,0,0,0,0,0,0,0,0,0,0,0,0,37,0,0,0,0,0,0,0,0,0
PK,Pakistan,country,South Asia,30.375321,69.345116,CI,Ivory Coast,country,Sub-Saharan Africa,7.539989,-5.54708,8147.02149733683,2000,62600,62597,0,0,0,0,0,0,0,0,0,0,3,0,0,0,0,0,0,0,0,0,0,0
PY,Paraguay,country,Latin America and the Caribbean,-23.442503,-58.443832,CI,Ivory Coast,country,Sub-Saharan Africa,7.539989,-5.54708,6705.11682330958,2000,17,0,0,0,0,0,0,0,0,0,0,0,0,17,0,0,0,0,0,0,0,0,0,0
PE,Peru,country,Latin America and the Caribbean,-9.189967,-75.015152,CI,Ivory Coast,country,Sub-Saharan Africa,7.539989,-5.54708,7925.87066611809,2000,1,0,0,0,0,0,0,1,0,0,0,0,0,0,0,0,0,0,0,0,0,0,0,0
PH,Philippines,country,East Asia and Pacific,12.879721,121.774017,CI,Ivory Coast,country,Sub-Saharan Africa,7.539989,-5.54708,13784.2102093304,2000,0,0,0,0,0,0,0,0,0,0,0,0,0,0,0,0,0,0,0,0,0,0,0,0
PL,Poland,country,Europe and Central Asia,51.919438,19.145136,CI,Ivory Coast,country,Sub-Saharan Africa,7.539989,-5.54708,5431.31074290287,2000,0,0,0,0,0,0,0,0,0,0,0,0,0,0,0,0,0,0,0,0,0,0,0,0
PT,Portugal,country,Europe and Central Asia,39.399872,-8.224454,CI,Ivory Coast,country,Sub-Saharan Africa,7.539989,-5.54708,3556.71752979477,2000,592,21,0,0,0,0,0,395,2,0,0,0,0,0,126,32,0,0,16,0,0,0,0,0
KR,"Korea, Rep.",country,East Asia and Pacific,35.907757,127.766922,CI,Ivory Coast,country,Sub-Saharan Africa,7.539989,-5.54708,13167.5129026133,2000,8,1,0,0,0,0,0,0,0,0,0,2,0,5,0,0,0,0,0,0,0,0,0,0
RO,Romania,country,Europe and Central Asia,45.943161,24.96676,CI,Ivory Coast,country,Sub-Saharan Africa,7.539989,-5.54708,5177.82666988724,2000,0,0,0,0,0,0,0,0,0,0,0,0,0,0,0,0,0,0,0,0,0,0,0,0
RU,Russian Federation,country,Europe and Central Asia,61.52401,105.318756,CI,Ivory Coast,country,Sub-Saharan Africa,7.539989,-5.54708,10357.0324916913,2000,5072,5070,0,0,0,0,0,0,0,0,0,2,0,0,0,0,0,0,0,0,0,0,0,0
SA,Saudi Arabia,country,Middle East and North Africa,23.885942,45.079162,CI,Ivory Coast,country,Sub-Saharan Africa,7.539989,-5.54708,5686.79999469402,2000,2,0,0,0,0,0,0,0,1,0,0,0,1,0,0,0,0,0,0,0,0,0,0,0
SN,Senegal,country,Sub-Saharan Africa,14.497401,-14.452362,CI,Ivory Coast,country,Sub-Saharan Africa,7.539989,-5.54708,1243.10698857908,2000,165,25,0,7,33,0,1,15,0,0,14,0,0,7,1,0,0,0,62,0,0,0,0,0
RS,Serbia,country,Europe and Central Asia,44.016521,21.005859,CI,Ivory Coast,country,Sub-Saharan Africa,7.539989,-5.54708,4809.61628628367,2000,1,0,0,0,0,0,0,0,0,0,0,1,0,0,0,0,0,0,0,0,0,0,0,0
SL,Sierra Leone,country,Sub-Saharan Africa,8.460555,-11.779889,CI,Ivory Coast,country,Sub-Saharan Africa,7.539989,-5.54708,694.666189043969,2000,21,0,0,0,0,0,0,0,0,0,0,0,0,0,21,0,0,0,0,0,0,0,0,0
SG,Singapore,country,East Asia and Pacific,1.352083,103.819836,CI,Ivory Coast,country,Sub-Saharan Africa,7.539989,-5.54708,12133.7786075691,2000,8,4,0,0,0,0,0,0,1,0,0,0,0,1,0,0,0,0,2,0,0,0,0,0
ZA,S. Africa,country,Sub-Saharan Africa,-30.559482,22.937506,CI,Ivory Coast,country,Sub-Saharan Africa,7.539989,-5.54708,5218.01866045703,2000,5420,2027,0,109,21,0,0,20,2560,0,3,36,2,124,0,492,0,17,9,0,0,0,0,0
ES,Spain,country,Europe and Central Asia,40.463667,-3.74922,CI,Ivory Coast,country,Sub-Saharan Africa,7.539989,-5.54708,3669.4017707212,2000,26160,219,0,2203,30,9,2,438,151,0,1,25,7,3314,1147,18436,0,113,65,0,0,0,0,0
LK,Sri Lanka,country,South Asia,7.873054,80.771797,CI,Ivory Coast,country,Sub-Saharan Africa,7.539989,-5.54708,9501.41429580975,2000,123,0,0,0,0,0,0,0,0,0,0,0,123,0,0,0,0,0,0,0,0,0,0,0
SE,Sweden,country,Europe and Central Asia,60.128161,18.643501,CI,Ivory Coast,country,Sub-Saharan Africa,7.539989,-5.54708,6195.43019688633,2000,16,0,0,0,0,0,0,0,0,0,0,0,0,0,0,0,0,0,16,0,0,0,0,0
CH,Switzerland,country,Europe and Central Asia,46.818188,8.227512,CI,Ivory Coast,country,Sub-Saharan Africa,7.539989,-5.54708,4565.45223271555,2000,144,15,0,0,0,0,0,0,0,0,0,0,0,127,0,2,0,0,0,0,0,0,0,0
SY,Syrian Arab Rep.,country,Middle East and North Africa,34.802075,38.996815,CI,Ivory Coast,country,Sub-Saharan Africa,7.539989,-5.54708,5463.08551987388,2000,16,2,0,0,0,0,1,3,6,0,0,0,0,1,2,1,0,0,0,0,0,0,0,0
TH,Thailand,country,East Asia and Pacific,15.870032,100.992541,CI,Ivory Coast,country,Sub-Saharan Africa,7.539989,-5.54708,11535.5571368882,2000,88625,88621,0,0,0,0,0,0,0,0,0,1,0,2,0,0,0,0,1,0,0,0,0,0
TG,Togo,country,Sub-Saharan Africa,8.619543,0.824782,CI,Ivory Coast,country,Sub-Saharan Africa,7.539989,-5.54708,712.46167154545,2000,17,0,0,0,0,0,0,0,0,0,0,0,0,0,0,17,0,0,0,0,0,0,0,0
TN,Tunisia,country,Middle East and North Africa,33.886917,9.537499,CI,Ivory Coast,country,Sub-Saharan Africa,7.539989,-5.54708,3317.31126279574,2000,5451,5130,0,90,0,0,0,10,10,0,68,0,0,143,0,0,0,0,0,0,0,0,0,0
TR,Turkey,country,Europe and Central Asia,38.963745,35.243322,CI,Ivory Coast,country,Sub-Saharan Africa,7.539989,-5.54708,5369.24942622934,2000,494,72,1,204,0,2,0,24,18,0,0,0,1,92,80,0,0,0,0,0,0,0,0,0
AE,United Arab Emirates,country,Middle East and North Africa,23.424076,53.847818,CI,Ivory Coast,country,Sub-Saharan Africa,7.539989,-5.54708,6566.01423607969,2000,17,0,0,0,15,0,0,0,0,1,0,0,0,1,0,0,0,0,0,0,0,0,0,0
GB,United Kingdom,country,Europe and Central Asia,55.378051,-3.435973,CI,Ivory Coast,country,Sub-Saharan Africa,7.539989,-5.54708,5328.59738495614,2000,4173,262,0,50,0,0,0,4,9,0,44,57,29,237,5,267,3,43,3166,0,0,0,0,0
US,USA,country,North America,37.09024,-95.712891,CI,Ivory Coast,country,Sub-Saharan Africa,7.539989,-5.54708,9528.13940497655,2000,37003,31717,0,2,0,1,0,164,9,0,125,0,1,480,3,7,0,4449,45,0,0,0,0,0
VN,Vietnam,country,East Asia and Pacific,14.058324,108.277199,CI,Ivory Coast,country,Sub-Saharan Africa,7.539989,-5.54708,12344.202614124,2000,72949,72948,0,0,0,0,0,0,0,0,0,0,0,1,0,0,0,0,0,0,0,0,0,0
ZW,Zimbabwe,country,Sub-Saharan Africa,-19.015438,29.154857,CI,Ivory Coast,country,Sub-Saharan Africa,7.539989,-5.54708,4819.99531215582,2000,8,4,0,0,0,0,0,1,0,0,1,0,0,0,0,0,0,0,2,0,0,0,0,0
AL,Albania,country,Europe and Central Asia,41.153332,20.168331,CI,Ivory Coast,country,Sub-Saharan Africa,7.539989,-5.54708,4523.5509826958,2001,2,0,0,0,0,0,0,0,0,0,1,0,0,1,0,0,0,0,0,0,0,0,0,0
DZ,Algeria,country,Middle East and North Africa,28.033886,1.659626,CI,Ivory Coast,country,Sub-Saharan Africa,7.539989,-5.54708,2404.15056160486,2001,0,0,0,0,0,0,0,0,0,0,0,0,0,0,0,0,0,0,0,0,0,0,0,0
AR,Argentina,country,Latin America and the Caribbean,-38.416097,-63.616672,CI,Ivory Coast,country,Sub-Saharan Africa,7.539989,-5.54708,7878.65092120982,2001,701,0,0,0,0,0,0,9,14,0,0,0,26,24,110,0,0,64,454,0,0,0,0,0
AU,Australia,country,East Asia and Pacific,-25.274398,133.775136,CI,Ivory Coast,country,Sub-Saharan Africa,7.539989,-5.54708,15293.2880322565,2001,1119,0,0,0,0,0,0,0,11,0,0,0,0,0,0,0,0,1072,36,0,0,0,0,0
AT,Austria,country,Europe and Central Asia,47.516231,14.550072,CI,Ivory Coast,country,Sub-Saharan Africa,7.539989,-5.54708,4840.83133195022,2001,1,0,0,0,0,0,0,1,0,0,0,0,0,0,0,0,0,0,0,0,0,0,0,0
BD,Bangladesh,country,South Asia,23.684994,90.356331,CI,Ivory Coast,country,Sub-Saharan Africa,7.539989,-5.54708,10278.1771094849,2001,11903,0,0,0,0,0,0,0,0,11903,0,0,0,0,0,0,0,0,0,0,0,0,0,0
BR,Brazil,country,Latin America and the Caribbean,-14.235004,-51.92528,CI,Ivory Coast,country,Sub-Saharan Africa,7.539989,-5.54708,5666.26308155989,2001,2510,81,0,1244,0,0,0,0,18,0,3,500,0,340,0,0,0,318,6,0,0,0,0,0
BG,Bulgaria,country,Europe and Central Asia,42.733883,25.48583,CI,Ivory Coast,country,Sub-Saharan Africa,7.539989,-5.54708,4956.1288019931,2001,75,0,0,56,0,0,0,0,0,0,0,0,0,19,0,0,0,0,0,0,0,0,0,0
BF,Burkina Faso,country,Sub-Saharan Africa,12.238333,-1.561593,CI,Ivory Coast,country,Sub-Saharan Africa,7.539989,-5.54708,681.511893943706,2001,833,0,0,0,0,0,0,7,0,799,0,0,0,27,0,0,0,0,0,0,0,0,0,0
CM,Cameroon,country,Sub-Saharan Africa,7.369722,12.354722,CI,Ivory Coast,country,Sub-Saharan Africa,7.539989,-5.54708,1975.92850794525,2001,0,0,0,0,0,0,0,0,0,0,0,0,0,0,0,0,0,0,0,0,0,0,0,0
CA,Canada,country,North America,56.130366,-106.346771,CI,Ivory Coast,country,Sub-Saharan Africa,7.539989,-5.54708,9984.12882348189,2001,12089,10732,0,1,12,0,1,3,16,0,0,0,0,408,0,3,0,530,383,0,0,0,0,0
CL,Chile,country,Latin America and the Caribbean,-35.675147,-71.542969,CI,Ivory Coast,country,Sub-Saharan Africa,7.539989,-5.54708,8400.02260494521,2001,59,0,8,0,0,0,0,6,44,0,0,0,0,0,0,1,0,0,0,0,0,0,0,0
HK,Hong Kong,country,East Asia and Pacific,22.396428,114.109497,CI,Ivory Coast,country,Sub-Saharan Africa,7.539989,-5.54708,12668.0234094945,2001,0,0,0,0,0,0,0,0,0,0,0,0,0,0,0,0,0,0,0,0,0,0,0,0
CN,China,country,East Asia and Pacific,35.86166,104.195397,CI,Ivory Coast,country,Sub-Saharan Africa,7.539989,-5.54708,11267.3923795811,2001,165109,162870,2,0,0,0,1,910,4,0,0,2,1205,101,0,0,0,14,0,0,0,0,0,0
TW,Taiwan,country,East Asia and Pacific,23.69781,120.960515,CI,Ivory Coast,country,Sub-Saharan Africa,7.539989,-5.54708,13265.3054609692,2001,8181,8154,0,0,0,0,0,0,4,0,0,0,0,0,23,0,0,0,0,0,0,0,0,0
CO,Colombia,country,Latin America and the Caribbean,4.570868,-74.297333,CI,Ivory Coast,country,Sub-Saharan Africa,7.539989,-5.54708,7610.89219629069,2001,104,0,0,86,0,0,0,0,7,0,0,0,0,11,0,0,0,0,0,0,0,0,0,0
CG,"Congo, Rep.",country,Sub-Saharan Africa,-0.228021,15.827659,CI,Ivory Coast,country,Sub-Saharan Africa,7.539989,-5.54708,2525.34480215893,2001,0,0,0,0,0,0,0,0,0,0,0,0,0,0,0,0,0,0,0,0,0,0,0,0
CR,Costa Rica,country,Latin America and the Caribbean,9.748917,-83.753428,CI,Ivory Coast,country,Sub-Saharan Africa,7.539989,-5.54708,8591.4761925189,2001,5,0,0,0,0,0,0,0,5,0,0,0,0,0,0,0,0,0,0,0,0,0,0,0
CU,Cuba,country,Latin America and the Caribbean,21.521757,-77.781167,CI,Ivory Coast,country,Sub-Saharan Africa,7.539989,-5.54708,7876.88297437434,2001,1,0,0,0,0,0,0,0,0,0,0,0,0,1,0,0,0,0,0,0,0,0,0,0
CY,Cyprus,country,Europe and Central Asia,35.126413,33.429859,CI,Ivory Coast,country,Sub-Saharan Africa,7.539989,-5.54708,5020.92149742369,2001,1,0,0,0,0,0,0,0,1,0,0,0,0,0,0,0,0,0,0,0,0,0,0,0
CZ,Czech Republic,country,Europe and Central Asia,49.817492,15.472962,CI,Ivory Coast,country,Sub-Saharan Africa,7.539989,-5.54708,5096.96468478398,2001,342,0,0,0,0,0,0,0,0,0,0,0,0,0,0,0,0,0,342,0,0,0,0,0
KP,"Korea, Dem. Rep.",country,East Asia and Pacific,40.339852,127.510093,CI,Ivory Coast,country,Sub-Saharan Africa,7.539989,-5.54708,12860.4886184806,2001,0,0,0,0,0,0,0,0,0,0,0,0,0,0,0,0,0,0,0,0,0,0,0,0
CD,"Congo, Dem. Rep.",country,Sub-Saharan Africa,-4.038333,21.758664,CI,Ivory Coast,country,Sub-Saharan Africa,7.539989,-5.54708,3295.50483663146,2001,0,0,0,0,0,0,0,0,0,0,0,0,0,0,0,0,0,0,0,0,0,0,0,0
DK,Denmark,country,Europe and Central Asia,56.26392,9.501785,CI,Ivory Coast,country,Sub-Saharan Africa,7.539989,-5.54708,5582.45558634852,2001,789,34,0,327,0,0,0,0,59,0,0,0,1,2,74,49,0,0,243,0,0,0,0,0
EC,Ecuador,country,Latin America and the Caribbean,-1.831239,-78.183406,CI,Ivory Coast,country,Sub-Saharan Africa,7.539989,-5.54708,8132.06222114685,2001,3,0,0,0,0,0,0,0,3,0,0,0,0,0,0,0,0,0,0,0,0,0,0,0
EG,Egypt,country,Middle East and North Africa,26.820553,30.802498,CI,Ivory Coast,country,Sub-Saharan Africa,7.539989,-5.54708,4395.73378933376,2001,22935,22914,0,2,0,0,0,2,10,0,0,0,7,0,0,0,0,0,0,0,0,0,0,0
ET,Ethiopia,country,Sub-Saharan Africa,9.145,40.489673,CI,Ivory Coast,country,Sub-Saharan Africa,7.539989,-5.54708,5070.46530687454,2001,4,0,0,0,0,0,0,0,0,0,4,0,0,0,0,0,0,0,0,0,0,0,0,0
FR,France,country,Europe and Central Asia,46.227638,2.213749,CI,Ivory Coast,country,Sub-Saharan Africa,7.539989,-5.54708,4370.39126855878,2001,291304,246435,3675,10669,566,12,340,3964,2619,3,12,1094,222,4490,457,3413,155,5966,7367,0,0,0,0,0
GA,Gabon,country,Sub-Saharan Africa,-0.803689,11.609444,CI,Ivory Coast,country,Sub-Saharan Africa,7.539989,-5.54708,2119.21111851454,2001,1,0,0,0,0,0,0,0,0,0,0,0,1,0,0,0,0,0,0,0,0,0,0,0
GM,The Gambia,country,Sub-Saharan Africa,13.443182,-15.310139,CI,Ivory Coast,country,Sub-Saharan Africa,7.539989,-5.54708,1254.04832662711,2001,5,0,0,0,0,0,0,0,0,0,5,0,0,0,0,0,0,0,0,0,0,0,0,0
DE,Germany,country,Europe and Central Asia,51.165691,10.451526,CI,Ivory Coast,country,Sub-Saharan Africa,7.539989,-5.54708,5075.08263597784,2001,50043,43901,0,2621,0,0,0,170,4,0,0,1,10,60,668,194,4,992,1422,0,0,0,0,0
GH,Ghana,country,Sub-Saharan Africa,7.946527,-1.023194,CI,Ivory Coast,country,Sub-Saharan Africa,7.539989,-5.54708,501.049276283363,2001,10,0,0,0,0,0,0,0,0,0,0,10,0,0,0,0,0,0,0,0,0,0,0,0
GR,Greece,country,Europe and Central Asia,39.074208,21.824312,CI,Ivory Coast,country,Sub-Saharan Africa,7.539989,-5.54708,4451.57879750711,2001,230,0,0,0,0,0,0,0,10,0,0,0,207,13,0,0,0,0,0,0,0,0,0,0
GT,Guatemala,country,Latin America and the Caribbean,15.783471,-90.230759,CI,Ivory Coast,country,Sub-Saharan Africa,7.539989,-5.54708,9225.29983904773,2001,0,0,0,0,0,0,0,0,0,0,0,0,0,0,0,0,0,0,0,0,0,0,0,0
GN,Guinea,country,Sub-Saharan Africa,9.945587,-9.696645,CI,Ivory Coast,country,Sub-Saharan Africa,7.539989,-5.54708,529.267168854545,2001,980,0,0,0,0,0,0,0,0,0,0,0,0,980,0,0,0,0,0,0,0,0,0,0
HN,Honduras,country,Latin America and the Caribbean,15.199999,-86.241905,CI,Ivory Coast,country,Sub-Saharan Africa,7.539989,-5.54708,8805.39944731665,2001,0,0,0,0,0,0,0,0,0,0,0,0,0,0,0,0,0,0,0,0,0,0,0,0
HU,Hungary,country,Europe and Central Asia,47.162494,19.503304,CI,Ivory Coast,country,Sub-Saharan Africa,7.539989,-5.54708,5011.60681989734,2001,2,0,0,2,0,0,0,0,0,0,0,0,0,0,0,0,0,0,0,0,0,0,0,0
IS,Iceland,country,Europe and Central Asia,64.963051,-19.020835,CI,Ivory Coast,country,Sub-Saharan Africa,7.539989,-5.54708,6479.32977607717,2001,0,0,0,0,0,0,0,0,0,0,0,0,0,0,0,0,0,0,0,0,0,0,0,0
IN,India,country,South Asia,20.593684,78.96288,CI,Ivory Coast,country,Sub-Saharan Africa,7.539989,-5.54708,9155.46018044623,2001,16762,16576,0,0,1,0,0,0,0,0,23,0,0,0,1,0,0,18,143,0,0,0,0,0
ID,Indonesia,country,East Asia and Pacific,-0.789275,113.921327,CI,Ivory Coast,country,Sub-Saharan Africa,7.539989,-5.54708,13280.9184302216,2001,33298,0,0,0,0,0,0,0,1,0,5,0,4,47,33241,0,0,0,0,0,0,0,0,0
IR,Iran,country,Middle East and North Africa,32.427908,53.688046,CI,Ivory Coast,country,Sub-Saharan Africa,7.539989,-5.54708,6691.05852974488,2001,1,0,0,0,0,0,1,0,0,0,0,0,0,0,0,0,0,0,0,0,0,0,0,0
IE,Ireland,country,Europe and Central Asia,53.41291,-8.24389,CI,Ivory Coast,country,Sub-Saharan Africa,7.539989,-5.54708,5112.36256389571,2001,2386,0,0,0,0,0,0,0,0,0,0,0,0,1,0,1,0,150,2234,0,0,0,0,0
IL,Israel,country,Middle East and North Africa,31.046051,34.851612,CI,Ivory Coast,country,Sub-Saharan Africa,7.539989,-5.54708,4942.38956276781,2001,1,0,0,0,0,0,0,0,0,0,0,0,0,1,0,0,0,0,0,0,0,0,0,0
IT,Italy,country,Europe and Central Asia,41.87194,12.56738,CI,Ivory Coast,country,Sub-Saharan Africa,7.539989,-5.54708,4217.8390123033,2001,15209,278,1264,123,51,2,193,6732,90,0,0,3,17,2670,508,136,0,2996,136,10,0,0,0,0
JP,Japan,country,East Asia and Pacific,36.204824,138.252924,CI,Ivory Coast,country,Sub-Saharan Africa,7.539989,-5.54708,13871.6786958923,2001,5,1,0,0,0,0,0,0,0,0,0,3,0,1,0,0,0,0,0,0,0,0,0,0
KE,Kenya,country,Sub-Saharan Africa,-0.023559,37.906193,CI,Ivory Coast,country,Sub-Saharan Africa,7.539989,-5.54708,4895.62480993882,2001,121,0,0,0,0,0,0,0,0,0,0,0,113,8,0,0,0,0,0,0,0,0,0,0
LB,Lebanon,country,Middle East and North Africa,33.854721,35.862285,CI,Ivory Coast,country,Sub-Saharan Africa,7.539989,-5.54708,5156.96399699335,2001,522,38,0,10,61,7,14,47,222,0,19,0,9,45,16,7,0,19,8,0,0,0,0,0
LR,Liberia,country,Sub-Saharan Africa,6.428055,-9.429499,CI,Ivory Coast,country,Sub-Saharan Africa,7.539989,-5.54708,446.475128720309,2001,1273,90,0,0,11,0,0,0,0,0,0,0,0,1165,7,0,0,0,0,0,0,0,0,0
MG,Madagascar,country,Sub-Saharan Africa,-18.766947,46.869107,CI,Ivory Coast,country,Sub-Saharan Africa,7.539989,-5.54708,6453.77103563836,2001,1,0,0,0,0,0,0,0,0,0,1,0,0,0,0,0,0,0,0,0,0,0,0,0
MY,Malaysia,country,East Asia and Pacific,4.210484,101.975766,CI,Ivory Coast,country,Sub-Saharan Africa,7.539989,-5.54708,11882.3348684421,2001,2773,0,0,0,0,0,0,0,0,0,0,0,0,0,1141,0,0,0,1632,0,0,0,0,0
ML,Mali,country,Sub-Saharan Africa,17.570692,-3.996166,CI,Ivory Coast,country,Sub-Saharan Africa,7.539989,-5.54708,1129.22052772098,2001,17653,14791,1031,0,383,0,144,722,76,296,50,10,1,91,0,0,0,0,58,0,0,0,0,0
MX,Mexico,country,Latin America and the Caribbean,23.634501,-102.552784,CI,Ivory Coast,country,Sub-Saharan Africa,7.539989,-5.54708,10389.9548060867,2001,79,0,0,11,0,0,0,0,0,0,0,0,10,1,0,9,0,48,0,0,0,0,0,0
MA,Morocco,country,Middle East and North Africa,31.791702,-7.09262,CI,Ivory Coast,country,Sub-Saharan Africa,7.539989,-5.54708,2704.44444978598,2001,566,0,0,21,12,0,121,30,106,0,4,0,0,15,1,133,0,0,123,0,0,0,0,0
MM,Myanmar,country,East Asia and Pacific,21.913965,95.956223,CI,Ivory Coast,country,Sub-Saharan Africa,7.539989,-5.54708,10878.8539322607,2001,61022,61022,0,0,0,0,0,0,0,0,0,0,0,0,0,0,0,0,0,0,0,0,0,0
NL,Netherlands,country,Europe and Central Asia,52.132633,5.291266,CI,Ivory Coast,country,Sub-Saharan Africa,7.539989,-5.54708,5061.89043335153,2001,32799,813,8593,3091,0,0,0,11307,13,1,0,46,14,175,193,357,62,1288,6908,0,0,0,0,0
NZ,New Zealand,country,East Asia and Pacific,-40.900557,174.885971,CI,Ivory Coast,country,Sub-Saharan Africa,7.539989,-5.54708,16323.5786695911,2001,202,0,0,0,0,0,0,0,8,0,0,0,0,0,0,0,0,23,171,0,0,0,0,0
NE,Niger,country,Sub-Saharan Africa,17.607789,8.081666,CI,Ivory Coast,country,Sub-Saharan Africa,7.539989,-5.54708,1855.18700208386,2001,0,0,0,0,0,0,0,0,0,0,0,0,0,0,0,0,0,0,0,0,0,0,0,0
NG,Nigeria,country,Sub-Saharan Africa,9.081999,8.675277,CI,Ivory Coast,country,Sub-Saharan Africa,7.539989,-5.54708,1575.84080612645,2001,8,0,0,0,0,0,0,0,0,0,0,0,0,0,0,8,0,0,0,0,0,0,0,0
NO,Norway,country,Europe and Central Asia,60.472024,8.468946,CI,Ivory Coast,country,Sub-Saharan Africa,7.539989,-5.54708,6007.85790339122,2001,4,0,0,0,0,0,0,0,0,0,0,0,0,0,0,0,0,0,4,0,0,0,0,0
OM,Oman,country,Middle East and North Africa,21.512583,55.923255,CI,Ivory Coast,country,Sub-Saharan Africa,7.539989,-5.54708,6762.6816384374,2001,118,80,0,0,0,0,0,0,0,0,0,0,0,0,38,0,0,0,0,0,0,0,0,0
PK,Pakistan,country,South Asia,30.375321,69.345116,CI,Ivory Coast,country,Sub-Saharan Africa,7.539989,-5.54708,8147.02149733683,2001,88860,88842,0,18,0,0,0,0,0,0,0,0,0,0,0,0,0,0,0,0,0,0,0,0
PY,Paraguay,country,Latin America and the Caribbean,-23.442503,-58.443832,CI,Ivory Coast,country,Sub-Saharan Africa,7.539989,-5.54708,6705.11682330958,2001,9,0,0,0,0,0,0,0,0,0,0,0,0,9,0,0,0,0,0,0,0,0,0,0
PE,Peru,country,Latin America and the Caribbean,-9.189967,-75.015152,CI,Ivory Coast,country,Sub-Saharan Africa,7.539989,-5.54708,7925.87066611809,2001,1,0,0,0,0,0,0,1,0,0,0,0,0,0,0,0,0,0,0,0,0,0,0,0
PH,Philippines,country,East Asia and Pacific,12.879721,121.774017,CI,Ivory Coast,country,Sub-Saharan Africa,7.539989,-5.54708,13784.2102093304,2001,0,0,0,0,0,0,0,0,0,0,0,0,0,0,0,0,0,0,0,0,0,0,0,0
PL,Poland,country,Europe and Central Asia,51.919438,19.145136,CI,Ivory Coast,country,Sub-Saharan Africa,7.539989,-5.54708,5431.31074290287,2001,166,0,23,0,0,0,0,0,0,0,0,0,0,0,0,0,0,15,128,0,0,0,0,0
PT,Portugal,country,Europe and Central Asia,39.399872,-8.224454,CI,Ivory Coast,country,Sub-Saharan Africa,7.539989,-5.54708,3556.71752979477,2001,198,0,0,0,0,0,0,153,0,0,0,0,0,0,35,10,0,0,0,0,0,0,0,0
KR,"Korea, Rep.",country,East Asia and Pacific,35.907757,127.766922,CI,Ivory Coast,country,Sub-Saharan Africa,7.539989,-5.54708,13167.5129026133,2001,10,0,1,0,0,0,0,0,0,0,0,2,0,7,0,0,0,0,0,0,0,0,0,0
RU,Russian Federation,country,Europe and Central Asia,61.52401,105.318756,CI,Ivory Coast,country,Sub-Saharan Africa,7.539989,-5.54708,10357.0324916913,2001,3204,3202,0,0,0,0,0,0,0,0,0,1,0,0,0,1,0,0,0,0,0,0,0,0
SA,Saudi Arabia,country,Middle East and North Africa,23.885942,45.079162,CI,Ivory Coast,country,Sub-Saharan Africa,7.539989,-5.54708,5686.79999469402,2001,87,0,0,0,0,0,0,0,0,0,0,0,0,0,0,0,0,0,87,0,0,0,0,0
SN,Senegal,country,Sub-Saharan Africa,14.497401,-14.452362,CI,Ivory Coast,country,Sub-Saharan Africa,7.539989,-5.54708,1243.10698857908,2001,124,0,0,19,0,0,29,13,0,0,3,0,3,27,1,0,0,0,29,0,0,0,0,0
RS,Serbia,country,Europe and Central Asia,44.016521,21.005859,CI,Ivory Coast,country,Sub-Saharan Africa,7.539989,-5.54708,4809.61628628367,2001,2,0,0,0,0,0,0,0,0,0,1,1,0,0,0,0,0,0,0,0,0,0,0,0
SG,Singapore,country,East Asia and Pacific,1.352083,103.819836,CI,Ivory Coast,country,Sub-Saharan Africa,7.539989,-5.54708,12133.7786075691,2001,1137,0,51,0,19,0,17,52,0,0,0,0,0,0,559,0,0,0,439,0,0,0,0,0
ZA,S. Africa,country,Sub-Saharan Africa,-30.559482,22.937506,CI,Ivory Coast,country,Sub-Saharan Africa,7.539989,-5.54708,5218.01866045703,2001,7556,1948,371,68,0,0,0,385,3540,0,2,108,1,108,2,989,0,17,17,0,0,0,0,0
ES,Spain,country,Europe and Central Asia,40.463667,-3.74922,CI,Ivory Coast,country,Sub-Saharan Africa,7.539989,-5.54708,3669.4017707212,2001,32094,180,520,2288,41,7,3,286,251,0,0,48,5,3924,794,23455,0,26,266,0,0,0,0,0
LK,Sri Lanka,country,South Asia,7.873054,80.771797,CI,Ivory Coast,country,Sub-Saharan Africa,7.539989,-5.54708,9501.41429580975,2001,287,0,0,0,0,0,0,0,0,0,0,0,284,0,0,3,0,0,0,0,0,0,0,0
SE,Sweden,country,Europe and Central Asia,60.128161,18.643501,CI,Ivory Coast,country,Sub-Saharan Africa,7.539989,-5.54708,6195.43019688633,2001,198,0,0,0,0,0,0,0,0,0,0,0,0,0,0,0,0,182,16,0,0,0,0,0
CH,Switzerland,country,Europe and Central Asia,46.818188,8.227512,CI,Ivory Coast,country,Sub-Saharan Africa,7.539989,-5.54708,4565.45223271555,2001,319,0,0,0,0,0,0,0,0,0,0,27,0,146,0,0,0,0,146,0,0,0,0,0
SY,Syrian Arab Rep.,country,Middle East and North Africa,34.802075,38.996815,CI,Ivory Coast,country,Sub-Saharan Africa,7.539989,-5.54708,5463.08551987388,2001,20,0,0,0,5,0,3,0,6,0,0,0,1,4,0,1,0,0,0,0,0,0,0,0
TH,Thailand,country,East Asia and Pacific,15.870032,100.992541,CI,Ivory Coast,country,Sub-Saharan Africa,7.539989,-5.54708,11535.5571368882,2001,165022,165015,0,0,0,0,0,2,2,0,0,0,0,3,0,0,0,0,0,0,0,0,0,0
TG,Togo,country,Sub-Saharan Africa,8.619543,0.824782,CI,Ivory Coast,country,Sub-Saharan Africa,7.539989,-5.54708,712.46167154545,2001,35,0,0,0,0,0,0,0,0,0,0,0,0,0,0,35,0,0,0,0,0,0,0,0
TN,Tunisia,country,Middle East and North Africa,33.886917,9.537499,CI,Ivory Coast,country,Sub-Saharan Africa,7.539989,-5.54708,3317.31126279574,2001,15027,13210,0,215,0,3,0,29,27,0,78,0,1,214,1250,0,0,0,0,0,0,0,0,0
UG,Uganda,country,Sub-Saharan Africa,1.373333,32.290275,CI,Ivory Coast,country,Sub-Saharan Africa,7.539989,-5.54708,4252.51026543554,2001,34,0,0,0,0,0,0,0,0,0,0,0,0,34,0,0,0,0,0,0,0,0,0,0
AE,United Arab Emirates,country,Middle East and North Africa,23.424076,53.847818,CI,Ivory Coast,country,Sub-Saharan Africa,7.539989,-5.54708,6566.01423607969,2001,32,21,0,11,0,0,0,0,0,0,0,0,0,0,0,0,0,0,0,0,0,0,0,0
GB,United Kingdom,country,Europe and Central Asia,55.378051,-3.435973,CI,Ivory Coast,country,Sub-Saharan Africa,7.539989,-5.54708,5328.59738495614,2001,4449,304,0,84,3,0,0,4,33,0,33,10,12,90,3,276,0,27,3570,0,0,0,0,0
TZ,Tanzania,country,Sub-Saharan Africa,-6.369028,34.888822,CI,Ivory Coast,country,Sub-Saharan Africa,7.539989,-5.54708,4749.36243155675,2001,0,0,0,0,0,0,0,0,0,0,0,0,0,0,0,0,0,0,0,0,0,0,0,0
US,USA,country,North America,37.09024,-95.712891,CI,Ivory Coast,country,Sub-Saharan Africa,7.539989,-5.54708,9528.13940497655,2001,39004,33153,0,1,12,1,0,167,6,0,112,9,1,492,42,12,0,4996,0,0,0,0,0,0
UY,Uruguay,country,Latin America and the Caribbean,-32.522779,-55.765835,CI,Ivory Coast,country,Sub-Saharan Africa,7.539989,-5.54708,6939.09508896859,2001,50,0,0,0,0,0,0,0,0,0,0,0,0,0,0,0,0,50,0,0,0,0,0,0
VN,Vietnam,country,East Asia and Pacific,14.058324,108.277199,CI,Ivory Coast,country,Sub-Saharan Africa,7.539989,-5.54708,12344.202614124,2001,87363,87350,0,0,0,0,0,0,3,0,0,0,1,8,1,0,0,0,0,0,0,0,0,0
ZW,Zimbabwe,country,Sub-Saharan Africa,-19.015438,29.154857,CI,Ivory Coast,country,Sub-Saharan Africa,7.539989,-5.54708,4819.99531215582,2001,9,0,0,0,0,0,0,0,0,0,0,0,0,9,0,0,0,0,0,0,0,0,0,0
AL,Albania,country,Europe and Central Asia,41.153332,20.168331,CI,Ivory Coast,country,Sub-Saharan Africa,7.539989,-5.54708,4523.5509826958,2002,2,0,0,0,0,0,0,0,0,0,2,0,0,0,0,0,0,0,0,0,0,0,0,0
DZ,Algeria,country,Middle East and North Africa,28.033886,1.659626,CI,Ivory Coast,country,Sub-Saharan Africa,7.539989,-5.54708,2404.15056160486,2002,2,0,0,0,0,0,0,0,1,0,0,0,0,0,0,1,0,0,0,0,0,0,0,0
AR,Argentina,country,Latin America and the Caribbean,-38.416097,-63.616672,CI,Ivory Coast,country,Sub-Saharan Africa,7.539989,-5.54708,7878.65092120982,2002,664,237,0,0,2,0,0,23,10,0,0,0,26,14,0,0,0,302,50,0,0,0,0,0
AU,Australia,country,East Asia and Pacific,-25.274398,133.775136,CI,Ivory Coast,country,Sub-Saharan Africa,7.539989,-5.54708,15293.2880322565,2002,1385,0,0,0,3,0,0,0,1,0,0,0,0,0,0,0,0,1297,84,0,0,0,0,0
AT,Austria,country,Europe and Central Asia,47.516231,14.550072,CI,Ivory Coast,country,Sub-Saharan Africa,7.539989,-5.54708,4840.83133195022,2002,18,0,0,0,0,0,0,0,0,0,0,0,0,0,0,18,0,0,0,0,0,0,0,0
BD,Bangladesh,country,South Asia,23.684994,90.356331,CI,Ivory Coast,country,Sub-Saharan Africa,7.539989,-5.54708,10278.1771094849,2002,24184,0,0,0,0,0,0,0,0,24184,0,0,0,0,0,0,0,0,0,0,0,0,0,0
BE,Belgium,country,Europe and Central Asia,50.503887,4.469936,CI,Ivory Coast,country,Sub-Saharan Africa,7.539989,-5.54708,4872.00148170953,2002,18247,7442,790,3763,0,0,0,1929,5,2,0,483,5,387,2502,41,46,657,241,0,0,0,0,0
BJ,Benin,country,Sub-Saharan Africa,9.30769,2.315834,CI,Ivory Coast,country,Sub-Saharan Africa,7.539989,-5.54708,887.881706377971,2002,5,0,0,0,0,0,0,0,0,0,0,0,0,5,0,0,0,0,0,0,0,0,0,0
BR,Brazil,country,Latin America and the Caribbean,-14.235004,-51.92528,CI,Ivory Coast,country,Sub-Saharan Africa,7.539989,-5.54708,5666.26308155989,2002,16159,70,0,15034,0,0,0,0,25,0,1,76,83,97,20,0,0,751,2,0,0,0,0,0
BG,Bulgaria,country,Europe and Central Asia,42.733883,25.48583,CI,Ivory Coast,country,Sub-Saharan Africa,7.539989,-5.54708,4956.1288019931,2002,2432,0,0,2428,0,0,0,0,0,0,0,0,0,0,0,0,0,4,0,0,0,0,0,0
BF,Burkina Faso,country,Sub-Saharan Africa,12.238333,-1.561593,CI,Ivory Coast,country,Sub-Saharan Africa,7.539989,-5.54708,681.511893943706,2002,1203,0,0,0,0,0,0,2,0,1201,0,0,0,0,0,0,0,0,0,0,0,0,0,0
CM,Cameroon,country,Sub-Saharan Africa,7.369722,12.354722,CI,Ivory Coast,country,Sub-Saharan Africa,7.539989,-5.54708,1975.92850794525,2002,16,0,0,0,0,0,0,0,0,0,0,0,1,0,0,15,0,0,0,0,0,0,0,0
CA,Canada,country,North America,56.130366,-106.346771,CI,Ivory Coast,country,Sub-Saharan Africa,7.539989,-5.54708,9984.12882348189,2002,24749,23449,0,3,12,0,0,4,14,0,0,0,1,259,0,10,0,836,161,0,0,0,0,0
CL,Chile,country,Latin America and the Caribbean,-35.675147,-71.542969,CI,Ivory Coast,country,Sub-Saharan Africa,7.539989,-5.54708,8400.02260494521,2002,23,0,0,0,0,0,0,0,22,0,0,0,0,0,0,1,0,0,0,0,0,0,0,0
HK,Hong Kong,country,East Asia and Pacific,22.396428,114.109497,CI,Ivory Coast,country,Sub-Saharan Africa,7.539989,-5.54708,12668.0234094945,2002,1,0,0,0,0,0,0,0,0,0,0,0,0,1,0,0,0,0,0,0,0,0,0,0
CN,China,country,East Asia and Pacific,35.86166,104.195397,CI,Ivory Coast,country,Sub-Saharan Africa,7.539989,-5.54708,11267.3923795811,2002,63620,59500,57,0,0,0,2,2596,1,0,2,6,1278,89,5,5,0,15,64,0,0,0,0,0
TW,Taiwan,country,East Asia and Pacific,23.69781,120.960515,CI,Ivory Coast,country,Sub-Saharan Africa,7.539989,-5.54708,13265.3054609692,2002,26691,26681,0,0,0,0,0,0,3,0,0,0,0,0,7,0,0,0,0,0,0,0,0,0
CO,Colombia,country,Latin America and the Caribbean,4.570868,-74.297333,CI,Ivory Coast,country,Sub-Saharan Africa,7.539989,-5.54708,7610.89219629069,2002,84,0,0,65,0,0,0,0,15,0,0,0,3,1,0,0,0,0,0,0,0,0,0,0
KM,Comoros,country,Sub-Saharan Africa,-11.875001,43.872219,CI,Ivory Coast,country,Sub-Saharan Africa,7.539989,-5.54708,5881.74019589224,2002,0,0,0,0,0,0,0,0,0,0,0,0,0,0,0,0,0,0,0,0,0,0,0,0
CR,Costa Rica,country,Latin America and the Caribbean,9.748917,-83.753428,CI,Ivory Coast,country,Sub-Saharan Africa,7.539989,-5.54708,8591.4761925189,2002,4,0,0,0,0,0,0,0,4,0,0,0,0,0,0,0,0,0,0,0,0,0,0,0
CU,Cuba,country,Latin America and the Caribbean,21.521757,-77.781167,CI,Ivory Coast,country,Sub-Saharan Africa,7.539989,-5.54708,7876.88297437434,2002,0,0,0,0,0,0,0,0,0,0,0,0,0,0,0,0,0,0,0,0,0,0,0,0
CY,Cyprus,country,Europe and Central Asia,35.126413,33.429859,CI,Ivory Coast,country,Sub-Saharan Africa,7.539989,-5.54708,5020.92149742369,2002,5,0,0,0,0,0,0,0,0,0,0,0,0,0,0,0,0,0,5,0,0,0,0,0
CZ,Czech Republic,country,Europe and Central Asia,49.817492,15.472962,CI,Ivory Coast,country,Sub-Saharan Africa,7.539989,-5.54708,5096.96468478398,2002,614,0,0,0,0,0,0,0,0,3,0,0,0,0,0,0,0,0,611,0,0,0,0,0
DK,Denmark,country,Europe and Central Asia,56.26392,9.501785,CI,Ivory Coast,country,Sub-Saharan Africa,7.539989,-5.54708,5582.45558634852,2002,369,48,0,9,0,0,0,0,41,0,0,1,1,1,0,47,0,200,21,0,0,0,0,0
EC,Ecuador,country,Latin America and the Caribbean,-1.831239,-78.183406,CI,Ivory Coast,country,Sub-Saharan Africa,7.539989,-5.54708,8132.06222114685,2002,2,0,0,0,0,0,0,0,2,0,0,0,0,0,0,0,0,0,0,0,0,0,0,0
