sourceCode,sourceName,sourceGrouping,sourceRegion,sourceLat,sourceLong,destCode,destName,destGrouping,destRegion,destLat,destLong,distance,year,totalTons,cereals,roots,sugarCrops,pulses,nuts,oilCrops,vegetables,fruits,fibers,spices,fodderCrops,coffeeTea,tobaccoRubber,oilsFats,beverages,livestock,animalMeats,animalProducts,animalHides,nimalOther,pesticides,fertilizers,machinery
AR,Argentina,country,Latin America and the Caribbean,-38.416097,-63.616672,TR,Turkey,country,Europe and Central Asia,38.963745,35.243322,13245.2452872061,1986,364417,321307,0,0,0,0,0,0,0,21,0,0,0,0,43089,0,0,0,0,0,0,0,0,0
AU,Australia,country,East Asia and Pacific,-25.274398,133.775136,TR,Turkey,country,Europe and Central Asia,38.963745,35.243322,12455.3154126117,1986,52207,37575,0,0,0,0,0,0,0,9644,0,0,0,4604,0,0,0,32,0,352,0,0,0,0
AT,Austria,country,Europe and Central Asia,47.516231,14.550072,TR,Turkey,country,Europe and Central Asia,38.963745,35.243322,1920.66705517367,1986,3273,0,0,14,0,0,0,0,0,0,10,0,0,2,1,0,127,0,3172,74,0,0,0,0
BD,Bangladesh,country,South Asia,23.684994,90.356331,TR,Turkey,country,Europe and Central Asia,38.963745,35.243322,5422.38407587905,1986,3302,0,0,0,0,0,0,0,0,3302,0,0,0,0,0,0,0,0,0,0,0,0,0,0
BE,Belgium,country,Europe and Central Asia,50.503887,4.469936,TR,Turkey,country,Europe and Central Asia,38.963745,35.243322,2724.38245644223,1986,25523,0,0,36,0,0,0,0,26,105,0,627,6,21294,1969,5,0,730,61,664,0,0,0,0
BW,Botswana,country,Sub-Saharan Africa,-22.328474,24.684866,TR,Turkey,country,Europe and Central Asia,38.963745,35.243322,6911.2450730985,1986,5,0,0,0,0,0,0,0,0,0,0,0,0,0,0,0,0,0,0,5,0,0,0,0
BR,Brazil,country,Latin America and the Caribbean,-14.235004,-51.92528,TR,Turkey,country,Europe and Central Asia,38.963745,35.243322,10769.275578926,1986,6976,0,0,0,0,0,0,0,0,0,173,0,2792,84,3866,9,0,52,0,0,0,0,0,0
BG,Bulgaria,country,Europe and Central Asia,42.733883,25.48583,TR,Turkey,country,Europe and Central Asia,38.963745,35.243322,921.817036725782,1986,5942,0,0,0,0,0,0,0,0,0,0,0,0,0,5646,0,0,0,0,296,0,0,0,0
BF,Burkina Faso,country,Sub-Saharan Africa,12.238333,-1.561593,TR,Turkey,country,Europe and Central Asia,38.963745,35.243322,4689.04142940258,1986,9,0,0,0,0,0,0,0,0,0,0,0,0,9,0,0,0,0,0,0,0,0,0,0
KH,Cambodia,country,East Asia and Pacific,12.565679,104.990963,TR,Turkey,country,Europe and Central Asia,38.963745,35.243322,7397.44296683975,1986,60,0,0,0,0,0,60,0,0,0,0,0,0,0,0,0,0,0,0,0,0,0,0,0
CM,Cameroon,country,Sub-Saharan Africa,7.369722,12.354722,TR,Turkey,country,Europe and Central Asia,38.963745,35.243322,4198.3906351303,1986,51,0,0,0,0,0,0,0,0,0,3,0,0,48,0,0,0,0,0,0,0,0,0,0
CA,Canada,country,North America,56.130366,-106.346771,TR,Turkey,country,Europe and Central Asia,38.963745,35.243322,8847.72704375395,1986,2636,0,2406,0,0,0,15,0,0,0,0,0,0,0,0,0,0,0,0,215,0,0,0,0
CL,Chile,country,Latin America and the Caribbean,-35.675147,-71.542969,TR,Turkey,country,Europe and Central Asia,38.963745,35.243322,13726.5992452814,1986,0,0,0,0,0,0,0,0,0,0,0,0,0,0,0,0,0,0,0,0,0,0,0,0
HK,Hong Kong,country,East Asia and Pacific,22.396428,114.109497,TR,Turkey,country,Europe and Central Asia,38.963745,35.243322,7543.53328675246,1986,444,0,0,0,0,0,400,0,0,30,0,0,0,14,0,0,0,0,0,0,0,0,0,0
CN,China,country,East Asia and Pacific,35.86166,104.195397,TR,Turkey,country,Europe and Central Asia,38.963745,35.243322,5956.53871448264,1986,11575,8916,0,0,0,100,718,5,0,1039,43,0,0,54,700,0,0,0,0,0,0,0,0,0
TW,Taiwan,country,East Asia and Pacific,23.69781,120.960515,TR,Turkey,country,Europe and Central Asia,38.963745,35.243322,8035.8657388625,1986,999,0,0,0,0,0,0,0,0,0,0,0,0,1,998,0,0,0,0,0,0,0,0,0
CO,Colombia,country,Latin America and the Caribbean,4.570868,-74.297333,TR,Turkey,country,Europe and Central Asia,38.963745,35.243322,11362.5314489925,1986,181,0,0,0,0,0,0,0,181,0,0,0,0,0,0,0,0,0,0,0,0,0,0,0
CR,Costa Rica,country,Latin America and the Caribbean,9.748917,-83.753428,TR,Turkey,country,Europe and Central Asia,38.963745,35.243322,11729.3897610619,1986,12,0,0,0,0,0,0,0,12,0,0,0,0,0,0,0,0,0,0,0,0,0,0,0
CI,Ivory Coast,country,Sub-Saharan Africa,7.539989,-5.54708,TR,Turkey,country,Europe and Central Asia,38.963745,35.243322,5369.24942622934,1986,2698,0,0,0,0,0,147,0,13,0,0,0,2538,0,0,0,0,0,0,0,0,0,0,0
CZ,Czech Republic,country,Europe and Central Asia,49.817492,15.472962,TR,Turkey,country,Europe and Central Asia,38.963745,35.243322,1972.91568988641,1986,6398,0,0,0,0,0,0,0,0,0,0,0,0,0,0,0,0,4478,1867,53,0,0,0,0
DK,Denmark,country,Europe and Central Asia,56.26392,9.501785,TR,Turkey,country,Europe and Central Asia,38.963745,35.243322,2697.24897242748,1986,13429,9,0,0,0,0,0,0,5,0,0,221,0,10332,28,20,166,2252,552,10,0,0,0,0
DJ,Djibouti,country,Middle East and North Africa,11.825138,42.590275,TR,Turkey,country,Europe and Central Asia,38.963745,35.243322,3107.28770017967,1986,37,0,0,0,0,0,0,0,0,0,0,0,0,0,0,0,0,0,0,37,0,0,0,0
EC,Ecuador,country,Latin America and the Caribbean,-1.831239,-78.183406,TR,Turkey,country,Europe and Central Asia,38.963745,35.243322,12157.4591676915,1986,404,0,0,0,0,0,0,0,382,0,0,0,22,0,0,0,0,0,0,0,0,0,0,0
EG,Egypt,country,Middle East and North Africa,26.820553,30.802498,TR,Turkey,country,Europe and Central Asia,38.963745,35.243322,1413.54872030114,1986,943,0,0,0,35,0,0,0,0,853,0,0,0,55,0,0,0,0,0,0,0,0,0,0
FI,Finland,country,Europe and Central Asia,61.92411,25.748151,TR,Turkey,country,Europe and Central Asia,38.963745,35.243322,2636.70495934928,1986,602,0,0,0,0,0,0,0,0,0,0,0,0,0,342,0,0,0,260,0,0,0,0,0
FR,France,country,Europe and Central Asia,46.227638,2.213749,TR,Turkey,country,Europe and Central Asia,38.963745,35.243322,2802.00279829849,1986,60907,53226,0,362,0,0,4,4,0,0,0,94,62,2852,202,213,30,244,690,2954,0,0,0,0
GH,Ghana,country,Sub-Saharan Africa,7.946527,-1.023194,TR,Turkey,country,Europe and Central Asia,38.963745,35.243322,5002.86370236903,1986,459,0,0,0,0,0,0,0,0,0,0,0,447,12,0,0,0,0,0,0,0,0,0,0
GR,Greece,country,Europe and Central Asia,39.074208,21.824312,TR,Turkey,country,Europe and Central Asia,38.963745,35.243322,1159.59724710074,1986,27363,90,0,0,0,0,0,10129,0,2779,0,0,0,6725,6980,0,0,0,0,660,0,0,0,0
GT,Guatemala,country,Latin America and the Caribbean,15.783471,-90.230759,TR,Turkey,country,Europe and Central Asia,38.963745,35.243322,11717.3568809196,1986,122,0,0,0,0,0,60,0,0,0,4,0,58,0,0,0,0,0,0,0,0,0,0,0
HN,Honduras,country,Latin America and the Caribbean,15.199999,-86.241905,TR,Turkey,country,Europe and Central Asia,38.963745,35.243322,11479.4281412454,1986,80,0,0,0,0,0,0,0,80,0,0,0,0,0,0,0,0,0,0,0,0,0,0,0
HU,Hungary,country,Europe and Central Asia,47.162494,19.503304,TR,Turkey,country,Europe and Central Asia,38.963745,35.243322,1567.415228057,1986,4970,0,0,0,0,0,23,0,0,0,8,0,0,3,1482,0,0,3308,125,21,0,0,0,0
IN,India,country,South Asia,20.593684,78.96288,TR,Turkey,country,Europe and Central Asia,38.963745,35.243322,4636.35858129563,1986,20221,0,0,0,0,0,0,0,0,18602,282,0,0,1336,0,0,0,0,0,1,0,0,0,0
ID,Indonesia,country,East Asia and Pacific,-0.789275,113.921327,TR,Turkey,country,Europe and Central Asia,38.963745,35.243322,9097.27334314872,1986,13573,0,0,0,0,0,0,0,0,0,66,0,53,3359,10095,0,0,0,0,0,0,0,0,0
IR,Iran,country,Middle East and North Africa,32.427908,53.688046,TR,Turkey,country,Europe and Central Asia,38.963745,35.243322,1814.9385091785,1986,321,0,0,0,0,0,0,0,0,0,0,0,0,10,0,0,0,0,0,311,0,0,0,0
IQ,Iraq,country,Middle East and North Africa,33.223191,43.679291,TR,Turkey,country,Europe and Central Asia,38.963745,35.243322,991.255314597934,1986,47128,0,0,0,0,0,0,0,440,0,0,0,0,44200,0,0,0,0,0,2488,0,0,0,0
IE,Ireland,country,Europe and Central Asia,53.41291,-8.24389,TR,Turkey,country,Europe and Central Asia,38.963745,35.243322,3644.22486914243,1986,144,0,0,0,0,0,0,0,0,26,0,0,0,0,0,0,0,0,0,118,0,0,0,0
IL,Israel,country,Middle East and North Africa,31.046051,34.851612,TR,Turkey,country,Europe and Central Asia,38.963745,35.243322,882.114203446346,1986,28380,0,0,0,0,0,0,0,35,50,0,0,0,26302,1993,0,0,0,0,0,0,0,0,0
IT,Italy,country,Europe and Central Asia,41.87194,12.56738,TR,Turkey,country,Europe and Central Asia,38.963745,35.243322,1943.00856501574,1986,62420,37845,0,107,0,0,0,0,54,53,0,357,1,10142,11786,98,14,234,0,1743,0,0,0,0
JM,Jamaica,country,Latin America and the Caribbean,18.109581,-77.297508,TR,Turkey,country,Europe and Central Asia,38.963745,35.243322,10579.7192036996,1986,20,0,0,0,0,0,0,0,0,0,0,0,20,0,0,0,0,0,0,0,0,0,0,0
JP,Japan,country,East Asia and Pacific,36.204824,138.252924,TR,Turkey,country,Europe and Central Asia,38.963745,35.243322,8537.2610571626,1986,557,0,0,0,0,0,0,0,0,0,0,0,19,494,8,0,0,0,0,36,0,0,0,0
JO,Jordan,country,Middle East and North Africa,30.585164,36.238414,TR,Turkey,country,Europe and Central Asia,38.963745,35.243322,937.107780068079,1986,16426,0,0,0,0,0,0,0,0,2,0,0,0,15600,0,0,0,0,0,824,0,0,0,0
KW,Kuwait,country,Middle East and North Africa,29.31166,47.481766,TR,Turkey,country,Europe and Central Asia,38.963745,35.243322,1554.77462453809,1986,122286,0,0,0,0,0,0,0,0,54,0,0,0,120420,0,0,0,0,0,1812,0,0,0,0
LB,Lebanon,country,Middle East and North Africa,33.854721,35.862285,TR,Turkey,country,Europe and Central Asia,38.963745,35.243322,571.42622906272,1986,2098,0,0,0,0,0,0,0,0,0,0,0,0,500,0,0,0,0,0,1598,0,0,0,0
MG,Madagascar,country,Sub-Saharan Africa,-18.766947,46.869107,TR,Turkey,country,Europe and Central Asia,38.963745,35.243322,6539.85063542829,1986,51,0,0,0,0,0,0,0,0,0,44,0,0,7,0,0,0,0,0,0,0,0,0,0
MY,Malaysia,country,East Asia and Pacific,4.210484,101.975766,TR,Turkey,country,Europe and Central Asia,38.963745,35.243322,7721.15671220867,1986,122558,0,0,0,0,0,38,0,0,0,232,0,0,40511,81777,0,0,0,0,0,0,0,0,0
MX,Mexico,country,Latin America and the Caribbean,23.634501,-102.552784,TR,Turkey,country,Europe and Central Asia,38.963745,35.243322,11799.3735425116,1986,4919,0,0,0,0,0,4722,0,0,0,75,0,107,11,0,4,0,0,0,0,0,0,0,0
MA,Morocco,country,Middle East and North Africa,31.791702,-7.09262,TR,Turkey,country,Europe and Central Asia,38.963745,35.243322,3888.72766026092,1986,1,0,0,0,0,0,0,0,0,0,1,0,0,0,0,0,0,0,0,0,0,0,0,0
NA,Namibia,country,Sub-Saharan Africa,-22.95764,18.49041,TR,Turkey,country,Europe and Central Asia,38.963745,35.243322,7110.7878602447,1986,421,0,0,0,0,0,0,0,10,374,0,0,10,0,0,0,0,0,0,27,0,0,0,0
NL,Netherlands,country,Europe and Central Asia,52.132633,5.291266,TR,Turkey,country,Europe and Central Asia,38.963745,35.243322,2727.37266399519,1986,418564,60,4136,303,0,0,280,0,102,53,6,1134,559,401699,1431,5,689,4862,3459,475,0,0,0,0
NZ,New Zealand,country,East Asia and Pacific,-40.900557,174.885971,TR,Turkey,country,Europe and Central Asia,38.963745,35.243322,16616.4394144971,1986,35888,0,0,0,0,0,0,0,0,4475,0,0,0,30002,0,0,0,900,0,511,0,0,0,0
NI,Nicaragua,country,Latin America and the Caribbean,12.865416,-85.207229,TR,Turkey,country,Europe and Central Asia,38.963745,35.243322,11591.8550488197,1986,17,0,0,0,0,0,0,0,17,0,0,0,0,0,0,0,0,0,0,0,0,0,0,0
NE,Niger,country,Sub-Saharan Africa,17.607789,8.081666,TR,Turkey,country,Europe and Central Asia,38.963745,35.243322,3543.41235264415,1986,110,0,0,0,0,0,110,0,0,0,0,0,0,0,0,0,0,0,0,0,0,0,0,0
NG,Nigeria,country,Sub-Saharan Africa,9.081999,8.675277,TR,Turkey,country,Europe and Central Asia,38.963745,35.243322,4251.14330705406,1986,345,0,0,0,0,0,0,0,0,0,0,0,40,305,0,0,0,0,0,0,0,0,0,0
NO,Norway,country,Europe and Central Asia,60.472024,8.468946,TR,Turkey,country,Europe and Central Asia,38.963745,35.243322,3029.79944805119,1986,236,0,0,0,0,0,0,0,0,0,0,57,0,0,22,0,0,0,0,157,0,0,0,0
PK,Pakistan,country,South Asia,30.375321,69.345116,TR,Turkey,country,Europe and Central Asia,38.963745,35.243322,3243.80852610217,1986,981,54,0,0,0,0,0,0,0,886,0,0,0,41,0,0,0,0,0,0,0,0,0,0
PA,Panama,country,Latin America and the Caribbean,8.537981,-80.782127,TR,Turkey,country,Europe and Central Asia,38.963745,35.243322,11591.0443681426,1986,18,0,0,0,0,0,0,0,18,0,0,0,0,0,0,0,0,0,0,0,0,0,0,0
PY,Paraguay,country,Latin America and the Caribbean,-23.442503,-58.443832,TR,Turkey,country,Europe and Central Asia,38.963745,35.243322,11935.675644241,1986,0,0,0,0,0,0,0,0,0,0,0,0,0,0,0,0,0,0,0,0,0,0,0,0
PH,Philippines,country,East Asia and Pacific,12.879721,121.774017,TR,Turkey,country,Europe and Central Asia,38.963745,35.243322,8825.22876378843,1986,17184,0,0,0,0,0,40,0,340,0,0,0,0,0,16804,0,0,0,0,0,0,0,0,0
PL,Poland,country,Europe and Central Asia,51.919438,19.145136,TR,Turkey,country,Europe and Central Asia,38.963745,35.243322,1904.73467791636,1986,108,0,0,0,0,0,0,0,0,0,0,0,0,0,0,0,0,88,20,0,0,0,0,0
PT,Portugal,country,Europe and Central Asia,39.399872,-8.224454,TR,Turkey,country,Europe and Central Asia,38.963745,35.243322,3714.00348570757,1986,17072,0,0,0,0,0,0,0,0,0,0,0,0,0,17072,0,0,0,0,0,0,0,0,0
QA,Qatar,country,Middle East and North Africa,25.354826,51.183884,TR,Turkey,country,Europe and Central Asia,38.963745,35.243322,2127.04565436248,1986,62228,0,0,0,0,0,0,0,0,0,0,0,0,61430,0,0,0,0,0,798,0,0,0,0
KR,"Korea, Rep.",country,East Asia and Pacific,35.907757,127.766922,TR,Turkey,country,Europe and Central Asia,38.963745,35.243322,7798.8340616013,1986,4,0,0,0,0,0,0,0,0,0,3,0,0,1,0,0,0,0,0,0,0,0,0,0
RO,Romania,country,Europe and Central Asia,45.943161,24.96676,TR,Turkey,country,Europe and Central Asia,38.963745,35.243322,1145.4749902999,1986,3127,0,0,0,0,0,471,0,0,0,0,0,0,0,1761,0,0,742,153,0,0,0,0,0
SA,Saudi Arabia,country,Middle East and North Africa,23.885942,45.079162,TR,Turkey,country,Europe and Central Asia,38.963745,35.243322,1918.03492229189,1986,110937,0,0,0,0,0,0,0,0,637,0,0,0,98955,0,0,0,0,0,11345,0,0,0,0
SG,Singapore,country,East Asia and Pacific,1.352083,103.819836,TR,Turkey,country,Europe and Central Asia,38.963745,35.243322,8083.64958551106,1986,14468,0,0,0,0,0,300,0,0,0,43,0,0,6833,7292,0,0,0,0,0,0,0,0,0
ES,Spain,country,Europe and Central Asia,40.463667,-3.74922,TR,Turkey,country,Europe and Central Asia,38.963745,35.243322,3315.95022920572,1986,78869,14527,0,17,0,0,0,10,14288,270,0,0,195,7958,38300,3063,0,0,93,148,0,0,0,0
LK,Sri Lanka,country,South Asia,7.873054,80.771797,TR,Turkey,country,Europe and Central Asia,38.963745,35.243322,5706.83871006826,1986,550,0,0,0,0,0,483,0,0,0,39,0,0,28,0,0,0,0,0,0,0,0,0,0
SD,Sudan,country,Sub-Saharan Africa,12.862807,30.217636,TR,Turkey,country,Europe and Central Asia,38.963745,35.243322,2947.51011830892,1986,1333,0,0,0,0,0,979,0,0,300,0,0,0,32,0,0,0,0,0,22,0,0,0,0
SE,Sweden,country,Europe and Central Asia,60.128161,18.643501,TR,Turkey,country,Europe and Central Asia,38.963745,35.243322,2626.41298859191,1986,295,0,0,0,0,0,0,0,0,0,0,260,0,0,35,0,0,0,0,0,0,0,0,0
CH,Switzerland,country,Europe and Central Asia,46.818188,8.227512,TR,Turkey,country,Europe and Central Asia,38.963745,35.243322,2355.84072074118,1986,5255,34,0,0,0,0,0,0,0,233,0,403,44,3722,0,0,0,266,541,12,0,0,0,0
SY,Syrian Arab Rep.,country,Middle East and North Africa,34.802075,38.996815,TR,Turkey,country,Europe and Central Asia,38.963745,35.243322,571.117569303629,1986,1525,0,0,0,0,0,0,0,0,1515,0,0,0,0,0,0,0,0,0,10,0,0,0,0
TH,Thailand,country,East Asia and Pacific,15.870032,100.992541,TR,Turkey,country,Europe and Central Asia,38.963745,35.243322,6831.71686656176,1986,15500,14500,0,0,0,0,940,0,0,0,10,0,0,50,0,0,0,0,0,0,0,0,0,0
TN,Tunisia,country,Middle East and North Africa,33.886917,9.537499,TR,Turkey,country,Europe and Central Asia,38.963745,35.243322,2362.21464082084,1986,23,0,0,0,0,0,0,0,23,0,0,0,0,0,0,0,0,0,0,0,0,0,0,0
UG,Uganda,country,Sub-Saharan Africa,1.373333,32.290275,TR,Turkey,country,Europe and Central Asia,38.963745,35.243322,4195.32625554283,1986,8,0,0,0,0,0,0,0,0,0,0,0,0,0,0,0,0,0,0,8,0,0,0,0
AE,United Arab Emirates,country,Middle East and North Africa,23.424076,53.847818,TR,Turkey,country,Europe and Central Asia,38.963745,35.243322,2466.36984769033,1986,82,0,0,0,0,0,0,0,0,0,0,0,0,0,0,0,0,0,0,82,0,0,0,0
GB,United Kingdom,country,Europe and Central Asia,55.378051,-3.435973,TR,Turkey,country,Europe and Central Asia,38.963745,35.243322,3386.2469737083,1986,50894,109,0,5,0,0,1,0,0,84,1,142,78,45777,51,2654,286,114,245,1633,0,0,0,0
TZ,Tanzania,country,Sub-Saharan Africa,-6.369028,34.888822,TR,Turkey,country,Europe and Central Asia,38.963745,35.243322,5046.5538509265,1986,300,0,0,0,0,0,300,0,0,0,0,0,0,0,0,0,0,0,0,0,0,0,0,0
US,USA,country,North America,37.09024,-95.712891,TR,Turkey,country,Europe and Central Asia,38.963745,35.243322,10193.0582278006,1986,552431,494045,0,402,0,16,7156,0,2,3017,0,296,0,10644,36675,0,24,0,0,178,0,0,0,0
UY,Uruguay,country,Latin America and the Caribbean,-32.522779,-55.765835,TR,Turkey,country,Europe and Central Asia,38.963745,35.243322,12296.8510308157,1986,125,0,0,0,0,0,0,0,0,125,0,0,0,0,0,0,0,0,0,0,0,0,0,0
RU,Russian Federation,country,Europe and Central Asia,61.52401,105.318756,TR,Turkey,country,Europe and Central Asia,38.963745,35.243322,5257.35226304609,1986,4511,0,0,0,0,0,0,0,0,78,0,0,0,0,4086,0,0,0,0,347,0,0,0,0
BA,Bosnia & Herzegovina,country,Europe and Central Asia,43.915886,17.679076,TR,Turkey,country,Europe and Central Asia,38.963745,35.243322,1562.19647955306,1986,83004,81803,0,0,0,0,0,0,0,65,0,80,0,16,0,0,0,918,75,47,0,0,0,0
AF,Afghanistan,country,South Asia,33.93911,67.709953,TR,Turkey,country,Europe and Central Asia,38.963745,35.243322,2944.23947624646,1987,20,0,0,0,0,20,0,0,0,0,0,0,0,0,0,0,0,0,0,0,0,0,0,0
AL,Albania,country,Europe and Central Asia,41.153332,20.168331,TR,Turkey,country,Europe and Central Asia,38.963745,35.243322,1305.59706041172,1987,0,0,0,0,0,0,0,0,0,0,0,0,0,0,0,0,0,0,0,0,0,0,0,0
AR,Argentina,country,Latin America and the Caribbean,-38.416097,-63.616672,TR,Turkey,country,Europe and Central Asia,38.963745,35.243322,13245.2452872061,1987,8491,0,0,0,0,0,0,0,0,91,0,1501,0,0,6867,0,0,0,0,32,0,0,0,0
AU,Australia,country,East Asia and Pacific,-25.274398,133.775136,TR,Turkey,country,Europe and Central Asia,38.963745,35.243322,12455.3154126117,1987,24654,2875,0,0,0,0,0,0,0,17783,0,0,0,0,961,0,0,57,0,2978,0,0,0,0
AT,Austria,country,Europe and Central Asia,47.516231,14.550072,TR,Turkey,country,Europe and Central Asia,38.963745,35.243322,1920.66705517367,1987,6009,0,0,2,0,0,0,0,1,2458,0,1060,0,13,302,0,0,251,1704,218,0,0,0,0
BH,Bahrain,country,Middle East and North Africa,25.930414,50.637772,TR,Turkey,country,Europe and Central Asia,38.963745,35.243322,2042.73139678709,1987,10,0,0,0,0,0,0,0,0,0,0,0,10,0,0,0,0,0,0,0,0,0,0,0
BD,Bangladesh,country,South Asia,23.684994,90.356331,TR,Turkey,country,Europe and Central Asia,38.963745,35.243322,5422.38407587905,1987,15667,0,0,0,0,0,0,0,0,5599,0,0,0,10068,0,0,0,0,0,0,0,0,0,0
BE,Belgium,country,Europe and Central Asia,50.503887,4.469936,TR,Turkey,country,Europe and Central Asia,38.963745,35.243322,2724.38245644223,1987,298074,9,0,8020,200,0,0,0,16,242,0,2615,0,285537,4,0,10,537,137,757,0,0,0,0
BJ,Benin,country,Sub-Saharan Africa,9.30769,2.315834,TR,Turkey,country,Europe and Central Asia,38.963745,35.243322,4650.5277846492,1987,24592,0,0,0,0,0,14557,0,16,6079,0,3940,0,0,0,0,0,0,0,0,0,0,0,0
BO,Bolivia,country,Latin America and the Caribbean,-16.290154,-63.588653,TR,Turkey,country,Europe and Central Asia,38.963745,35.243322,11901.8838985142,1987,2,0,0,0,0,0,0,0,0,0,0,0,0,0,0,0,0,0,0,2,0,0,0,0
BR,Brazil,country,Latin America and the Caribbean,-14.235004,-51.92528,TR,Turkey,country,Europe and Central Asia,38.963745,35.243322,10769.275578926,1987,21686,0,0,0,0,0,0,0,0,443,145,5593,4654,109,10729,9,0,0,4,0,0,0,0,0
BG,Bulgaria,country,Europe and Central Asia,42.733883,25.48583,TR,Turkey,country,Europe and Central Asia,38.963745,35.243322,921.817036725782,1987,82,0,0,0,0,0,0,0,0,0,0,0,0,0,0,0,0,0,0,82,0,0,0,0
KH,Cambodia,country,East Asia and Pacific,12.565679,104.990963,TR,Turkey,country,Europe and Central Asia,38.963745,35.243322,7397.44296683975,1987,80,0,0,0,0,0,80,0,0,0,0,0,0,0,0,0,0,0,0,0,0,0,0,0
CM,Cameroon,country,Sub-Saharan Africa,7.369722,12.354722,TR,Turkey,country,Europe and Central Asia,38.963745,35.243322,4198.3906351303,1987,7309,0,0,0,0,0,7304,0,0,0,5,0,0,0,0,0,0,0,0,0,0,0,0,0
CA,Canada,country,North America,56.130366,-106.346771,TR,Turkey,country,Europe and Central Asia,38.963745,35.243322,8847.72704375395,1987,2213,0,2000,0,0,0,203,0,0,0,0,0,0,0,0,0,0,0,10,0,0,0,0,0
TD,Chad,country,Sub-Saharan Africa,15.454166,18.732207,TR,Turkey,country,Europe and Central Asia,38.963745,35.243322,3073.97679107475,1987,493,0,0,0,0,0,0,0,0,493,0,0,0,0,0,0,0,0,0,0,0,0,0,0
CL,Chile,country,Latin America and the Caribbean,-35.675147,-71.542969,TR,Turkey,country,Europe and Central Asia,38.963745,35.243322,13726.5992452814,1987,26,0,0,0,0,0,0,0,0,16,0,0,0,0,0,0,0,0,10,0,0,0,0,0
HK,Hong Kong,country,East Asia and Pacific,22.396428,114.109497,TR,Turkey,country,Europe and Central Asia,38.963745,35.243322,7543.53328675246,1987,1548,0,0,0,383,0,1032,0,0,0,0,0,0,27,0,0,0,0,0,106,0,0,0,0
CN,China,country,East Asia and Pacific,35.86166,104.195397,TR,Turkey,country,Europe and Central Asia,38.963745,35.243322,5956.53871448264,1987,39148,4094,0,0,2617,200,5839,0,0,26290,38,0,0,70,0,0,0,0,0,0,0,0,0,0
TW,Taiwan,country,East Asia and Pacific,23.69781,120.960515,TR,Turkey,country,Europe and Central Asia,38.963745,35.243322,8035.8657388625,1987,447,3,0,0,0,0,392,0,0,7,0,0,0,36,9,0,0,0,0,0,0,0,0,0
CO,Colombia,country,Latin America and the Caribbean,4.570868,-74.297333,TR,Turkey,country,Europe and Central Asia,38.963745,35.243322,11362.5314489925,1987,739,0,0,0,0,0,0,0,719,0,0,0,20,0,0,0,0,0,0,0,0,0,0,0
CG,"Congo, Rep.",country,Sub-Saharan Africa,-0.228021,15.827659,TR,Turkey,country,Europe and Central Asia,38.963745,35.243322,4791.74457963516,1987,10,0,0,0,0,0,0,0,0,0,0,0,0,0,0,0,0,0,0,10,0,0,0,0
CR,Costa Rica,country,Latin America and the Caribbean,9.748917,-83.753428,TR,Turkey,country,Europe and Central Asia,38.963745,35.243322,11729.3897610619,1987,78,0,0,0,0,0,0,0,78,0,0,0,0,0,0,0,0,0,0,0,0,0,0,0
CI,Ivory Coast,country,Sub-Saharan Africa,7.539989,-5.54708,TR,Turkey,country,Europe and Central Asia,38.963745,35.243322,5369.24942622934,1987,110034,0,0,0,0,0,39,0,15,5020,0,0,4953,100007,0,0,0,0,0,0,0,0,0,0
CY,Cyprus,country,Europe and Central Asia,35.126413,33.429859,TR,Turkey,country,Europe and Central Asia,38.963745,35.243322,456.518566652788,1987,33493,0,0,10,0,0,0,8,17598,375,0,0,400,12904,241,1838,0,0,16,103,0,0,0,0
CZ,Czech Republic,country,Europe and Central Asia,49.817492,15.472962,TR,Turkey,country,Europe and Central Asia,38.963745,35.243322,1972.91568988641,1987,3672,0,0,0,0,0,0,0,0,0,0,0,0,0,0,0,0,3210,354,108,0,0,0,0
CD,"Congo, Dem. Rep.",country,Sub-Saharan Africa,-4.038333,21.758664,TR,Turkey,country,Europe and Central Asia,38.963745,35.243322,4983.70500105939,1987,56,0,0,0,0,0,0,0,0,0,0,0,0,56,0,0,0,0,0,0,0,0,0,0
DK,Denmark,country,Europe and Central Asia,56.26392,9.501785,TR,Turkey,country,Europe and Central Asia,38.963745,35.243322,2697.24897242748,1987,96764,0,0,0,0,0,0,0,0,0,0,353,20,94563,69,0,132,1261,498,0,0,0,0,0
DJ,Djibouti,country,Middle East and North Africa,11.825138,42.590275,TR,Turkey,country,Europe and Central Asia,38.963745,35.243322,3107.28770017967,1987,7,0,0,0,0,0,0,0,0,0,0,0,0,0,0,0,0,0,0,7,0,0,0,0
EC,Ecuador,country,Latin America and the Caribbean,-1.831239,-78.183406,TR,Turkey,country,Europe and Central Asia,38.963745,35.243322,12157.4591676915,1987,66,0,0,0,0,0,0,0,61,0,0,0,0,0,5,0,0,0,0,0,0,0,0,0
EG,Egypt,country,Middle East and North Africa,26.820553,30.802498,TR,Turkey,country,Europe and Central Asia,38.963745,35.243322,1413.54872030114,1987,5645,1707,0,0,268,0,37,0,2,931,0,0,0,2700,0,0,0,0,0,0,0,0,0,0
SV,El Salvador,country,Latin America and the Caribbean,13.794185,-88.89653,TR,Turkey,country,Europe and Central Asia,38.963745,35.243322,11788.0032216324,1987,0,0,0,0,0,0,0,0,0,0,0,0,0,0,0,0,0,0,0,0,0,0,0,0
FI,Finland,country,Europe and Central Asia,61.92411,25.748151,TR,Turkey,country,Europe and Central Asia,38.963745,35.243322,2636.70495934928,1987,1888,0,0,0,0,0,0,0,0,13,0,0,0,0,1001,0,0,0,864,10,0,0,0,0
FR,France,country,Europe and Central Asia,46.227638,2.213749,TR,Turkey,country,Europe and Central Asia,38.963745,35.243322,2802.00279829849,1987,690119,132329,0,152694,4,0,9,6,5,424,10,14707,164,383148,2136,118,93,320,150,3895,0,0,0,0
GH,Ghana,country,Sub-Saharan Africa,7.946527,-1.023194,TR,Turkey,country,Europe and Central Asia,38.963745,35.243322,5002.86370236903,1987,486,0,0,0,0,0,0,0,0,0,0,0,430,56,0,0,0,0,0,0,0,0,0,0
GR,Greece,country,Europe and Central Asia,39.074208,21.824312,TR,Turkey,country,Europe and Central Asia,38.963745,35.243322,1159.59724710074,1987,62022,378,0,8,0,0,0,14172,366,15358,0,0,0,19602,9111,0,0,26,0,3001,0,0,0,0
GT,Guatemala,country,Latin America and the Caribbean,15.783471,-90.230759,TR,Turkey,country,Europe and Central Asia,38.963745,35.243322,11717.3568809196,1987,3269,0,0,0,0,0,100,0,0,3169,0,0,0,0,0,0,0,0,0,0,0,0,0,0
GN,Guinea,country,Sub-Saharan Africa,9.945587,-9.696645,TR,Turkey,country,Europe and Central Asia,38.963745,35.243322,5499.6537855345,1987,20,0,0,0,0,0,0,0,0,0,0,0,20,0,0,0,0,0,0,0,0,0,0,0
HN,Honduras,country,Latin America and the Caribbean,15.199999,-86.241905,TR,Turkey,country,Europe and Central Asia,38.963745,35.243322,11479.4281412454,1987,700,0,0,0,0,0,0,0,680,0,0,0,0,0,0,0,0,0,20,0,0,0,0,0
HU,Hungary,country,Europe and Central Asia,47.162494,19.503304,TR,Turkey,country,Europe and Central Asia,38.963745,35.243322,1567.415228057,1987,2466,150,0,0,0,0,0,0,0,0,0,0,0,26,1501,0,0,734,55,0,0,0,0,0
IN,India,country,South Asia,20.593684,78.96288,TR,Turkey,country,Europe and Central Asia,38.963745,35.243322,4636.35858129563,1987,29027,52,0,0,0,0,1,0,0,15732,54,0,0,9726,0,0,0,3450,0,12,0,0,0,0
ID,Indonesia,country,East Asia and Pacific,-0.789275,113.921327,TR,Turkey,country,Europe and Central Asia,38.963745,35.243322,9097.27334314872,1987,18190,0,0,0,0,0,0,0,0,0,146,0,32,8908,9104,0,0,0,0,0,0,0,0,0
IR,Iran,country,Middle East and North Africa,32.427908,53.688046,TR,Turkey,country,Europe and Central Asia,38.963745,35.243322,1814.9385091785,1987,788,0,0,0,392,0,0,0,30,0,0,0,0,20,0,0,0,0,0,346,0,0,0,0
IQ,Iraq,country,Middle East and North Africa,33.223191,43.679291,TR,Turkey,country,Europe and Central Asia,38.963745,35.243322,991.255314597934,1987,437314,0,0,0,0,0,0,0,1497,1034,0,0,0,433200,0,0,0,0,0,1583,0,0,0,0
IE,Ireland,country,Europe and Central Asia,53.41291,-8.24389,TR,Turkey,country,Europe and Central Asia,38.963745,35.243322,3644.22486914243,1987,205630,0,0,0,0,0,0,0,0,42,0,0,0,204910,0,0,0,11,300,367,0,0,0,0
IL,Israel,country,Middle East and North Africa,31.046051,34.851612,TR,Turkey,country,Europe and Central Asia,38.963745,35.243322,882.114203446346,1987,1511442,0,0,0,0,0,0,0,0,1904,0,34,0,1509131,0,0,20,0,343,30,0,0,0,0
IT,Italy,country,Europe and Central Asia,41.87194,12.56738,TR,Turkey,country,Europe and Central Asia,38.963745,35.243322,1943.00856501574,1987,488852,65294,0,2111,0,0,65,10,18,261,0,23675,84,350913,43510,61,54,47,0,2803,0,0,0,0
JP,Japan,country,East Asia and Pacific,36.204824,138.252924,TR,Turkey,country,Europe and Central Asia,38.963745,35.243322,8537.2610571626,1987,510868,0,0,0,0,0,492,0,0,0,0,0,0,505708,4652,0,0,0,0,16,0,0,0,0
JO,Jordan,country,Middle East and North Africa,30.585164,36.238414,TR,Turkey,country,Europe and Central Asia,38.963745,35.243322,937.107780068079,1987,84194,0,0,0,0,0,0,0,0,46,0,0,0,83220,0,0,0,0,0,928,0,0,0,0
KE,Kenya,country,Sub-Saharan Africa,-0.023559,37.906193,TR,Turkey,country,Europe and Central Asia,38.963745,35.243322,4348.55145491165,1987,56,0,0,0,0,0,0,0,56,0,0,0,0,0,0,0,0,0,0,0,0,0,0,0
KW,Kuwait,country,Middle East and North Africa,29.31166,47.481766,TR,Turkey,country,Europe and Central Asia,38.963745,35.243322,1554.77462453809,1987,279987,0,0,0,0,0,0,0,0,116,0,0,0,279200,0,0,0,0,0,671,0,0,0,0
LB,Lebanon,country,Middle East and North Africa,33.854721,35.862285,TR,Turkey,country,Europe and Central Asia,38.963745,35.243322,571.42622906272,1987,4053,0,0,0,0,0,0,0,0,14,0,0,0,800,713,0,0,0,153,2373,0,0,0,0
LR,Liberia,country,Sub-Saharan Africa,6.428055,-9.429499,TR,Turkey,country,Europe and Central Asia,38.963745,35.243322,5754.5442759538,1987,572,0,0,0,0,0,0,0,0,0,0,500,0,32,40,0,0,0,0,0,0,0,0,0
LY,Libya,country,Middle East and North Africa,26.3351,17.228331,TR,Turkey,country,Europe and Central Asia,38.963745,35.243322,2189.68844621022,1987,786,0,0,0,0,0,0,0,0,786,0,0,0,0,0,0,0,0,0,0,0,0,0,0
MG,Madagascar,country,Sub-Saharan Africa,-18.766947,46.869107,TR,Turkey,country,Europe and Central Asia,38.963745,35.243322,6539.85063542829,1987,7155,0,0,0,0,0,7148,0,0,0,7,0,0,0,0,0,0,0,0,0,0,0,0,0
MW,Malawi,country,Sub-Saharan Africa,-13.254308,34.301525,TR,Turkey,country,Europe and Central Asia,38.963745,35.243322,5813.71212462848,1987,31,0,0,0,0,0,0,0,0,0,0,0,0,31,0,0,0,0,0,0,0,0,0,0
MY,Malaysia,country,East Asia and Pacific,4.210484,101.975766,TR,Turkey,country,Europe and Central Asia,38.963745,35.243322,7721.15671220867,1987,112536,0,0,0,0,0,38,0,15,0,615,0,0,40048,71820,0,0,0,0,0,0,0,0,0
ML,Mali,country,Sub-Saharan Africa,17.570692,-3.996166,TR,Turkey,country,Europe and Central Asia,38.963745,35.243322,4473.51586772812,1987,5,0,0,0,0,0,0,0,0,0,0,0,0,5,0,0,0,0,0,0,0,0,0,0
MR,Mauritania,country,Sub-Saharan Africa,21.00789,-10.940835,TR,Turkey,country,Europe and Central Asia,38.963745,35.243322,4818.22719700048,1987,2135,0,0,0,0,0,2135,0,0,0,0,0,0,0,0,0,0,0,0,0,0,0,0,0
MX,Mexico,country,Latin America and the Caribbean,23.634501,-102.552784,TR,Turkey,country,Europe and Central Asia,38.963745,35.243322,11799.3735425116,1987,1596,0,0,0,0,0,1507,0,0,0,70,0,0,9,0,0,0,0,10,0,0,0,0,0
MA,Morocco,country,Middle East and North Africa,31.791702,-7.09262,TR,Turkey,country,Europe and Central Asia,38.963745,35.243322,3888.72766026092,1987,7,0,0,0,0,0,0,0,0,0,0,0,0,7,0,0,0,0,0,0,0,0,0,0
NA,Namibia,country,Sub-Saharan Africa,-22.95764,18.49041,TR,Turkey,country,Europe and Central Asia,38.963745,35.243322,7110.7878602447,1987,11893,0,0,0,0,0,0,0,0,457,0,0,11,11400,0,0,0,0,0,25,0,0,0,0
NL,Netherlands,country,Europe and Central Asia,52.132633,5.291266,TR,Turkey,country,Europe and Central Asia,38.963745,35.243322,2727.37266399519,1987,2943487,101,2515,12371,0,0,6,13,369,0,1,2075,987,2911259,4856,8,874,3929,4011,986,0,0,0,0
NZ,New Zealand,country,East Asia and Pacific,-40.900557,174.885971,TR,Turkey,country,Europe and Central Asia,38.963745,35.243322,16616.4394144971,1987,66820,0,0,0,0,0,0,0,4,4292,0,0,10,61000,0,0,0,0,0,1514,0,0,0,0
NI,Nicaragua,country,Latin America and the Caribbean,12.865416,-85.207229,TR,Turkey,country,Europe and Central Asia,38.963745,35.243322,11591.8550488197,1987,746,0,0,0,0,0,0,0,138,608,0,0,0,0,0,0,0,0,0,0,0,0,0,0
NE,Niger,country,Sub-Saharan Africa,17.607789,8.081666,TR,Turkey,country,Europe and Central Asia,38.963745,35.243322,3543.41235264415,1987,161,0,0,0,0,0,0,0,0,0,0,0,21,140,0,0,0,0,0,0,0,0,0,0
NG,Nigeria,country,Sub-Saharan Africa,9.081999,8.675277,TR,Turkey,country,Europe and Central Asia,38.963745,35.243322,4251.14330705406,1987,2327,0,0,0,0,0,21,0,0,0,0,0,29,2277,0,0,0,0,0,0,0,0,0,0
NO,Norway,country,Europe and Central Asia,60.472024,8.468946,TR,Turkey,country,Europe and Central Asia,38.963745,35.243322,3029.79944805119,1987,4610,1,0,0,0,0,4155,0,0,0,0,55,0,0,0,0,0,0,0,399,0,0,0,0
PK,Pakistan,country,South Asia,30.375321,69.345116,TR,Turkey,country,Europe and Central Asia,38.963745,35.243322,3243.80852610217,1987,64985,24241,0,0,0,0,0,0,0,54,0,0,0,40690,0,0,0,0,0,0,0,0,0,0
PY,Paraguay,country,Latin America and the Caribbean,-23.442503,-58.443832,TR,Turkey,country,Europe and Central Asia,38.963745,35.243322,11935.675644241,1987,320,0,0,0,0,0,0,0,0,202,0,0,118,0,0,0,0,0,0,0,0,0,0,0
PH,Philippines,country,East Asia and Pacific,12.879721,121.774017,TR,Turkey,country,Europe and Central Asia,38.963745,35.243322,8825.22876378843,1987,7603,0,0,0,0,0,20,0,388,0,0,0,0,0,7195,0,0,0,0,0,0,0,0,0
PL,Poland,country,Europe and Central Asia,51.919438,19.145136,TR,Turkey,country,Europe and Central Asia,38.963745,35.243322,1904.73467791636,1987,4669,0,40,0,0,0,0,0,0,0,0,0,0,3,3840,0,0,786,0,0,0,0,0,0
PT,Portugal,country,Europe and Central Asia,39.399872,-8.224454,TR,Turkey,country,Europe and Central Asia,38.963745,35.243322,3714.00348570757,1987,14024,0,0,0,0,0,0,0,0,0,0,0,0,0,14020,0,0,0,0,4,0,0,0,0
QA,Qatar,country,Middle East and North Africa,25.354826,51.183884,TR,Turkey,country,Europe and Central Asia,38.963745,35.243322,2127.04565436248,1987,10438,0,0,0,0,0,0,0,0,0,0,0,0,10110,0,0,0,0,0,328,0,0,0,0
KR,"Korea, Rep.",country,East Asia and Pacific,35.907757,127.766922,TR,Turkey,country,Europe and Central Asia,38.963745,35.243322,7798.8340616013,1987,2,0,0,0,0,0,0,0,0,0,0,0,0,2,0,0,0,0,0,0,0,0,0,0
RO,Romania,country,Europe and Central Asia,45.943161,24.96676,TR,Turkey,country,Europe and Central Asia,38.963745,35.243322,1145.4749902999,1987,18819,0,0,8,5698,0,0,540,0,0,0,0,0,0,10718,7,0,1626,222,0,0,0,0,0
SA,Saudi Arabia,country,Middle East and North Africa,23.885942,45.079162,TR,Turkey,country,Europe and Central Asia,38.963745,35.243322,1918.03492229189,1987,609932,0,0,0,0,0,0,0,0,1860,0,0,0,596800,0,0,0,0,0,11272,0,0,0,0
SC,Seychelles,country,Sub-Saharan Africa,-4.679574,55.491977,TR,Turkey,country,Europe and Central Asia,38.963745,35.243322,5286.22580249371,1987,5,0,0,0,0,0,0,0,0,0,5,0,0,0,0,0,0,0,0,0,0,0,0,0
SG,Singapore,country,East Asia and Pacific,1.352083,103.819836,TR,Turkey,country,Europe and Central Asia,38.963745,35.243322,8083.64958551106,1987,21284,0,0,0,0,0,0,0,0,0,30,0,0,21004,250,0,0,0,0,0,0,0,0,0
SO,Somalia,country,Sub-Saharan Africa,5.152149,46.199616,TR,Turkey,country,Europe and Central Asia,38.963745,35.243322,3922.74266672529,1987,48,0,0,0,0,0,0,0,47,0,0,0,0,1,0,0,0,0,0,0,0,0,0,0
ES,Spain,country,Europe and Central Asia,40.463667,-3.74922,TR,Turkey,country,Europe and Central Asia,38.963745,35.243322,3315.95022920572,1987,118113,14855,0,0,0,0,0,28,0,15,0,6412,20,5708,90777,1,0,240,0,57,0,0,0,0
LK,Sri Lanka,country,South Asia,7.873054,80.771797,TR,Turkey,country,Europe and Central Asia,38.963745,35.243322,5706.83871006826,1987,756,0,0,0,0,0,499,0,0,0,144,0,48,65,0,0,0,0,0,0,0,0,0,0
SD,Sudan,country,Sub-Saharan Africa,12.862807,30.217636,TR,Turkey,country,Europe and Central Asia,38.963745,35.243322,2947.51011830892,1987,17196,0,0,0,0,0,9721,0,0,6924,0,0,0,47,0,0,0,0,0,504,0,0,0,0
SE,Sweden,country,Europe and Central Asia,60.128161,18.643501,TR,Turkey,country,Europe and Central Asia,38.963745,35.243322,2626.41298859191,1987,271,0,0,0,0,0,0,0,0,0,0,0,0,0,268,0,11,0,0,3,0,0,0,0
CH,Switzerland,country,Europe and Central Asia,46.818188,8.227512,TR,Turkey,country,Europe and Central Asia,38.963745,35.243322,2355.84072074118,1987,37792,1113,0,1,0,0,0,0,0,11,0,1502,67,34501,14,0,0,174,365,44,0,0,0,0
SY,Syrian Arab Rep.,country,Middle East and North Africa,34.802075,38.996815,TR,Turkey,country,Europe and Central Asia,38.963745,35.243322,571.117569303629,1987,2697,0,0,0,0,0,0,0,0,2685,0,0,0,0,0,0,0,0,0,12,0,0,0,0
TH,Thailand,country,East Asia and Pacific,15.870032,100.992541,TR,Turkey,country,Europe and Central Asia,38.963745,35.243322,6831.71686656176,1987,1027,0,0,0,0,0,0,0,0,0,0,0,0,0,1027,0,0,0,0,0,0,0,0,0
TG,Togo,country,Sub-Saharan Africa,8.619543,0.824782,TR,Turkey,country,Europe and Central Asia,38.963745,35.243322,4814.11703899954,1987,1349,0,0,0,0,0,849,0,0,500,0,0,0,0,0,0,0,0,0,0,0,0,0,0
TN,Tunisia,country,Middle East and North Africa,33.886917,9.537499,TR,Turkey,country,Europe and Central Asia,38.963745,35.243322,2362.21464082084,1987,10,5,0,0,0,0,0,0,5,0,0,0,0,0,0,0,0,0,0,0,0,0,0,0
AE,United Arab Emirates,country,Middle East and North Africa,23.424076,53.847818,TR,Turkey,country,Europe and Central Asia,38.963745,35.243322,2466.36984769033,1987,177,0,0,0,0,0,0,0,0,0,0,0,0,0,0,0,0,0,0,177,0,0,0,0
GB,United Kingdom,country,Europe and Central Asia,55.378051,-3.435973,TR,Turkey,country,Europe and Central Asia,38.963745,35.243322,3386.2469737083,1987,40575,43,0,20005,0,0,0,6,0,1673,0,344,80,12046,35,3455,351,0,1345,1543,0,0,0,0
TZ,Tanzania,country,Sub-Saharan Africa,-6.369028,34.888822,TR,Turkey,country,Europe and Central Asia,38.963745,35.243322,5046.5538509265,1987,3329,0,0,0,0,0,1834,0,0,1477,8,0,0,0,0,0,0,0,10,0,0,0,0,0
US,USA,country,North America,37.09024,-95.712891,TR,Turkey,country,Europe and Central Asia,38.963745,35.243322,10193.0582278006,1987,524745,373509,0,165,0,30,4911,0,211,19321,0,48954,0,25848,50880,0,61,0,0,916,0,0,0,0
UY,Uruguay,country,Latin America and the Caribbean,-32.522779,-55.765835,TR,Turkey,country,Europe and Central Asia,38.963745,35.243322,12296.8510308157,1987,196,0,0,0,0,0,0,0,0,196,0,0,0,0,0,0,0,0,0,0,0,0,0,0
RU,Russian Federation,country,Europe and Central Asia,61.52401,105.318756,TR,Turkey,country,Europe and Central Asia,38.963745,35.243322,5257.35226304609,1987,8139,0,0,0,0,0,0,0,0,3137,5,0,0,10,3868,0,0,0,0,1119,0,0,0,0
VN,Vietnam,country,East Asia and Pacific,14.058324,108.277199,TR,Turkey,country,Europe and Central Asia,38.963745,35.243322,7581.83926699288,1987,55,0,0,0,0,0,55,0,0,0,0,0,0,0,0,0,0,0,0,0,0,0,0,0
BA,Bosnia & Herzegovina,country,Europe and Central Asia,43.915886,17.679076,TR,Turkey,country,Europe and Central Asia,38.963745,35.243322,1562.19647955306,1987,18516,3967,0,0,403,0,0,0,0,54,0,57,41,92,9754,0,0,218,87,3843,0,0,0,0
ZM,Zambia,country,Sub-Saharan Africa,-13.133897,27.849332,TR,Turkey,country,Europe and Central Asia,38.963745,35.243322,5850.22166962268,1987,3,0,0,0,0,0,0,0,0,0,3,0,0,0,0,0,0,0,0,0,0,0,0,0
ZW,Zimbabwe,country,Sub-Saharan Africa,-19.015438,29.154857,TR,Turkey,country,Europe and Central Asia,38.963745,35.243322,6485.35878529282,1987,4,0,0,0,0,0,0,0,0,0,4,0,0,0,0,0,0,0,0,0,0,0,0,0
AF,Afghanistan,country,South Asia,33.93911,67.709953,TR,Turkey,country,Europe and Central Asia,38.963745,35.243322,2944.23947624646,1988,0,0,0,0,0,0,0,0,0,0,0,0,0,0,0,0,0,0,0,0,0,0,0,0
AL,Albania,country,Europe and Central Asia,41.153332,20.168331,TR,Turkey,country,Europe and Central Asia,38.963745,35.243322,1305.59706041172,1988,16,0,0,0,0,0,0,0,0,0,0,0,0,0,0,16,0,0,0,0,0,0,0,0
AR,Argentina,country,Latin America and the Caribbean,-38.416097,-63.616672,TR,Turkey,country,Europe and Central Asia,38.963745,35.243322,13245.2452872061,1988,28295,0,0,0,0,0,0,0,21,5,0,1801,0,0,26353,0,0,115,0,0,0,0,0,0
AU,Australia,country,East Asia and Pacific,-25.274398,133.775136,TR,Turkey,country,Europe and Central Asia,38.963745,35.243322,12455.3154126117,1988,32397,61,0,0,0,0,0,0,0,9411,0,21,0,20045,0,0,0,40,125,2694,0,0,0,0
AT,Austria,country,Europe and Central Asia,47.516231,14.550072,TR,Turkey,country,Europe and Central Asia,38.963745,35.243322,1920.66705517367,1988,1633,0,0,6,46,0,10,0,17,49,0,321,16,4,20,0,0,169,923,52,0,0,0,0
BH,Bahrain,country,Middle East and North Africa,25.930414,50.637772,TR,Turkey,country,Europe and Central Asia,38.963745,35.243322,2042.73139678709,1988,26690,0,0,0,0,0,0,0,0,0,0,0,0,26500,0,0,0,0,0,190,0,0,0,0
BD,Bangladesh,country,South Asia,23.684994,90.356331,TR,Turkey,country,Europe and Central Asia,38.963745,35.243322,5422.38407587905,1988,6405,0,0,0,0,0,0,0,0,6405,0,0,0,0,0,0,0,0,0,0,0,0,0,0
BE,Belgium,country,Europe and Central Asia,50.503887,4.469936,TR,Turkey,country,Europe and Central Asia,38.963745,35.243322,2724.38245644223,1988,378620,78,0,45,0,0,0,0,18,97,0,135,25,377593,38,53,0,0,47,491,0,0,0,0
BJ,Benin,country,Sub-Saharan Africa,9.30769,2.315834,TR,Turkey,country,Europe and Central Asia,38.963745,35.243322,4650.5277846492,1988,6360,0,0,0,0,0,5042,0,0,0,0,1318,0,0,0,0,0,0,0,0,0,0,0,0
BR,Brazil,country,Latin America and the Caribbean,-14.235004,-51.92528,TR,Turkey,country,Europe and Central Asia,38.963745,35.243322,10769.275578926,1988,35402,0,0,0,0,0,0,0,0,25,317,26014,3518,63,5419,7,0,39,0,0,0,0,0,0
CM,Cameroon,country,Sub-Saharan Africa,7.369722,12.354722,TR,Turkey,country,Europe and Central Asia,38.963745,35.243322,4198.3906351303,1988,19,0,0,0,0,0,0,0,0,0,0,0,0,19,0,0,0,0,0,0,0,0,0,0
CA,Canada,country,North America,56.130366,-106.346771,TR,Turkey,country,Europe and Central Asia,38.963745,35.243322,8847.72704375395,1988,4577,0,4550,0,0,0,0,27,0,0,0,0,0,0,0,0,13,0,0,0,0,0,0,0
CL,Chile,country,Latin America and the Caribbean,-35.675147,-71.542969,TR,Turkey,country,Europe and Central Asia,38.963745,35.243322,13726.5992452814,1988,9,0,0,0,0,0,0,0,0,9,0,0,0,0,0,0,0,0,0,0,0,0,0,0
HK,Hong Kong,country,East Asia and Pacific,22.396428,114.109497,TR,Turkey,country,Europe and Central Asia,38.963745,35.243322,7543.53328675246,1988,12,0,0,0,0,0,0,0,0,10,0,0,0,2,0,0,0,0,0,0,0,0,0,0
CN,China,country,East Asia and Pacific,35.86166,104.195397,TR,Turkey,country,Europe and Central Asia,38.963745,35.243322,5956.53871448264,1988,14600,0,0,0,0,0,1053,0,0,13077,50,0,0,62,35,0,0,20,0,303,0,0,0,0
TW,Taiwan,country,East Asia and Pacific,23.69781,120.960515,TR,Turkey,country,Europe and Central Asia,38.963745,35.243322,8035.8657388625,1988,305,0,0,0,0,0,0,0,0,11,0,4,0,290,0,0,0,0,0,0,0,0,0,0
CO,Colombia,country,Latin America and the Caribbean,4.570868,-74.297333,TR,Turkey,country,Europe and Central Asia,38.963745,35.243322,11362.5314489925,1988,2078,0,0,0,0,0,0,0,1978,0,0,0,100,0,0,0,0,0,0,0,0,0,0,0
CR,Costa Rica,country,Latin America and the Caribbean,9.748917,-83.753428,TR,Turkey,country,Europe and Central Asia,38.963745,35.243322,11729.3897610619,1988,345,0,0,0,0,0,0,3,342,0,0,0,0,0,0,0,0,0,0,0,0,0,0,0
CI,Ivory Coast,country,Sub-Saharan Africa,7.539989,-5.54708,TR,Turkey,country,Europe and Central Asia,38.963745,35.243322,5369.24942622934,1988,3640,0,0,0,0,0,26,0,14,725,0,0,2829,46,0,0,0,0,0,0,0,0,0,0
CU,Cuba,country,Latin America and the Caribbean,21.521757,-77.781167,TR,Turkey,country,Europe and Central Asia,38.963745,35.243322,10352.00047352,1988,23,0,0,23,0,0,0,0,0,0,0,0,0,0,0,0,0,0,0,0,0,0,0,0
CY,Cyprus,country,Europe and Central Asia,35.126413,33.429859,TR,Turkey,country,Europe and Central Asia,38.963745,35.243322,456.518566652788,1988,24301,0,0,0,0,0,0,0,7781,412,0,0,123,13618,28,2105,0,0,3,231,0,0,0,0
CZ,Czech Republic,country,Europe and Central Asia,49.817492,15.472962,TR,Turkey,country,Europe and Central Asia,38.963745,35.243322,1972.91568988641,1988,1130,0,0,0,0,0,0,0,0,0,0,0,0,0,0,0,0,945,40,145,0,0,0,0
CD,"Congo, Dem. Rep.",country,Sub-Saharan Africa,-4.038333,21.758664,TR,Turkey,country,Europe and Central Asia,38.963745,35.243322,4983.70500105939,1988,186,0,0,0,0,0,0,0,0,0,0,0,0,186,0,0,0,0,0,0,0,0,0,0
DK,Denmark,country,Europe and Central Asia,56.26392,9.501785,TR,Turkey,country,Europe and Central Asia,38.963745,35.243322,2697.24897242748,1988,82647,0,0,0,0,0,0,0,0,54,0,194,0,81877,126,13,66,220,163,0,0,0,0,0
DO,Dominican Republic,country,Latin America and the Caribbean,18.735693,-70.162651,TR,Turkey,country,Europe and Central Asia,38.963745,35.243322,9978.14166741163,1988,41,0,0,0,0,0,31,0,10,0,0,0,0,0,0,0,0,0,0,0,0,0,0,0
EC,Ecuador,country,Latin America and the Caribbean,-1.831239,-78.183406,TR,Turkey,country,Europe and Central Asia,38.963745,35.243322,12157.4591676915,1988,1115,0,0,0,0,0,0,0,1098,17,0,0,0,0,0,0,0,0,0,0,0,0,0,0
EG,Egypt,country,Middle East and North Africa,26.820553,30.802498,TR,Turkey,country,Europe and Central Asia,38.963745,35.243322,1413.54872030114,1988,2074,315,0,0,0,0,4,15,0,530,210,0,0,0,1000,0,0,0,0,0,0,0,0,0
GQ,Equatorial Guinea,country,Sub-Saharan Africa,1.650801,10.267895,TR,Turkey,country,Europe and Central Asia,38.963745,35.243322,4867.51708533026,1988,140,0,0,0,0,0,0,0,140,0,0,0,0,0,0,0,0,0,0,0,0,0,0,0
ET,Ethiopia,country,Sub-Saharan Africa,9.145,40.489673,TR,Turkey,country,Europe and Central Asia,38.963745,35.243322,3360.42704552802,1988,5,0,0,0,0,0,0,0,0,0,0,0,0,5,0,0,0,0,0,0,0,0,0,0
FI,Finland,country,Europe and Central Asia,61.92411,25.748151,TR,Turkey,country,Europe and Central Asia,38.963745,35.243322,2636.70495934928,1988,571,0,0,6,0,0,0,0,21,0,0,2,20,0,42,0,0,0,320,160,0,0,0,0
FR,France,country,Europe and Central Asia,46.227638,2.213749,TR,Turkey,country,Europe and Central Asia,38.963745,35.243322,2802.00279829849,1988,253642,41,43,912,7,0,29,7,0,214,0,233,135,239577,8194,761,65,281,603,2605,0,0,0,0
GA,Gabon,country,Sub-Saharan Africa,-0.803689,11.609444,TR,Turkey,country,Europe and Central Asia,38.963745,35.243322,5042.38620714083,1988,20,0,0,0,0,0,0,0,0,0,0,0,20,0,0,0,0,0,0,0,0,0,0,0
GH,Ghana,country,Sub-Saharan Africa,7.946527,-1.023194,TR,Turkey,country,Europe and Central Asia,38.963745,35.243322,5002.86370236903,1988,579,0,0,0,0,0,0,0,0,0,0,0,579,0,0,0,0,0,0,0,0,0,0,0
GR,Greece,country,Europe and Central Asia,39.074208,21.824312,TR,Turkey,country,Europe and Central Asia,38.963745,35.243322,1159.59724710074,1988,18702,100,0,0,0,0,0,1399,0,1728,0,11,0,5007,9751,0,0,0,0,706,0,0,0,0
GT,Guatemala,country,Latin America and the Caribbean,15.783471,-90.230759,TR,Turkey,country,Europe and Central Asia,38.963745,35.243322,11717.3568809196,1988,1153,0,0,0,0,0,0,0,146,1007,0,0,0,0,0,0,0,0,0,0,0,0,0,0
HN,Honduras,country,Latin America and the Caribbean,15.199999,-86.241905,TR,Turkey,country,Europe and Central Asia,38.963745,35.243322,11479.4281412454,1988,268,0,0,0,0,0,0,0,268,0,0,0,0,0,0,0,0,0,0,0,0,0,0,0
HU,Hungary,country,Europe and Central Asia,47.162494,19.503304,TR,Turkey,country,Europe and Central Asia,38.963745,35.243322,1567.415228057,1988,8656,5549,0,19,0,0,0,0,0,0,1,0,0,5,2951,0,0,111,20,0,0,0,0,0
IS,Iceland,country,Europe and Central Asia,64.963051,-19.020835,TR,Turkey,country,Europe and Central Asia,38.963745,35.243322,4493.47989084263,1988,11,0,0,0,0,0,0,0,0,0,0,0,11,0,0,0,0,0,0,0,0,0,0,0
IN,India,country,South Asia,20.593684,78.96288,TR,Turkey,country,Europe and Central Asia,38.963745,35.243322,4636.35858129563,1988,78805,57,0,0,0,0,0,14,0,144,236,0,12,73567,0,0,0,4775,0,0,0,0,0,0
ID,Indonesia,country,East Asia and Pacific,-0.789275,113.921327,TR,Turkey,country,Europe and Central Asia,38.963745,35.243322,9097.27334314872,1988,11317,0,0,0,0,0,5,0,2,0,324,0,31,4010,6945,0,0,0,0,0,0,0,0,0
IR,Iran,country,Middle East and North Africa,32.427908,53.688046,TR,Turkey,country,Europe and Central Asia,38.963745,35.243322,1814.9385091785,1988,465,0,0,0,60,0,0,114,92,10,0,0,0,17,0,0,0,0,0,172,0,0,0,0
IQ,Iraq,country,Middle East and North Africa,33.223191,43.679291,TR,Turkey,country,Europe and Central Asia,38.963745,35.243322,991.255314597934,1988,300102,0,0,0,0,0,0,0,1166,2573,0,0,0,295100,0,0,0,0,0,1263,0,0,0,0
IE,Ireland,country,Europe and Central Asia,53.41291,-8.24389,TR,Turkey,country,Europe and Central Asia,38.963745,35.243322,3644.22486914243,1988,103668,0,0,0,0,0,0,0,0,70,0,0,0,103412,0,0,0,20,80,86,0,0,0,0
IL,Israel,country,Middle East and North Africa,31.046051,34.851612,TR,Turkey,country,Europe and Central Asia,38.963745,35.243322,882.114203446346,1988,5017179,0,0,0,0,0,0,0,0,126,0,0,0,5016887,0,0,145,0,136,30,0,0,0,0
IT,Italy,country,Europe and Central Asia,41.87194,12.56738,TR,Turkey,country,Europe and Central Asia,38.963745,35.243322,1943.00856501574,1988,1820658,9698,40,1440,0,0,14,10,7,94,0,573,90,1793205,14575,245,0,117,2,548,0,0,0,0
JP,Japan,country,East Asia and Pacific,36.204824,138.252924,TR,Turkey,country,Europe and Central Asia,38.963745,35.243322,8537.2610571626,1988,773,0,0,0,0,0,0,0,0,0,3,0,0,402,368,0,0,0,0,0,0,0,0,0
JO,Jordan,country,Middle East and North Africa,30.585164,36.238414,TR,Turkey,country,Europe and Central Asia,38.963745,35.243322,937.107780068079,1988,103447,0,0,0,0,0,0,0,0,144,0,0,0,103000,0,0,0,0,13,290,0,0,0,0
KE,Kenya,country,Sub-Saharan Africa,-0.023559,37.906193,TR,Turkey,country,Europe and Central Asia,38.963745,35.243322,4348.55145491165,1988,16,0,0,0,0,0,0,0,6,0,0,0,0,0,0,0,0,0,10,0,0,0,0,0
KW,Kuwait,country,Middle East and North Africa,29.31166,47.481766,TR,Turkey,country,Europe and Central Asia,38.963745,35.243322,1554.77462453809,1988,114231,0,0,0,0,0,0,0,12,47,0,0,0,114000,0,0,0,0,0,172,0,0,0,0
LB,Lebanon,country,Middle East and North Africa,33.854721,35.862285,TR,Turkey,country,Europe and Central Asia,38.963745,35.243322,571.42622906272,1988,520,0,0,0,0,0,0,0,0,0,0,0,0,0,0,0,0,0,102,418,0,0,0,0
LY,Libya,country,Middle East and North Africa,26.3351,17.228331,TR,Turkey,country,Europe and Central Asia,38.963745,35.243322,2189.68844621022,1988,714,0,0,0,0,0,0,0,0,714,0,0,0,0,0,0,0,0,0,0,0,0,0,0
MG,Madagascar,country,Sub-Saharan Africa,-18.766947,46.869107,TR,Turkey,country,Europe and Central Asia,38.963745,35.243322,6539.85063542829,1988,114,0,0,0,0,0,0,0,0,0,111,0,0,3,0,0,0,0,0,0,0,0,0,0
MY,Malaysia,country,East Asia and Pacific,4.210484,101.975766,TR,Turkey,country,Europe and Central Asia,38.963745,35.243322,7721.15671220867,1988,124412,0,0,0,0,0,194,0,0,0,543,0,21,41389,82155,0,0,0,0,0,110,0,0,0
MX,Mexico,country,Latin America and the Caribbean,23.634501,-102.552784,TR,Turkey,country,Europe and Central Asia,38.963745,35.243322,11799.3735425116,1988,464,0,0,0,0,0,2,0,0,0,111,0,0,12,339,0,0,0,0,0,0,0,0,0
MA,Morocco,country,Middle East and North Africa,31.791702,-7.09262,TR,Turkey,country,Europe and Central Asia,38.963745,35.243322,3888.72766026092,1988,7,0,0,0,0,0,0,0,0,0,0,0,0,7,0,0,0,0,0,0,0,0,0,0
MZ,Mozambique,country,Sub-Saharan Africa,-18.665695,35.529562,TR,Turkey,country,Europe and Central Asia,38.963745,35.243322,6415.34933531684,1988,17,0,0,0,0,0,17,0,0,0,0,0,0,0,0,0,0,0,0,0,0,0,0,0
NA,Namibia,country,Sub-Saharan Africa,-22.95764,18.49041,TR,Turkey,country,Europe and Central Asia,38.963745,35.243322,7110.7878602447,1988,10213,0,0,0,0,0,0,0,17,196,0,0,0,10000,0,0,0,0,0,0,0,0,0,0
NL,Netherlands,country,Europe and Central Asia,52.132633,5.291266,TR,Turkey,country,Europe and Central Asia,38.963745,35.243322,2727.37266399519,1988,5452118,170,2509,439,0,0,3,0,208,118,8,1236,915,5434421,7883,39,828,1229,2542,398,0,0,0,0
NZ,New Zealand,country,East Asia and Pacific,-40.900557,174.885971,TR,Turkey,country,Europe and Central Asia,38.963745,35.243322,16616.4394144971,1988,6156,0,0,0,0,0,0,0,8,4965,0,0,0,22,0,0,0,0,0,1161,0,0,0,0
NI,Nicaragua,country,Latin America and the Caribbean,12.865416,-85.207229,TR,Turkey,country,Europe and Central Asia,38.963745,35.243322,11591.8550488197,1988,48,0,0,0,0,0,0,0,48,0,0,0,0,0,0,0,0,0,0,0,0,0,0,0
NG,Nigeria,country,Sub-Saharan Africa,9.081999,8.675277,TR,Turkey,country,Europe and Central Asia,38.963745,35.243322,4251.14330705406,1988,4006,0,0,0,0,0,20,0,0,0,0,0,20,3966,0,0,0,0,0,0,0,0,0,0
NO,Norway,country,Europe and Central Asia,60.472024,8.468946,TR,Turkey,country,Europe and Central Asia,38.963745,35.243322,3029.79944805119,1988,1942,1,0,0,0,0,0,0,0,0,0,60,0,0,1168,0,0,0,0,713,0,0,0,0
PK,Pakistan,country,South Asia,30.375321,69.345116,TR,Turkey,country,Europe and Central Asia,38.963745,35.243322,3243.80852610217,1988,48690,0,0,0,0,0,0,0,0,19,0,0,0,48656,0,0,0,0,0,15,0,0,0,0
PA,Panama,country,Latin America and the Caribbean,8.537981,-80.782127,TR,Turkey,country,Europe and Central Asia,38.963745,35.243322,11591.0443681426,1988,296,0,0,0,0,0,0,0,296,0,0,0,0,0,0,0,0,0,0,0,0,0,0,0
PG,Papua New Guinea,country,East Asia and Pacific,-6.314993,143.95555,TR,Turkey,country,Europe and Central Asia,38.963745,35.243322,12076.8011868068,1988,16,0,0,0,0,0,0,0,0,16,0,0,0,0,0,0,0,0,0,0,0,0,0,0
PY,Paraguay,country,Latin America and the Caribbean,-23.442503,-58.443832,TR,Turkey,country,Europe and Central Asia,38.963745,35.243322,11935.675644241,1988,603,0,0,0,0,0,0,0,0,0,0,0,603,0,0,0,0,0,0,0,0,0,0,0
PE,Peru,country,Latin America and the Caribbean,-9.189967,-75.015152,TR,Turkey,country,Europe and Central Asia,38.963745,35.243322,12410.0757281223,1988,2,0,0,0,0,0,0,0,0,2,0,0,0,0,0,0,0,0,0,0,0,0,0,0
PH,Philippines,country,East Asia and Pacific,12.879721,121.774017,TR,Turkey,country,Europe and Central Asia,38.963745,35.243322,8825.22876378843,1988,3092,0,0,0,0,0,188,0,1584,0,0,0,21,0,1299,0,0,0,0,0,0,0,0,0
PT,Portugal,country,Europe and Central Asia,39.399872,-8.224454,TR,Turkey,country,Europe and Central Asia,38.963745,35.243322,3714.00348570757,1988,6128,0,0,0,0,0,0,0,0,0,0,0,0,1,5792,0,0,0,0,335,0,0,0,0
PR,Puerto Rico,country,Latin America and the Caribbean,18.220833,-66.590149,TR,Turkey,country,Europe and Central Asia,38.963745,35.243322,9730.56809832445,1988,391421,240356,0,80,0,96,4888,0,16,6693,0,48,17,16539,122350,37,47,0,42,259,0,0,0,0
QA,Qatar,country,Middle East and North Africa,25.354826,51.183884,TR,Turkey,country,Europe and Central Asia,38.963745,35.243322,2127.04565436248,1988,510291,0,0,0,0,0,0,0,0,0,0,0,0,510000,0,0,0,0,0,291,0,0,0,0
KR,"Korea, Rep.",country,East Asia and Pacific,35.907757,127.766922,TR,Turkey,country,Europe and Central Asia,38.963745,35.243322,7798.8340616013,1988,29,0,0,0,0,0,0,0,0,0,0,0,11,18,0,0,0,0,0,0,0,0,0,0
RO,Romania,country,Europe and Central Asia,45.943161,24.96676,TR,Turkey,country,Europe and Central Asia,38.963745,35.243322,1145.4749902999,1988,2029,0,0,0,0,0,0,0,0,0,0,0,0,0,2003,0,0,0,26,0,0,0,0,0
SA,Saudi Arabia,country,Middle East and North Africa,23.885942,45.079162,TR,Turkey,country,Europe and Central Asia,38.963745,35.243322,1918.03492229189,1988,320218,0,0,0,0,0,0,0,49,3496,0,0,0,305700,0,0,0,0,0,10973,0,0,0,0
SC,Seychelles,country,Sub-Saharan Africa,-4.679574,55.491977,TR,Turkey,country,Europe and Central Asia,38.963745,35.243322,5286.22580249371,1988,41,0,0,0,0,0,24,0,0,0,17,0,0,0,0,0,0,0,0,0,0,0,0,0
SG,Singapore,country,East Asia and Pacific,1.352083,103.819836,TR,Turkey,country,Europe and Central Asia,38.963745,35.243322,8083.64958551106,1988,12320,0,0,0,0,0,12,0,0,0,3,0,0,11788,517,0,0,0,0,0,0,0,0,0
SB,Solomon Islands,country,East Asia and Pacific,-9.64571,160.156194,TR,Turkey,country,Europe and Central Asia,38.963745,35.243322,13688.0782490465,1988,97,0,0,0,0,0,0,0,0,0,0,0,97,0,0,0,0,0,0,0,0,0,0,0
SO,Somalia,country,Sub-Saharan Africa,5.152149,46.199616,TR,Turkey,country,Europe and Central Asia,38.963745,35.243322,3922.74266672529,1988,4,0,0,0,0,0,0,0,0,0,0,0,0,4,0,0,0,0,0,0,0,0,0,0
ES,Spain,country,Europe and Central Asia,40.463667,-3.74922,TR,Turkey,country,Europe and Central Asia,38.963745,35.243322,3315.95022920572,1988,246696,97553,0,5,0,0,0,90,0,0,5,4,46,14,148765,5,0,0,61,148,0,0,0,0
LK,Sri Lanka,country,South Asia,7.873054,80.771797,TR,Turkey,country,Europe and Central Asia,38.963745,35.243322,5706.83871006826,1988,377,0,0,0,0,0,289,0,0,0,16,0,0,67,0,0,0,0,0,5,0,0,0,0
SD,Sudan,country,Sub-Saharan Africa,12.862807,30.217636,TR,Turkey,country,Europe and Central Asia,38.963745,35.243322,2947.51011830892,1988,16144,0,0,0,0,0,6629,0,0,3145,0,6255,0,88,0,0,0,0,0,27,0,0,0,0
SE,Sweden,country,Europe and Central Asia,60.128161,18.643501,TR,Turkey,country,Europe and Central Asia,38.963745,35.243322,2626.41298859191,1988,361,0,0,0,0,0,0,0,0,0,0,0,0,0,325,0,12,0,0,36,0,0,0,0
CH,Switzerland,country,Europe and Central Asia,46.818188,8.227512,TR,Turkey,country,Europe and Central Asia,38.963745,35.243322,2355.84072074118,1988,4303,55,21,8,0,0,0,0,0,38,0,0,124,1689,1788,0,0,448,80,52,0,0,0,0
SY,Syrian Arab Rep.,country,Middle East and North Africa,34.802075,38.996815,TR,Turkey,country,Europe and Central Asia,38.963745,35.243322,571.117569303629,1988,131,0,0,0,0,0,0,14,0,97,0,0,0,20,0,0,0,0,0,0,0,0,0,0
TH,Thailand,country,East Asia and Pacific,15.870032,100.992541,TR,Turkey,country,Europe and Central Asia,38.963745,35.243322,6831.71686656176,1988,1745,0,0,0,0,0,0,0,29,0,0,0,0,1396,320,0,0,0,0,0,0,0,0,0
AE,United Arab Emirates,country,Middle East and North Africa,23.424076,53.847818,TR,Turkey,country,Europe and Central Asia,38.963745,35.243322,2466.36984769033,1988,61326,0,0,0,0,0,0,0,0,0,0,0,0,61250,0,0,0,0,0,76,0,0,0,0
GB,United Kingdom,country,Europe and Central Asia,55.378051,-3.435973,TR,Turkey,country,Europe and Central Asia,38.963745,35.243322,3386.2469737083,1988,58765,23042,0,22,0,2,0,16,0,427,0,132,92,27384,319,5444,162,0,624,1261,0,0,0,0
TZ,Tanzania,country,Sub-Saharan Africa,-6.369028,34.888822,TR,Turkey,country,Europe and Central Asia,38.963745,35.243322,5046.5538509265,1988,2325,0,0,0,0,0,339,0,0,1966,0,0,0,0,0,0,0,0,20,0,0,0,0,0
UY,Uruguay,country,Latin America and the Caribbean,-32.522779,-55.765835,TR,Turkey,country,Europe and Central Asia,38.963745,35.243322,12296.8510308157,1988,231,0,0,0,0,0,0,0,0,184,0,0,27,0,0,0,0,20,0,0,0,0,0,0
RU,Russian Federation,country,Europe and Central Asia,61.52401,105.318756,TR,Turkey,country,Europe and Central Asia,38.963745,35.243322,5257.35226304609,1988,8353,0,0,0,0,0,0,0,0,515,0,0,0,0,3931,0,0,16,0,3891,0,0,0,0
VN,Vietnam,country,East Asia and Pacific,14.058324,108.277199,TR,Turkey,country,Europe and Central Asia,38.963745,35.243322,7581.83926699288,1988,42,0,0,0,0,0,42,0,0,0,0,0,0,0,0,0,0,0,0,0,0,0,0,0
BA,Bosnia & Herzegovina,country,Europe and Central Asia,43.915886,17.679076,TR,Turkey,country,Europe and Central Asia,38.963745,35.243322,1562.19647955306,1988,30831,3282,0,0,1824,0,0,0,17,0,0,92,0,0,25616,0,0,0,0,0,0,0,0,0
AF,Afghanistan,country,South Asia,33.93911,67.709953,TR,Turkey,country,Europe and Central Asia,38.963745,35.243322,2944.23947624646,1989,30,0,0,0,0,0,0,0,0,0,0,0,0,0,0,0,0,0,0,30,0,0,0,0
AR,Argentina,country,Latin America and the Caribbean,-38.416097,-63.616672,TR,Turkey,country,Europe and Central Asia,38.963745,35.243322,13245.2452872061,1989,153720,0,0,0,0,0,0,0,0,98,0,9317,0,0,144305,0,0,0,0,0,0,0,0,0
AU,Australia,country,East Asia and Pacific,-25.274398,133.775136,TR,Turkey,country,Europe and Central Asia,38.963745,35.243322,12455.3154126117,1989,16635,4796,0,0,0,0,0,0,0,6383,0,0,0,0,0,0,0,0,96,5360,0,0,0,0
AT,Austria,country,Europe and Central Asia,47.516231,14.550072,TR,Turkey,country,Europe and Central Asia,38.963745,35.243322,1920.66705517367,1989,2508,0,0,20,0,0,0,0,19,177,0,591,22,2,0,0,0,18,648,1011,0,0,0,0
BS,The Bahamas,country,Latin America and the Caribbean,25.03428,-77.39628,TR,Turkey,country,Europe and Central Asia,38.963745,35.243322,10051.2140665875,1989,757,0,0,0,0,0,0,0,0,757,0,0,0,0,0,0,0,0,0,0,0,0,0,0
BH,Bahrain,country,Middle East and North Africa,25.930414,50.637772,TR,Turkey,country,Europe and Central Asia,38.963745,35.243322,2042.73139678709,1989,247,0,0,0,0,0,0,0,0,0,0,0,0,0,0,0,0,0,0,247,0,0,0,0
BD,Bangladesh,country,South Asia,23.684994,90.356331,TR,Turkey,country,Europe and Central Asia,38.963745,35.243322,5422.38407587905,1989,4126,0,0,0,0,0,0,0,0,4126,0,0,0,0,0,0,0,0,0,0,0,0,0,0
BE,Belgium,country,Europe and Central Asia,50.503887,4.469936,TR,Turkey,country,Europe and Central Asia,38.963745,35.243322,2724.38245644223,1989,9185,55,0,32,0,0,0,0,22,79,1,5240,10,7,3098,0,0,59,94,488,0,0,0,0
BJ,Benin,country,Sub-Saharan Africa,9.30769,2.315834,TR,Turkey,country,Europe and Central Asia,38.963745,35.243322,4650.5277846492,1989,1929,0,0,0,0,0,0,0,0,1929,0,0,0,0,0,0,0,0,0,0,0,0,0,0
BR,Brazil,country,Latin America and the Caribbean,-14.235004,-51.92528,TR,Turkey,country,Europe and Central Asia,38.963745,35.243322,10769.275578926,1989,65561,0,0,0,0,0,0,0,19,0,545,55513,5043,108,4259,0,0,60,14,0,0,0,0,0
BG,Bulgaria,country,Europe and Central Asia,42.733883,25.48583,TR,Turkey,country,Europe and Central Asia,38.963745,35.243322,921.817036725782,1989,100,0,0,0,0,0,0,0,0,100,0,0,0,0,0,0,0,0,0,0,0,0,0,0
BF,Burkina Faso,country,Sub-Saharan Africa,12.238333,-1.561593,TR,Turkey,country,Europe and Central Asia,38.963745,35.243322,4689.04142940258,1989,979,0,0,0,0,0,0,0,0,979,0,0,0,0,0,0,0,0,0,0,0,0,0,0
CM,Cameroon,country,Sub-Saharan Africa,7.369722,12.354722,TR,Turkey,country,Europe and Central Asia,38.963745,35.243322,4198.3906351303,1989,2430,0,0,0,0,0,0,0,0,2430,0,0,0,0,0,0,0,0,0,0,0,0,0,0
CA,Canada,country,North America,56.130366,-106.346771,TR,Turkey,country,Europe and Central Asia,38.963745,35.243322,8847.72704375395,1989,52830,50221,1900,0,0,0,29,0,0,0,0,0,0,0,680,0,6,0,0,0,0,0,0,0
TD,Chad,country,Sub-Saharan Africa,15.454166,18.732207,TR,Turkey,country,Europe and Central Asia,38.963745,35.243322,3073.97679107475,1989,281,0,0,0,0,0,0,0,0,281,0,0,0,0,0,0,0,0,0,0,0,0,0,0
CL,Chile,country,Latin America and the Caribbean,-35.675147,-71.542969,TR,Turkey,country,Europe and Central Asia,38.963745,35.243322,13726.5992452814,1989,67,3,0,0,0,0,0,0,1,4,0,20,0,0,0,0,0,0,0,39,0,0,0,0
HK,Hong Kong,country,East Asia and Pacific,22.396428,114.109497,TR,Turkey,country,Europe and Central Asia,38.963745,35.243322,7543.53328675246,1989,0,0,0,0,0,0,0,0,0,0,0,0,0,0,0,0,0,0,0,0,0,0,0,0
CN,China,country,East Asia and Pacific,35.86166,104.195397,TR,Turkey,country,Europe and Central Asia,38.963745,35.243322,5956.53871448264,1989,2735,25,0,0,0,0,0,11,10,2597,56,0,11,1,0,0,0,0,10,14,0,0,0,0
TW,Taiwan,country,East Asia and Pacific,23.69781,120.960515,TR,Turkey,country,Europe and Central Asia,38.963745,35.243322,8035.8657388625,1989,10461,10204,10,0,0,0,9,12,0,107,22,4,0,88,0,0,0,0,5,0,0,0,0,0
CO,Colombia,country,Latin America and the Caribbean,4.570868,-74.297333,TR,Turkey,country,Europe and Central Asia,38.963745,35.243322,11362.5314489925,1989,4485,0,0,0,0,0,0,13,4432,0,0,0,40,0,0,0,0,0,0,0,0,0,0,0
CR,Costa Rica,country,Latin America and the Caribbean,9.748917,-83.753428,TR,Turkey,country,Europe and Central Asia,38.963745,35.243322,11729.3897610619,1989,1090,0,0,0,0,0,2,7,1064,0,0,0,17,0,0,0,0,0,0,0,0,0,0,0
CI,Ivory Coast,country,Sub-Saharan Africa,7.539989,-5.54708,TR,Turkey,country,Europe and Central Asia,38.963745,35.243322,5369.24942622934,1989,1737,0,0,0,0,0,28,0,0,0,0,0,1709,0,0,0,0,0,0,0,0,0,0,0
CY,Cyprus,country,Europe and Central Asia,35.126413,33.429859,TR,Turkey,country,Europe and Central Asia,38.963745,35.243322,456.518566652788,1989,23991,18808,0,0,40,0,0,0,3392,179,0,0,0,0,83,1287,0,0,21,181,0,0,0,0
CZ,Czech Republic,country,Europe and Central Asia,49.817492,15.472962,TR,Turkey,country,Europe and Central Asia,38.963745,35.243322,1972.91568988641,1989,448,0,0,0,0,0,0,0,0,0,0,0,0,0,0,0,0,31,348,69,0,0,0,0
DK,Denmark,country,Europe and Central Asia,56.26392,9.501785,TR,Turkey,country,Europe and Central Asia,38.963745,35.243322,2697.24897242748,1989,426,0,0,0,0,0,0,0,0,0,0,113,0,58,110,0,0,78,67,0,0,0,0,0
DM,Dominica,country,Latin America and the Caribbean,15.414999,-61.370976,TR,Turkey,country,Europe and Central Asia,38.963745,35.243322,9502.78444171132,1989,11,0,0,0,0,0,11,0,0,0,0,0,0,0,0,0,0,0,0,0,0,0,0,0
DO,Dominican Republic,country,Latin America and the Caribbean,18.735693,-70.162651,TR,Turkey,country,Europe and Central Asia,38.963745,35.243322,9978.14166741163,1989,20,0,0,0,0,0,20,0,0,0,0,0,0,0,0,0,0,0,0,0,0,0,0,0
EC,Ecuador,country,Latin America and the Caribbean,-1.831239,-78.183406,TR,Turkey,country,Europe and Central Asia,38.963745,35.243322,12157.4591676915,1989,7991,0,0,0,0,0,0,0,7974,0,0,0,17,0,0,0,0,0,0,0,0,0,0,0
EG,Egypt,country,Middle East and North Africa,26.820553,30.802498,TR,Turkey,country,Europe and Central Asia,38.963745,35.243322,1413.54872030114,1989,3930,3154,0,0,0,0,0,6,0,770,0,0,0,0,0,0,0,0,0,0,0,0,0,0
SV,El Salvador,country,Latin America and the Caribbean,13.794185,-88.89653,TR,Turkey,country,Europe and Central Asia,38.963745,35.243322,11788.0032216324,1989,16,0,0,0,0,0,0,0,0,0,0,0,0,0,0,0,0,0,0,16,0,0,0,0
GQ,Equatorial Guinea,country,Sub-Saharan Africa,1.650801,10.267895,TR,Turkey,country,Europe and Central Asia,38.963745,35.243322,4867.51708533026,1989,398,0,0,0,0,0,0,0,398,0,0,0,0,0,0,0,0,0,0,0,0,0,0,0
FI,Finland,country,Europe and Central Asia,61.92411,25.748151,TR,Turkey,country,Europe and Central Asia,38.963745,35.243322,2636.70495934928,1989,833,0,0,0,0,0,0,0,0,200,0,0,0,0,40,0,0,0,522,71,0,0,0,0
FR,France,country,Europe and Central Asia,46.227638,2.213749,TR,Turkey,country,Europe and Central Asia,38.963745,35.243322,2802.00279829849,1989,619360,607615,0,611,0,0,14,7,9,447,1,165,156,302,5949,103,21,202,355,3424,0,0,0,0
GH,Ghana,country,Sub-Saharan Africa,7.946527,-1.023194,TR,Turkey,country,Europe and Central Asia,38.963745,35.243322,5002.86370236903,1989,1257,0,0,0,0,0,0,0,0,0,0,0,1139,118,0,0,0,0,0,0,0,0,0,0
GR,Greece,country,Europe and Central Asia,39.074208,21.824312,TR,Turkey,country,Europe and Central Asia,38.963745,35.243322,1159.59724710074,1989,18248,988,718,0,0,0,20,10,0,11321,2,0,0,0,3996,0,0,20,0,1173,0,0,0,0
GL,Greenland,country,Europe and Central Asia,71.706936,-42.604303,TR,Turkey,country,Europe and Central Asia,38.963745,35.243322,5518.88274611662,1989,100,0,0,0,0,0,0,0,0,0,0,0,0,0,100,0,0,0,0,0,0,0,0,0
GP,Guadeloupe,country,Latin America and the Caribbean,16.995971,-62.067641,TR,Turkey,country,Europe and Central Asia,38.963745,35.243322,9449.16378627562,1989,3970,0,0,0,0,0,0,0,0,0,0,0,0,0,3970,0,0,0,0,0,0,0,0,0
GT,Guatemala,country,Latin America and the Caribbean,15.783471,-90.230759,TR,Turkey,country,Europe and Central Asia,38.963745,35.243322,11717.3568809196,1989,652,0,0,0,0,0,136,0,16,500,0,0,0,0,0,0,0,0,0,0,0,0,0,0
GN,Guinea,country,Sub-Saharan Africa,9.945587,-9.696645,TR,Turkey,country,Europe and Central Asia,38.963745,35.243322,5499.6537855345,1989,20,0,0,0,0,0,0,0,0,0,0,0,20,0,0,0,0,0,0,0,0,0,0,0
GY,Guyana,country,Latin America and the Caribbean,4.860416,-58.93018,TR,Turkey,country,Europe and Central Asia,38.963745,35.243322,10038.5523829645,1989,11,0,0,0,0,0,0,0,0,0,0,0,11,0,0,0,0,0,0,0,0,0,0,0
HN,Honduras,country,Latin America and the Caribbean,15.199999,-86.241905,TR,Turkey,country,Europe and Central Asia,38.963745,35.243322,11479.4281412454,1989,458,0,0,0,0,0,0,0,458,0,0,0,0,0,0,0,0,0,0,0,0,0,0,0
HU,Hungary,country,Europe and Central Asia,47.162494,19.503304,TR,Turkey,country,Europe and Central Asia,38.963745,35.243322,1567.415228057,1989,138,68,0,0,10,0,0,60,0,0,0,0,0,0,0,0,0,0,0,0,0,0,0,0
IS,Iceland,country,Europe and Central Asia,64.963051,-19.020835,TR,Turkey,country,Europe and Central Asia,38.963745,35.243322,4493.47989084263,1989,70,0,0,0,0,0,0,0,0,0,0,0,0,0,0,0,0,0,0,70,0,0,0,0
IN,India,country,South Asia,20.593684,78.96288,TR,Turkey,country,Europe and Central Asia,38.963745,35.243322,4636.35858129563,1989,27312,100,0,0,0,0,716,16,2,176,8,22591,8,0,6,0,0,3689,0,0,0,0,0,0
ID,Indonesia,country,East Asia and Pacific,-0.789275,113.921327,TR,Turkey,country,Europe and Central Asia,38.963745,35.243322,9097.27334314872,1989,24886,0,13948,0,0,0,0,0,0,0,40,0,33,5966,4899,0,0,0,0,0,0,0,0,0
IR,Iran,country,Middle East and North Africa,32.427908,53.688046,TR,Turkey,country,Europe and Central Asia,38.963745,35.243322,1814.9385091785,1989,434,0,0,0,60,0,0,16,0,0,0,0,0,0,0,0,0,0,0,358,0,0,0,0
IQ,Iraq,country,Middle East and North Africa,33.223191,43.679291,TR,Turkey,country,Europe and Central Asia,38.963745,35.243322,991.255314597934,1989,12049,0,0,0,0,0,115,18,8848,1779,0,0,0,0,0,0,0,0,0,1289,0,0,0,0
IE,Ireland,country,Europe and Central Asia,53.41291,-8.24389,TR,Turkey,country,Europe and Central Asia,38.963745,35.243322,3644.22486914243,1989,161,0,0,0,0,0,0,0,0,73,0,0,0,0,0,0,0,0,0,88,0,0,0,0
IL,Israel,country,Middle East and North Africa,31.046051,34.851612,TR,Turkey,country,Europe and Central Asia,38.963745,35.243322,882.114203446346,1989,3573,200,0,0,0,0,0,1,0,3363,0,1,0,8,0,0,150,0,0,0,0,0,0,0
IT,Italy,country,Europe and Central Asia,41.87194,12.56738,TR,Turkey,country,Europe and Central Asia,38.963745,35.243322,1943.00856501574,1989,108812,87667,0,910,0,0,0,0,7,76,0,1693,291,23,16638,22,0,87,3,1395,0,0,0,0
JP,Japan,country,East Asia and Pacific,36.204824,138.252924,TR,Turkey,country,Europe and Central Asia,38.963745,35.243322,8537.2610571626,1989,3647,0,0,0,0,0,0,0,0,5,0,0,0,6,3636,0,0,0,0,0,0,0,0,0
JO,Jordan,country,Middle East and North Africa,30.585164,36.238414,TR,Turkey,country,Europe and Central Asia,38.963745,35.243322,937.107780068079,1989,13970,50,0,0,0,0,25,0,0,2498,0,0,0,0,10879,0,0,0,0,518,0,0,0,0
KE,Kenya,country,Sub-Saharan Africa,-0.023559,37.906193,TR,Turkey,country,Europe and Central Asia,38.963745,35.243322,4348.55145491165,1989,66,0,0,0,0,0,0,0,0,0,0,0,24,0,0,0,0,0,0,42,0,0,0,0
KW,Kuwait,country,Middle East and North Africa,29.31166,47.481766,TR,Turkey,country,Europe and Central Asia,38.963745,35.243322,1554.77462453809,1989,437,0,0,0,0,0,0,0,0,153,0,0,0,0,0,0,0,0,0,284,0,0,0,0
LB,Lebanon,country,Middle East and North Africa,33.854721,35.862285,TR,Turkey,country,Europe and Central Asia,38.963745,35.243322,571.42622906272,1989,1358,0,0,0,0,0,0,0,0,14,0,0,0,0,0,0,0,0,140,1204,0,0,0,0
LR,Liberia,country,Sub-Saharan Africa,6.428055,-9.429499,TR,Turkey,country,Europe and Central Asia,38.963745,35.243322,5754.5442759538,1989,20,0,0,0,0,0,0,0,0,0,0,0,0,20,0,0,0,0,0,0,0,0,0,0
LY,Libya,country,Middle East and North Africa,26.3351,17.228331,TR,Turkey,country,Europe and Central Asia,38.963745,35.243322,2189.68844621022,1989,8,0,0,0,0,0,0,0,0,0,0,0,0,0,0,0,0,0,0,8,0,0,0,0
MG,Madagascar,country,Sub-Saharan Africa,-18.766947,46.869107,TR,Turkey,country,Europe and Central Asia,38.963745,35.243322,6539.85063542829,1989,30,0,0,0,0,0,0,0,0,0,30,0,0,0,0,0,0,0,0,0,0,0,0,0
MY,Malaysia,country,East Asia and Pacific,4.210484,101.975766,TR,Turkey,country,Europe and Central Asia,38.963745,35.243322,7721.15671220867,1989,200499,0,0,0,0,0,269,0,19,0,416,5,247,37294,162249,0,0,0,0,0,0,0,0,0
MR,Mauritania,country,Sub-Saharan Africa,21.00789,-10.940835,TR,Turkey,country,Europe and Central Asia,38.963745,35.243322,4818.22719700048,1989,20,0,0,0,0,0,0,0,0,0,0,0,0,20,0,0,0,0,0,0,0,0,0,0
MX,Mexico,country,Latin America and the Caribbean,23.634501,-102.552784,TR,Turkey,country,Europe and Central Asia,38.963745,35.243322,11799.3735425116,1989,77,0,0,0,0,0,0,0,4,0,73,0,0,0,0,0,0,0,0,0,0,0,0,0
MA,Morocco,country,Middle East and North Africa,31.791702,-7.09262,TR,Turkey,country,Europe and Central Asia,38.963745,35.243322,3888.72766026092,1989,0,0,0,0,0,0,0,0,0,0,0,0,0,0,0,0,0,0,0,0,0,0,0,0
MZ,Mozambique,country,Sub-Saharan Africa,-18.665695,35.529562,TR,Turkey,country,Europe and Central Asia,38.963745,35.243322,6415.34933531684,1989,109,0,0,0,0,0,109,0,0,0,0,0,0,0,0,0,0,0,0,0,0,0,0,0
NA,Namibia,country,Sub-Saharan Africa,-22.95764,18.49041,TR,Turkey,country,Europe and Central Asia,38.963745,35.243322,7110.7878602447,1989,603924,601258,0,0,0,0,0,0,0,874,0,0,20,2,0,0,0,0,0,1770,0,0,0,0
NL,Netherlands,country,Europe and Central Asia,52.132633,5.291266,TR,Turkey,country,Europe and Central Asia,38.963745,35.243322,2727.37266399519,1989,15046,264,50,425,9,0,0,1,0,0,13,737,1000,433,9219,16,451,818,1279,782,0,0,0,0
NZ,New Zealand,country,East Asia and Pacific,-40.900557,174.885971,TR,Turkey,country,Europe and Central Asia,38.963745,35.243322,16616.4394144971,1989,6507,0,0,0,0,0,3,0,13,4663,0,0,0,24,0,0,0,0,0,1804,0,0,0,0
NI,Nicaragua,country,Latin America and the Caribbean,12.865416,-85.207229,TR,Turkey,country,Europe and Central Asia,38.963745,35.243322,11591.8550488197,1989,420,0,0,0,0,0,0,15,405,0,0,0,0,0,0,0,0,0,0,0,0,0,0,0
NE,Niger,country,Sub-Saharan Africa,17.607789,8.081666,TR,Turkey,country,Europe and Central Asia,38.963745,35.243322,3543.41235264415,1989,94,0,0,0,0,0,0,0,0,0,0,0,0,94,0,0,0,0,0,0,0,0,0,0
NG,Nigeria,country,Sub-Saharan Africa,9.081999,8.675277,TR,Turkey,country,Europe and Central Asia,38.963745,35.243322,4251.14330705406,1989,2970,0,0,0,0,0,0,0,0,0,0,0,59,2901,0,0,0,0,0,10,0,0,0,0
NO,Norway,country,Europe and Central Asia,60.472024,8.468946,TR,Turkey,country,Europe and Central Asia,38.963745,35.243322,3029.79944805119,1989,589,1,0,0,0,0,0,0,0,3,0,56,0,108,25,0,0,0,0,396,0,0,0,0
PK,Pakistan,country,South Asia,30.375321,69.345116,TR,Turkey,country,Europe and Central Asia,38.963745,35.243322,3243.80852610217,1989,581,0,0,0,0,0,156,0,0,425,0,0,0,0,0,0,0,0,0,0,0,0,0,0
PA,Panama,country,Latin America and the Caribbean,8.537981,-80.782127,TR,Turkey,country,Europe and Central Asia,38.963745,35.243322,11591.0443681426,1989,843,0,0,0,0,0,0,0,843,0,0,0,0,0,0,0,0,0,0,0,0,0,0,0
PG,Papua New Guinea,country,East Asia and Pacific,-6.314993,143.95555,TR,Turkey,country,Europe and Central Asia,38.963745,35.243322,12076.8011868068,1989,21,0,0,0,0,0,0,0,0,0,0,0,21,0,0,0,0,0,0,0,0,0,0,0
PY,Paraguay,country,Latin America and the Caribbean,-23.442503,-58.443832,TR,Turkey,country,Europe and Central Asia,38.963745,35.243322,11935.675644241,1989,676,0,0,0,0,0,0,0,0,0,0,0,676,0,0,0,0,0,0,0,0,0,0,0
PE,Peru,country,Latin America and the Caribbean,-9.189967,-75.015152,TR,Turkey,country,Europe and Central Asia,38.963745,35.243322,12410.0757281223,1989,14,0,0,0,0,0,0,0,0,14,0,0,0,0,0,0,0,0,0,0,0,0,0,0
PH,Philippines,country,East Asia and Pacific,12.879721,121.774017,TR,Turkey,country,Europe and Central Asia,38.963745,35.243322,8825.22876378843,1989,8224,0,0,0,0,0,43,0,534,14,0,0,0,0,7633,0,0,0,0,0,0,0,0,0
PL,Poland,country,Europe and Central Asia,51.919438,19.145136,TR,Turkey,country,Europe and Central Asia,38.963745,35.243322,1904.73467791636,1989,97,0,0,0,0,0,0,0,0,0,0,0,0,0,0,0,0,0,80,17,0,0,0,0
PT,Portugal,country,Europe and Central Asia,39.399872,-8.224454,TR,Turkey,country,Europe and Central Asia,38.963745,35.243322,3714.00348570757,1989,0,0,0,0,0,0,0,0,0,0,0,0,0,0,0,0,0,0,0,0,0,0,0,0
PR,Puerto Rico,country,Latin America and the Caribbean,18.220833,-66.590149,TR,Turkey,country,Europe and Central Asia,38.963745,35.243322,9730.56809832445,1989,1047993,895224,0,77,25,0,20957,19,350,28349,0,2602,0,14208,85369,172,32,21,2,618,0,0,0,0
QA,Qatar,country,Middle East and North Africa,25.354826,51.183884,TR,Turkey,country,Europe and Central Asia,38.963745,35.243322,2127.04565436248,1989,546,0,0,0,0,0,0,0,0,2,0,0,0,0,0,0,0,0,0,544,0,0,0,0
KR,"Korea, Rep.",country,East Asia and Pacific,35.907757,127.766922,TR,Turkey,country,Europe and Central Asia,38.963745,35.243322,7798.8340616013,1989,24,0,0,0,0,0,0,0,0,24,0,0,0,0,0,0,0,0,0,0,0,0,0,0
RO,Romania,country,Europe and Central Asia,45.943161,24.96676,TR,Turkey,country,Europe and Central Asia,38.963745,35.243322,1145.4749902999,1989,24120,23955,0,0,0,0,0,0,0,0,0,0,0,0,0,0,0,21,144,0,0,0,0,0
SA,Saudi Arabia,country,Middle East and North Africa,23.885942,45.079162,TR,Turkey,country,Europe and Central Asia,38.963745,35.243322,1918.03492229189,1989,191281,182031,0,0,0,0,0,0,214,2809,0,0,0,25,0,0,0,0,0,6202,0,0,0,0
SC,Seychelles,country,Sub-Saharan Africa,-4.679574,55.491977,TR,Turkey,country,Europe and Central Asia,38.963745,35.243322,5286.22580249371,1989,25,0,0,0,0,0,0,0,0,0,25,0,0,0,0,0,0,0,0,0,0,0,0,0
SG,Singapore,country,East Asia and Pacific,1.352083,103.819836,TR,Turkey,country,Europe and Central Asia,38.963745,35.243322,8083.64958551106,1989,1885,0,0,0,0,0,606,0,0,0,7,0,0,1173,99,0,0,0,0,0,0,0,0,0
SB,Solomon Islands,country,East Asia and Pacific,-9.64571,160.156194,TR,Turkey,country,Europe and Central Asia,38.963745,35.243322,13688.0782490465,1989,260,0,0,0,0,0,0,0,0,0,0,0,260,0,0,0,0,0,0,0,0,0,0,0
SO,Somalia,country,Sub-Saharan Africa,5.152149,46.199616,TR,Turkey,country,Europe and Central Asia,38.963745,35.243322,3922.74266672529,1989,35,0,0,0,0,0,0,0,0,0,0,0,22,0,0,0,0,0,0,13,0,0,0,0
ES,Spain,country,Europe and Central Asia,40.463667,-3.74922,TR,Turkey,country,Europe and Central Asia,38.963745,35.243322,3315.95022920572,1989,268803,143811,0,7,0,0,0,7,20,0,0,0,34,4,124749,8,0,0,96,67,0,0,0,0
LK,Sri Lanka,country,South Asia,7.873054,80.771797,TR,Turkey,country,Europe and Central Asia,38.963745,35.243322,5706.83871006826,1989,596,0,0,0,0,0,568,0,0,0,8,0,0,20,0,0,0,0,0,0,0,0,0,0
SD,Sudan,country,Sub-Saharan Africa,12.862807,30.217636,TR,Turkey,country,Europe and Central Asia,38.963745,35.243322,2947.51011830892,1989,16559,0,0,0,0,0,15918,0,0,456,0,0,0,40,0,0,0,0,0,145,0,0,0,0
SE,Sweden,country,Europe and Central Asia,60.128161,18.643501,TR,Turkey,country,Europe and Central Asia,38.963745,35.243322,2626.41298859191,1989,32,0,0,0,0,0,0,0,0,0,0,0,0,0,18,0,0,0,0,14,0,0,0,0
CH,Switzerland,country,Europe and Central Asia,46.818188,8.227512,TR,Turkey,country,Europe and Central Asia,38.963745,35.243322,2355.84072074118,1989,30975,25625,144,0,0,0,0,2,0,954,0,20,121,515,3346,0,0,210,0,38,0,0,0,0
SY,Syrian Arab Rep.,country,Middle East and North Africa,34.802075,38.996815,TR,Turkey,country,Europe and Central Asia,38.963745,35.243322,571.117569303629,1989,27683,25415,0,0,0,0,0,0,0,2255,0,0,0,0,0,0,0,0,13,0,0,0,0,0
TH,Thailand,country,East Asia and Pacific,15.870032,100.992541,TR,Turkey,country,Europe and Central Asia,38.963745,35.243322,6831.71686656176,1989,77279,23470,52311,0,0,0,0,0,46,0,21,0,0,1431,0,0,0,0,0,0,0,0,0,0
TG,Togo,country,Sub-Saharan Africa,8.619543,0.824782,TR,Turkey,country,Europe and Central Asia,38.963745,35.243322,4814.11703899954,1989,610,0,0,0,0,0,0,0,0,570,0,0,40,0,0,0,0,0,0,0,0,0,0,0
TN,Tunisia,country,Middle East and North Africa,33.886917,9.537499,TR,Turkey,country,Europe and Central Asia,38.963745,35.243322,2362.21464082084,1989,111,0,0,0,0,0,0,0,0,0,0,0,0,0,0,0,0,0,0,111,0,0,0,0
UG,Uganda,country,Sub-Saharan Africa,1.373333,32.290275,TR,Turkey,country,Europe and Central Asia,38.963745,35.243322,4195.32625554283,1989,275,0,0,0,0,0,275,0,0,0,0,0,0,0,0,0,0,0,0,0,0,0,0,0
AE,United Arab Emirates,country,Middle East and North Africa,23.424076,53.847818,TR,Turkey,country,Europe and Central Asia,38.963745,35.243322,2466.36984769033,1989,468,0,0,0,0,0,0,0,0,6,0,0,0,0,0,0,0,19,0,443,0,0,0,0
GB,United Kingdom,country,Europe and Central Asia,55.378051,-3.435973,TR,Turkey,country,Europe and Central Asia,38.963745,35.243322,3386.2469737083,1989,115451,110941,0,24,14,0,10,2,0,1033,2,346,188,316,33,1199,166,38,353,952,0,0,0,0
TZ,Tanzania,country,Sub-Saharan Africa,-6.369028,34.888822,TR,Turkey,country,Europe and Central Asia,38.963745,35.243322,5046.5538509265,1989,546,0,0,0,0,0,525,0,0,0,21,0,0,0,0,0,0,0,0,0,0,0,0,0
UY,Uruguay,country,Latin America and the Caribbean,-32.522779,-55.765835,TR,Turkey,country,Europe and Central Asia,38.963745,35.243322,12296.8510308157,1989,217,0,0,0,0,0,0,0,0,36,0,0,0,0,0,0,0,181,0,0,0,0,0,0
RU,Russian Federation,country,Europe and Central Asia,61.52401,105.318756,TR,Turkey,country,Europe and Central Asia,38.963745,35.243322,5257.35226304609,1989,16127,0,0,0,0,0,0,0,0,54,0,0,0,0,7133,0,0,0,0,8940,0,0,0,0
VN,Vietnam,country,East Asia and Pacific,14.058324,108.277199,TR,Turkey,country,Europe and Central Asia,38.963745,35.243322,7581.83926699288,1989,25,0,0,0,0,0,25,0,0,0,0,0,0,0,0,0,0,0,0,0,0,0,0,0
BA,Bosnia & Herzegovina,country,Europe and Central Asia,43.915886,17.679076,TR,Turkey,country,Europe and Central Asia,38.963745,35.243322,1562.19647955306,1989,242014,194677,0,0,0,0,0,100,33,0,0,10,0,0,43808,0,0,0,7,3379,0,0,0,0
AF,Afghanistan,country,South Asia,33.93911,67.709953,TR,Turkey,country,Europe and Central Asia,38.963745,35.243322,2944.23947624646,1990,201,0,0,0,0,0,0,0,0,0,0,0,0,0,0,0,0,0,0,201,0,0,0,0
AG,Antigua & Barbuda,country,Latin America and the Caribbean,17.060816,-61.796428,TR,Turkey,country,Europe and Central Asia,38.963745,35.243322,9422.2357239528,1990,82,0,0,0,0,0,0,0,82,0,0,0,0,0,0,0,0,0,0,0,0,0,0,0
AR,Argentina,country,Latin America and the Caribbean,-38.416097,-63.616672,TR,Turkey,country,Europe and Central Asia,38.963745,35.243322,13245.2452872061,1990,656479,532762,0,0,471,0,2392,0,0,498,0,5737,0,0,114619,0,0,0,0,0,0,0,0,0
AU,Australia,country,East Asia and Pacific,-25.274398,133.775136,TR,Turkey,country,Europe and Central Asia,38.963745,35.243322,12455.3154126117,1990,41055,29463,0,20,0,0,0,0,0,5534,0,0,0,0,0,0,0,0,60,5978,0,0,0,0
AT,Austria,country,Europe and Central Asia,47.516231,14.550072,TR,Turkey,country,Europe and Central Asia,38.963745,35.243322,1920.66705517367,1990,7641,4065,84,0,0,1,0,185,67,139,0,403,39,1,86,0,0,0,976,1595,0,0,0,0
BH,Bahrain,country,Middle East and North Africa,25.930414,50.637772,TR,Turkey,country,Europe and Central Asia,38.963745,35.243322,2042.73139678709,1990,102,0,0,0,0,0,0,0,0,0,0,0,0,0,0,0,0,0,0,102,0,0,0,0
BD,Bangladesh,country,South Asia,23.684994,90.356331,TR,Turkey,country,Europe and Central Asia,38.963745,35.243322,5422.38407587905,1990,7089,0,189,0,0,0,0,0,147,6753,0,0,0,0,0,0,0,0,0,0,0,0,0,0
BE,Belgium,country,Europe and Central Asia,50.503887,4.469936,TR,Turkey,country,Europe and Central Asia,38.963745,35.243322,2724.38245644223,1990,126303,12005,0,106563,0,0,0,22,0,271,0,317,73,183,3116,11,0,160,2288,1294,0,0,0,0
BM,Bermuda,country,North America,32.321384,-64.75737,TR,Turkey,country,Europe and Central Asia,38.963745,35.243322,8590.21165717437,1990,21,0,0,0,0,0,0,0,0,0,0,0,0,0,0,21,0,0,0,0,0,0,0,0
BR,Brazil,country,Latin America and the Caribbean,-14.235004,-51.92528,TR,Turkey,country,Europe and Central Asia,38.963745,35.243322,10769.275578926,1990,22761,0,0,4830,0,0,0,0,57,326,414,6801,6544,45,3734,0,0,0,2,8,0,0,0,0
BG,Bulgaria,country,Europe and Central Asia,42.733883,25.48583,TR,Turkey,country,Europe and Central Asia,38.963745,35.243322,921.817036725782,1990,37461,37123,0,0,0,0,0,0,0,0,0,0,0,0,0,0,0,162,0,176,0,0,0,0
BF,Burkina Faso,country,Sub-Saharan Africa,12.238333,-1.561593,TR,Turkey,country,Europe and Central Asia,38.963745,35.243322,4689.04142940258,1990,490,0,0,0,0,0,0,0,0,490,0,0,0,0,0,0,0,0,0,0,0,0,0,0
CA,Canada,country,North America,56.130366,-106.346771,TR,Turkey,country,Europe and Central Asia,38.963745,35.243322,8847.72704375395,1990,41627,38830,2792,0,0,0,5,0,0,0,0,0,0,0,0,0,6,0,0,0,0,0,0,0
CL,Chile,country,Latin America and the Caribbean,-35.675147,-71.542969,TR,Turkey,country,Europe and Central Asia,38.963745,35.243322,13726.5992452814,1990,82,0,0,0,0,0,0,0,0,0,0,0,0,0,0,0,0,0,0,82,0,0,0,0
HK,Hong Kong,country,East Asia and Pacific,22.396428,114.109497,TR,Turkey,country,Europe and Central Asia,38.963745,35.243322,7543.53328675246,1990,0,0,0,0,0,0,0,0,0,0,0,0,0,0,0,0,0,0,0,0,0,0,0,0
CN,China,country,East Asia and Pacific,35.86166,104.195397,TR,Turkey,country,Europe and Central Asia,38.963745,35.243322,5956.53871448264,1990,58938,21,0,13607,2272,0,1547,54,7,66,71,40157,104,4,997,0,0,0,0,31,0,0,0,0
TW,Taiwan,country,East Asia and Pacific,23.69781,120.960515,TR,Turkey,country,Europe and Central Asia,38.963745,35.243322,8035.8657388625,1990,35057,19,28115,6750,0,0,24,5,28,2,0,1,21,10,82,0,0,0,0,0,0,0,0,0
CO,Colombia,country,Latin America and the Caribbean,4.570868,-74.297333,TR,Turkey,country,Europe and Central Asia,38.963745,35.243322,11362.5314489925,1990,17098,0,0,0,0,0,0,0,13098,4000,0,0,0,0,0,0,0,0,0,0,0,0,0,0
CG,"Congo, Rep.",country,Sub-Saharan Africa,-0.228021,15.827659,TR,Turkey,country,Europe and Central Asia,38.963745,35.243322,4791.74457963516,1990,9,0,0,0,0,0,0,0,9,0,0,0,0,0,0,0,0,0,0,0,0,0,0,0
CR,Costa Rica,country,Latin America and the Caribbean,9.748917,-83.753428,TR,Turkey,country,Europe and Central Asia,38.963745,35.243322,11729.3897610619,1990,3993,0,0,0,0,0,10,3,3980,0,0,0,0,0,0,0,0,0,0,0,0,0,0,0
CI,Ivory Coast,country,Sub-Saharan Africa,7.539989,-5.54708,TR,Turkey,country,Europe and Central Asia,38.963745,35.243322,5369.24942622934,1990,3866,0,0,0,0,0,109,0,2,0,0,0,3735,0,0,0,0,0,20,0,0,0,0,0
CU,Cuba,country,Latin America and the Caribbean,21.521757,-77.781167,TR,Turkey,country,Europe and Central Asia,38.963745,35.243322,10352.00047352,1990,11912,0,0,11912,0,0,0,0,0,0,0,0,0,0,0,0,0,0,0,0,0,0,0,0
CY,Cyprus,country,Europe and Central Asia,35.126413,33.429859,TR,Turkey,country,Europe and Central Asia,38.963745,35.243322,456.518566652788,1990,1875,0,0,0,0,0,0,0,228,190,0,0,0,2,0,1296,0,0,37,122,0,0,0,0
CZ,Czech Republic,country,Europe and Central Asia,49.817492,15.472962,TR,Turkey,country,Europe and Central Asia,38.963745,35.243322,1972.91568988641,1990,4265,0,0,78,0,0,0,1115,0,0,0,0,0,0,0,0,0,1511,1528,33,0,0,0,0
CD,"Congo, Dem. Rep.",country,Sub-Saharan Africa,-4.038333,21.758664,TR,Turkey,country,Europe and Central Asia,38.963745,35.243322,4983.70500105939,1990,81,0,0,0,0,0,0,0,0,0,0,0,0,81,0,0,0,0,0,0,0,0,0,0
DK,Denmark,country,Europe and Central Asia,56.26392,9.501785,TR,Turkey,country,Europe and Central Asia,38.963745,35.243322,2697.24897242748,1990,32483,31682,0,0,0,0,43,0,21,0,0,1,5,0,454,1,0,75,120,81,0,0,0,0
DM,Dominica,country,Latin America and the Caribbean,15.414999,-61.370976,TR,Turkey,country,Europe and Central Asia,38.963745,35.243322,9502.78444171132,1990,65,0,0,0,0,0,65,0,0,0,0,0,0,0,0,0,0,0,0,0,0,0,0,0
DO,Dominican Republic,country,Latin America and the Caribbean,18.735693,-70.162651,TR,Turkey,country,Europe and Central Asia,38.963745,35.243322,9978.14166741163,1990,106,0,0,0,0,0,94,0,12,0,0,0,0,0,0,0,0,0,0,0,0,0,0,0
EC,Ecuador,country,Latin America and the Caribbean,-1.831239,-78.183406,TR,Turkey,country,Europe and Central Asia,38.963745,35.243322,12157.4591676915,1990,32056,0,0,0,0,0,0,0,32056,0,0,0,0,0,0,0,0,0,0,0,0,0,0,0
EG,Egypt,country,Middle East and North Africa,26.820553,30.802498,TR,Turkey,country,Europe and Central Asia,38.963745,35.243322,1413.54872030114,1990,9488,2131,0,0,0,0,106,6327,0,902,22,0,0,0,0,0,0,0,0,0,0,0,0,0
GQ,Equatorial Guinea,country,Sub-Saharan Africa,1.650801,10.267895,TR,Turkey,country,Europe and Central Asia,38.963745,35.243322,4867.51708533026,1990,540,0,0,0,0,0,0,0,540,0,0,0,0,0,0,0,0,0,0,0,0,0,0,0
ET,Ethiopia,country,Sub-Saharan Africa,9.145,40.489673,TR,Turkey,country,Europe and Central Asia,38.963745,35.243322,3360.42704552802,1990,3816,0,0,0,3816,0,0,0,0,0,0,0,0,0,0,0,0,0,0,0,0,0,0,0
FI,Finland,country,Europe and Central Asia,61.92411,25.748151,TR,Turkey,country,Europe and Central Asia,38.963745,35.243322,2636.70495934928,1990,1076,0,0,0,0,0,9,0,82,0,0,0,20,0,520,0,0,0,420,25,0,0,0,0
FR,France,country,Europe and Central Asia,46.227638,2.213749,TR,Turkey,country,Europe and Central Asia,38.963745,35.243322,2802.00279829849,1990,1075096,835173,16,220274,1,0,324,77,0,540,14,302,439,581,11950,139,255,213,179,4874,0,0,0,0
GH,Ghana,country,Sub-Saharan Africa,7.946527,-1.023194,TR,Turkey,country,Europe and Central Asia,38.963745,35.243322,5002.86370236903,1990,284,0,0,0,0,0,0,0,0,0,0,0,265,19,0,0,0,0,0,0,0,0,0,0
GR,Greece,country,Europe and Central Asia,39.074208,21.824312,TR,Turkey,country,Europe and Central Asia,38.963745,35.243322,1159.59724710074,1990,35629,11117,4616,0,0,0,210,575,0,11216,0,6,0,0,7247,0,0,0,0,642,0,0,0,0
GT,Guatemala,country,Latin America and the Caribbean,15.783471,-90.230759,TR,Turkey,country,Europe and Central Asia,38.963745,35.243322,11717.3568809196,1990,16,0,0,0,0,0,0,0,0,0,0,0,16,0,0,0,0,0,0,0,0,0,0,0
HN,Honduras,country,Latin America and the Caribbean,15.199999,-86.241905,TR,Turkey,country,Europe and Central Asia,38.963745,35.243322,11479.4281412454,1990,1487,0,0,0,0,0,0,0,1487,0,0,0,0,0,0,0,0,0,0,0,0,0,0,0
HU,Hungary,country,Europe and Central Asia,47.162494,19.503304,TR,Turkey,country,Europe and Central Asia,38.963745,35.243322,1567.415228057,1990,9890,5733,20,0,0,18,21,1322,0,0,0,0,0,0,989,0,0,1052,445,290,0,0,0,0
IS,Iceland,country,Europe and Central Asia,64.963051,-19.020835,TR,Turkey,country,Europe and Central Asia,38.963745,35.243322,4493.47989084263,1990,515,0,0,0,0,0,0,0,515,0,0,0,0,0,0,0,0,0,0,0,0,0,0,0
IN,India,country,South Asia,20.593684,78.96288,TR,Turkey,country,Europe and Central Asia,38.963745,35.243322,4636.35858129563,1990,78599,114,0,109,0,10,19649,750,0,2265,115,55462,20,0,41,3,0,0,0,61,0,0,0,0
ID,Indonesia,country,East Asia and Pacific,-0.789275,113.921327,TR,Turkey,country,Europe and Central Asia,38.963745,35.243322,9097.27334314872,1990,32775,0,16226,0,0,0,50,0,0,0,88,0,125,8031,8255,0,0,0,0,0,0,0,0,0
IR,Iran,country,Middle East and North Africa,32.427908,53.688046,TR,Turkey,country,Europe and Central Asia,38.963745,35.243322,1814.9385091785,1990,19243,0,0,0,0,20,0,18566,189,0,0,0,0,0,0,0,0,0,0,468,0,0,0,0
IQ,Iraq,country,Middle East and North Africa,33.223191,43.679291,TR,Turkey,country,Europe and Central Asia,38.963745,35.243322,991.255314597934,1990,43768,9150,0,0,40,0,1296,1853,20429,8149,0,0,0,0,1495,0,0,0,0,1356,0,0,0,0
IE,Ireland,country,Europe and Central Asia,53.41291,-8.24389,TR,Turkey,country,Europe and Central Asia,38.963745,35.243322,3644.22486914243,1990,19684,7424,0,11988,0,0,20,0,0,60,0,0,0,0,0,8,0,0,60,124,0,0,0,0
IL,Israel,country,Middle East and North Africa,31.046051,34.851612,TR,Turkey,country,Europe and Central Asia,38.963745,35.243322,882.114203446346,1990,2697,0,0,127,0,0,0,46,99,2394,10,1,0,5,0,0,108,0,0,15,0,0,0,0
IT,Italy,country,Europe and Central Asia,41.87194,12.56738,TR,Turkey,country,Europe and Central Asia,38.963745,35.243322,1943.00856501574,1990,60346,11875,21,35391,132,0,22,0,31,502,0,702,663,149,10060,58,20,0,2,738,0,0,0,0
JP,Japan,country,East Asia and Pacific,36.204824,138.252924,TR,Turkey,country,Europe and Central Asia,38.963745,35.243322,8537.2610571626,1990,269,0,0,0,0,0,185,0,0,5,0,0,0,0,1,0,0,19,0,59,0,0,0,0
JO,Jordan,country,Middle East and North Africa,30.585164,36.238414,TR,Turkey,country,Europe and Central Asia,38.963745,35.243322,937.107780068079,1990,14949,25,0,0,0,0,131,1320,0,2551,0,0,39,0,9793,0,0,0,0,1090,0,0,0,0
KE,Kenya,country,Sub-Saharan Africa,-0.023559,37.906193,TR,Turkey,country,Europe and Central Asia,38.963745,35.243322,4348.55145491165,1990,126,0,0,0,0,0,0,0,0,15,0,0,71,0,0,0,0,0,0,40,0,0,0,0
KW,Kuwait,country,Middle East and North Africa,29.31166,47.481766,TR,Turkey,country,Europe and Central Asia,38.963745,35.243322,1554.77462453809,1990,349,0,0,0,0,0,0,0,0,18,0,0,0,0,0,0,0,0,0,331,0,0,0,0
LB,Lebanon,country,Middle East and North Africa,33.854721,35.862285,TR,Turkey,country,Europe and Central Asia,38.963745,35.243322,571.42622906272,1990,4251,0,0,0,0,0,0,550,0,64,0,0,0,0,0,0,0,0,0,3637,0,0,0,0
LR,Liberia,country,Sub-Saharan Africa,6.428055,-9.429499,TR,Turkey,country,Europe and Central Asia,38.963745,35.243322,5754.5442759538,1990,101,0,0,0,0,0,0,0,0,0,0,0,0,101,0,0,0,0,0,0,0,0,0,0
LY,Libya,country,Middle East and North Africa,26.3351,17.228331,TR,Turkey,country,Europe and Central Asia,38.963745,35.243322,2189.68844621022,1990,555,0,0,0,30,0,0,0,0,381,0,0,0,0,0,0,0,0,0,144,0,0,0,0
MG,Madagascar,country,Sub-Saharan Africa,-18.766947,46.869107,TR,Turkey,country,Europe and Central Asia,38.963745,35.243322,6539.85063542829,1990,32,0,0,0,0,0,0,0,0,0,32,0,0,0,0,0,0,0,0,0,0,0,0,0
MY,Malaysia,country,East Asia and Pacific,4.210484,101.975766,TR,Turkey,country,Europe and Central Asia,38.963745,35.243322,7721.15671220867,1990,231514,0,0,0,0,0,727,0,17,16,1271,2,227,35866,193388,0,0,0,0,0,0,0,0,0
MV,Maldives,country,South Asia,3.202778,73.22068,TR,Turkey,country,Europe and Central Asia,38.963745,35.243322,5530.17253103691,1990,5,0,0,0,0,0,0,0,0,0,5,0,0,0,0,0,0,0,0,0,0,0,0,0
ML,Mali,country,Sub-Saharan Africa,17.570692,-3.996166,TR,Turkey,country,Europe and Central Asia,38.963745,35.243322,4473.51586772812,1990,10,0,0,0,0,0,0,0,0,0,0,0,0,10,0,0,0,0,0,0,0,0,0,0
MX,Mexico,country,Latin America and the Caribbean,23.634501,-102.552784,TR,Turkey,country,Europe and Central Asia,38.963745,35.243322,11799.3735425116,1990,188,0,0,0,0,0,0,0,0,35,97,0,0,56,0,0,0,0,0,0,0,0,0,0
MN,Mongolia,country,East Asia and Pacific,46.862496,103.846656,TR,Turkey,country,Europe and Central Asia,38.963745,35.243322,5481.95796794868,1990,0,0,0,0,0,0,0,0,0,0,0,0,0,0,0,0,0,0,0,0,0,0,0,0
MA,Morocco,country,Middle East and North Africa,31.791702,-7.09262,TR,Turkey,country,Europe and Central Asia,38.963745,35.243322,3888.72766026092,1990,0,0,0,0,0,0,0,0,0,0,0,0,0,0,0,0,0,0,0,0,0,0,0,0
MZ,Mozambique,country,Sub-Saharan Africa,-18.665695,35.529562,TR,Turkey,country,Europe and Central Asia,38.963745,35.243322,6415.34933531684,1990,55,0,0,0,0,0,55,0,0,0,0,0,0,0,0,0,0,0,0,0,0,0,0,0
MM,Myanmar,country,East Asia and Pacific,21.913965,95.956223,TR,Turkey,country,Europe and Central Asia,38.963745,35.243322,6012.96350485375,1990,444,0,0,0,0,0,444,0,0,0,0,0,0,0,0,0,0,0,0,0,0,0,0,0
NA,Namibia,country,Sub-Saharan Africa,-22.95764,18.49041,TR,Turkey,country,Europe and Central Asia,38.963745,35.243322,7110.7878602447,1990,304700,239503,0,59920,2359,0,0,0,668,896,0,0,21,0,0,0,0,0,0,1333,0,0,0,0
NL,Netherlands,country,Europe and Central Asia,52.132633,5.291266,TR,Turkey,country,Europe and Central Asia,38.963745,35.243322,2727.37266399519,1990,67847,230,2941,49584,0,0,280,153,0,215,12,958,1166,7,7710,36,493,596,2383,1576,0,0,0,0
NZ,New Zealand,country,East Asia and Pacific,-40.900557,174.885971,TR,Turkey,country,Europe and Central Asia,38.963745,35.243322,16616.4394144971,1990,8349,0,0,0,0,0,0,16,0,6038,0,0,0,0,0,0,0,0,0,2295,0,0,0,0
NI,Nicaragua,country,Latin America and the Caribbean,12.865416,-85.207229,TR,Turkey,country,Europe and Central Asia,38.963745,35.243322,11591.8550488197,1990,792,0,0,0,0,0,4,0,609,162,0,0,0,0,0,0,0,0,17,0,0,0,0,0
NE,Niger,country,Sub-Saharan Africa,17.607789,8.081666,TR,Turkey,country,Europe and Central Asia,38.963745,35.243322,3543.41235264415,1990,82,0,0,0,0,0,0,0,0,0,0,0,0,82,0,0,0,0,0,0,0,0,0,0
NG,Nigeria,country,Sub-Saharan Africa,9.081999,8.675277,TR,Turkey,country,Europe and Central Asia,38.963745,35.243322,4251.14330705406,1990,1174,0,0,0,0,0,0,0,0,0,0,0,20,1097,0,0,0,0,0,57,0,0,0,0
NO,Norway,country,Europe and Central Asia,60.472024,8.468946,TR,Turkey,country,Europe and Central Asia,38.963745,35.243322,3029.79944805119,1990,1548,4,0,0,0,0,0,0,0,4,0,135,0,0,20,2,0,1006,0,377,0,0,0,0
PK,Pakistan,country,South Asia,30.375321,69.345116,TR,Turkey,country,Europe and Central Asia,38.963745,35.243322,3243.80852610217,1990,5875,5,0,0,0,0,3091,207,0,2572,0,0,0,0,0,0,0,0,0,0,0,0,0,0
PA,Panama,country,Latin America and the Caribbean,8.537981,-80.782127,TR,Turkey,country,Europe and Central Asia,38.963745,35.243322,11591.0443681426,1990,4394,0,0,0,0,0,0,0,4375,0,0,0,0,19,0,0,0,0,0,0,0,0,0,0
PY,Paraguay,country,Latin America and the Caribbean,-23.442503,-58.443832,TR,Turkey,country,Europe and Central Asia,38.963745,35.243322,11935.675644241,1990,27543,23548,0,0,0,0,0,0,0,3560,0,0,435,0,0,0,0,0,0,0,0,0,0,0
PE,Peru,country,Latin America and the Caribbean,-9.189967,-75.015152,TR,Turkey,country,Europe and Central Asia,38.963745,35.243322,12410.0757281223,1990,519,0,0,0,0,0,0,0,2,0,0,500,0,0,0,0,0,0,0,17,0,0,0,0
PH,Philippines,country,East Asia and Pacific,12.879721,121.774017,TR,Turkey,country,Europe and Central Asia,38.963745,35.243322,8825.22876378843,1990,10807,0,0,0,0,0,35,0,2176,0,0,0,0,0,8596,0,0,0,0,0,0,0,0,0
PL,Poland,country,Europe and Central Asia,51.919438,19.145136,TR,Turkey,country,Europe and Central Asia,38.963745,35.243322,1904.73467791636,1990,7506,0,0,4952,0,0,0,84,0,0,0,0,0,0,14,0,0,523,1933,0,0,0,0,0
PT,Portugal,country,Europe and Central Asia,39.399872,-8.224454,TR,Turkey,country,Europe and Central Asia,38.963745,35.243322,3714.00348570757,1990,1000,0,0,0,0,0,0,0,0,0,0,0,0,0,1000,0,0,0,0,0,0,0,0,0
PR,Puerto Rico,country,Latin America and the Caribbean,18.220833,-66.590149,TR,Turkey,country,Europe and Central Asia,38.963745,35.243322,9730.56809832445,1990,952288,794794,0,47,3271,100,4005,42,175,32006,9,50,45,18369,98219,85,101,0,20,1051,0,0,0,0
QA,Qatar,country,Middle East and North Africa,25.354826,51.183884,TR,Turkey,country,Europe and Central Asia,38.963745,35.243322,2127.04565436248,1990,310,0,0,0,0,0,0,0,0,0,0,0,0,0,0,0,0,0,0,310,0,0,0,0
KR,"Korea, Rep.",country,East Asia and Pacific,35.907757,127.766922,TR,Turkey,country,Europe and Central Asia,38.963745,35.243322,7798.8340616013,1990,12121,0,0,11994,0,0,25,0,6,64,0,0,32,0,0,0,0,0,0,0,0,0,0,0
RE,Reunion,country,Sub-Saharan Africa,-21.115141,55.536384,TR,Turkey,country,Europe and Central Asia,38.963745,35.243322,7014.59108303308,1990,20,0,0,0,0,0,0,0,0,0,0,0,20,0,0,0,0,0,0,0,0,0,0,0
RO,Romania,country,Europe and Central Asia,45.943161,24.96676,TR,Turkey,country,Europe and Central Asia,38.963745,35.243322,1145.4749902999,1990,121340,121026,0,0,0,0,0,0,0,0,0,0,0,0,0,0,0,81,233,0,0,0,0,0
SA,Saudi Arabia,country,Middle East and North Africa,23.885942,45.079162,TR,Turkey,country,Europe and Central Asia,38.963745,35.243322,1918.03492229189,1990,9495,0,0,0,0,0,50,64,0,4260,0,0,0,0,0,0,0,0,0,5121,0,0,0,0
SC,Seychelles,country,Sub-Saharan Africa,-4.679574,55.491977,TR,Turkey,country,Europe and Central Asia,38.963745,35.243322,5286.22580249371,1990,7,0,0,0,0,0,0,0,0,0,7,0,0,0,0,0,0,0,0,0,0,0,0,0
SG,Singapore,country,East Asia and Pacific,1.352083,103.819836,TR,Turkey,country,Europe and Central Asia,38.963745,35.243322,8083.64958551106,1990,1370,0,0,0,0,0,212,5,0,0,279,0,0,872,0,0,0,2,0,0,0,0,0,0
SO,Somalia,country,Sub-Saharan Africa,5.152149,46.199616,TR,Turkey,country,Europe and Central Asia,38.963745,35.243322,3922.74266672529,1990,426,0,0,0,0,0,153,48,96,10,0,0,0,0,0,0,0,0,0,119,0,0,0,0
ES,Spain,country,Europe and Central Asia,40.463667,-3.74922,TR,Turkey,country,Europe and Central Asia,38.963745,35.243322,3315.95022920572,1990,262911,137206,0,73,0,40,0,20,0,0,2,27,86,4,125320,0,0,18,48,67,0,0,0,0
LK,Sri Lanka,country,South Asia,7.873054,80.771797,TR,Turkey,country,Europe and Central Asia,38.963745,35.243322,5706.83871006826,1990,2548,0,0,0,0,0,609,0,1656,0,5,0,218,60,0,0,0,0,0,0,0,0,0,0
SD,Sudan,country,Sub-Saharan Africa,12.862807,30.217636,TR,Turkey,country,Europe and Central Asia,38.963745,35.243322,2947.51011830892,1990,5340,0,0,0,780,0,1025,0,0,1160,0,0,0,0,2100,0,0,0,0,275,0,0,0,0
SZ,Swaziland,country,Sub-Saharan Africa,-26.522503,31.465866,TR,Turkey,country,Europe and Central Asia,38.963745,35.243322,7300.48713784758,1990,8,0,0,0,0,0,0,0,0,0,0,0,8,0,0,0,0,0,0,0,0,0,0,0
SE,Sweden,country,Europe and Central Asia,60.128161,18.643501,TR,Turkey,country,Europe and Central Asia,38.963745,35.243322,2626.41298859191,1990,53771,23697,0,29834,0,0,0,0,0,0,0,0,0,0,12,0,0,0,0,228,0,0,0,0
CH,Switzerland,country,Europe and Central Asia,46.818188,8.227512,TR,Turkey,country,Europe and Central Asia,38.963745,35.243322,2355.84072074118,1990,4662,5,0,3726,0,0,0,6,0,81,0,72,48,375,303,3,0,0,12,31,0,0,0,0
SY,Syrian Arab Rep.,country,Middle East and North Africa,34.802075,38.996815,TR,Turkey,country,Europe and Central Asia,38.963745,35.243322,571.117569303629,1990,8734,0,0,0,0,0,320,76,0,8240,0,0,0,20,0,0,0,0,0,78,0,0,0,0
TH,Thailand,country,East Asia and Pacific,15.870032,100.992541,TR,Turkey,country,Europe and Central Asia,38.963745,35.243322,6831.71686656176,1990,194841,0,194364,0,0,0,0,19,134,0,14,0,0,310,0,0,0,0,0,0,0,0,0,0
TG,Togo,country,Sub-Saharan Africa,8.619543,0.824782,TR,Turkey,country,Europe and Central Asia,38.963745,35.243322,4814.11703899954,1990,200,0,0,0,0,0,0,0,0,200,0,0,0,0,0,0,0,0,0,0,0,0,0,0
TN,Tunisia,country,Middle East and North Africa,33.886917,9.537499,TR,Turkey,country,Europe and Central Asia,38.963745,35.243322,2362.21464082084,1990,211,0,0,0,0,0,0,0,0,0,0,0,0,0,0,0,0,0,0,211,0,0,0,0
UG,Uganda,country,Sub-Saharan Africa,1.373333,32.290275,TR,Turkey,country,Europe and Central Asia,38.963745,35.243322,4195.32625554283,1990,360,0,0,0,0,0,349,0,0,0,0,0,0,0,0,0,0,0,0,11,0,0,0,0
AE,United Arab Emirates,country,Middle East and North Africa,23.424076,53.847818,TR,Turkey,country,Europe and Central Asia,38.963745,35.243322,2466.36984769033,1990,1498,0,0,0,0,0,246,377,0,49,0,0,0,0,0,0,0,0,0,826,0,0,0,0
GB,United Kingdom,country,Europe and Central Asia,55.378051,-3.435973,TR,Turkey,country,Europe and Central Asia,38.963745,35.243322,3386.2469737083,1990,73854,41186,10,20787,9,0,15,1,354,1641,8,473,313,592,3654,1593,146,0,197,3021,0,0,0,0
TZ,Tanzania,country,Sub-Saharan Africa,-6.369028,34.888822,TR,Turkey,country,Europe and Central Asia,38.963745,35.243322,5046.5538509265,1990,5080,0,0,0,0,0,1252,0,0,3811,0,0,0,0,0,0,0,0,0,17,0,0,0,0
UY,Uruguay,country,Latin America and the Caribbean,-32.522779,-55.765835,TR,Turkey,country,Europe and Central Asia,38.963745,35.243322,12296.8510308157,1990,23617,23042,0,0,0,0,18,0,0,547,0,0,0,0,0,0,0,0,0,10,0,0,0,0
RU,Russian Federation,country,Europe and Central Asia,61.52401,105.318756,TR,Turkey,country,Europe and Central Asia,38.963745,35.243322,5257.35226304609,1990,50663,0,0,11353,0,0,217,266,0,2265,0,0,0,0,24803,0,0,0,1460,10299,0,0,0,0
VE,Venezuela,country,Latin America and the Caribbean,6.42375,-66.58973,TR,Turkey,country,Europe and Central Asia,38.963745,35.243322,10581.3257543541,1990,2341,0,0,0,0,0,0,0,0,2341,0,0,0,0,0,0,0,0,0,0,0,0,0,0
BA,Bosnia & Herzegovina,country,Europe and Central Asia,43.915886,17.679076,TR,Turkey,country,Europe and Central Asia,38.963745,35.243322,1562.19647955306,1990,147994,119560,0,11966,320,0,22,765,44,44,0,2,0,28,14297,0,0,0,12,934,0,0,0,0
AF,Afghanistan,country,South Asia,33.93911,67.709953,TR,Turkey,country,Europe and Central Asia,38.963745,35.243322,2944.23947624646,1991,318,0,0,0,0,0,294,0,0,0,0,0,0,0,0,0,0,0,0,24,0,0,0,0
AL,Albania,country,Europe and Central Asia,41.153332,20.168331,TR,Turkey,country,Europe and Central Asia,38.963745,35.243322,1305.59706041172,1991,95,0,0,0,0,0,0,0,0,0,0,0,0,0,0,0,0,0,0,95,0,0,0,0
AR,Argentina,country,Latin America and the Caribbean,-38.416097,-63.616672,TR,Turkey,country,Europe and Central Asia,38.963745,35.243322,13245.2452872061,1991,159134,0,0,0,0,0,0,0,0,2531,0,3927,0,0,152676,0,0,0,0,0,0,0,0,0
