sourceCode,sourceName,sourceGrouping,sourceRegion,sourceLat,sourceLong,destCode,destName,destGrouping,destRegion,destLat,destLong,distance,year,totalTons,cereals,roots,sugarCrops,pulses,nuts,oilCrops,vegetables,fruits,fibers,spices,fodderCrops,coffeeTea,tobaccoRubber,oilsFats,beverages,livestock,animalMeats,animalProducts,animalHides,nimalOther,pesticides,fertilizers,machinery
WS,Samoa,country,East Asia and Pacific,-13.759029,-172.104629,DM,Dominica,country,Latin America and the Caribbean,15.414999,-61.370976,12606.729984194,1995,0,0,0,0,0,0,0,0,0,0,0,0,0,0,0,0,0,0,0,0,0,0,0,0
AG,Antigua & Barbuda,country,Latin America and the Caribbean,17.060816,-61.796428,DM,Dominica,country,Latin America and the Caribbean,15.414999,-61.370976,188.769606224064,1995,8,0,0,0,0,0,0,2,0,0,0,0,0,0,0,6,0,0,0,0,0,0,0,0
AR,Argentina,country,Latin America and the Caribbean,-38.416097,-63.616672,DM,Dominica,country,Latin America and the Caribbean,15.414999,-61.370976,5997.03229493844,1995,8,0,0,0,0,0,0,8,0,0,0,0,0,0,0,0,0,0,0,0,0,0,0,0
AW,Aruba,country,Latin America and the Caribbean,12.52111,-69.968338,DM,Dominica,country,Latin America and the Caribbean,15.414999,-61.370976,982.8788127345,1995,0,0,0,0,0,0,0,0,0,0,0,0,0,0,0,0,0,0,0,0,0,0,0,0
BS,The Bahamas,country,Latin America and the Caribbean,25.03428,-77.39628,DM,Dominica,country,Latin America and the Caribbean,15.414999,-61.370976,1984.24563561771,1995,5,0,0,0,0,0,0,0,0,0,0,0,0,0,0,5,0,0,0,0,0,0,0,0
BD,Bangladesh,country,South Asia,23.684994,90.356331,DM,Dominica,country,Latin America and the Caribbean,15.414999,-61.370976,14707.8995729536,1995,4,0,0,0,0,0,0,0,0,0,0,0,0,0,4,0,0,0,0,0,0,0,0,0
BB,Barbados,country,Latin America and the Caribbean,13.193887,-59.543198,DM,Dominica,country,Latin America and the Caribbean,15.414999,-61.370976,316.227415959398,1995,2191,680,0,2,0,0,0,1,7,0,0,1127,0,28,198,89,38,33,26,0,0,0,0,0
BE,Belgium,country,Europe and Central Asia,50.503887,4.469936,DM,Dominica,country,Latin America and the Caribbean,15.414999,-61.370976,6998.31318629249,1995,17,0,0,0,0,0,0,0,0,0,0,0,0,0,0,0,0,0,17,0,0,0,0,0
BR,Brazil,country,Latin America and the Caribbean,-14.235004,-51.92528,DM,Dominica,country,Latin America and the Caribbean,15.414999,-61.370976,3460.46625258294,1995,104,0,0,0,0,0,0,0,18,0,0,0,0,23,0,0,0,63,0,0,0,0,0,0
VG,British Virgin Islands,country,Latin America and the Caribbean,18.420695,-64.639968,DM,Dominica,country,Latin America and the Caribbean,15.414999,-61.370976,482.830213869563,1995,3,0,0,0,0,0,0,0,0,0,0,0,0,3,0,0,0,0,0,0,0,0,0,0
CA,Canada,country,North America,56.130366,-106.346771,DM,Dominica,country,Latin America and the Caribbean,15.414999,-61.370976,5908.34603722269,1995,233,27,0,1,0,1,4,34,3,0,1,0,2,38,0,20,0,101,1,0,0,0,0,0
CL,Chile,country,Latin America and the Caribbean,-35.675147,-71.542969,DM,Dominica,country,Latin America and the Caribbean,15.414999,-61.370976,5787.58971236115,1995,2,0,0,0,0,0,0,2,0,0,0,0,0,0,0,0,0,0,0,0,0,0,0,0
HK,Hong Kong,country,East Asia and Pacific,22.396428,114.109497,DM,Dominica,country,Latin America and the Caribbean,15.414999,-61.370976,15799.6091754972,1995,0,0,0,0,0,0,0,0,0,0,0,0,0,0,0,0,0,0,0,0,0,0,0,0
CN,China,country,East Asia and Pacific,35.86166,104.195397,DM,Dominica,country,Latin America and the Caribbean,15.414999,-61.370976,14130.2792097766,1995,13,0,0,0,0,0,0,13,0,0,0,0,0,0,0,0,0,0,0,0,0,0,0,0
CO,Colombia,country,Latin America and the Caribbean,4.570868,-74.297333,DM,Dominica,country,Latin America and the Caribbean,15.414999,-61.370976,1859.74847505777,1995,28,22,0,1,0,0,0,0,1,0,0,0,0,2,0,0,0,1,1,0,0,0,0,0
CR,Costa Rica,country,Latin America and the Caribbean,9.748917,-83.753428,DM,Dominica,country,Latin America and the Caribbean,15.414999,-61.370976,2510.41002870025,1995,40,0,0,0,0,0,0,0,0,0,40,0,0,0,0,0,0,0,0,0,0,0,0,0
DK,Denmark,country,Europe and Central Asia,56.26392,9.501785,DM,Dominica,country,Latin America and the Caribbean,15.414999,-61.370976,7418.53972475287,1995,43,0,0,0,0,0,0,0,0,0,0,0,0,4,0,0,0,39,0,0,0,0,0,0
FI,Finland,country,Europe and Central Asia,61.92411,25.748151,DM,Dominica,country,Latin America and the Caribbean,15.414999,-61.370976,8358.77422516427,1995,20,0,0,0,0,0,0,0,0,0,0,0,0,0,0,20,0,0,0,0,0,0,0,0
FR,France,country,Europe and Central Asia,46.227638,2.213749,DM,Dominica,country,Latin America and the Caribbean,15.414999,-61.370976,6762.60371327622,1995,148,0,0,0,0,0,0,0,0,0,0,0,0,4,0,141,0,0,3,0,0,0,0,0
DE,Germany,country,Europe and Central Asia,51.165691,10.451526,DM,Dominica,country,Latin America and the Caribbean,15.414999,-61.370976,7424.35692208181,1995,587,0,0,581,0,0,0,0,0,0,0,0,0,2,3,0,0,0,1,0,0,0,0,0
GR,Greece,country,Europe and Central Asia,39.074208,21.824312,DM,Dominica,country,Latin America and the Caribbean,15.414999,-61.370976,8366.11062195839,1995,0,0,0,0,0,0,0,0,0,0,0,0,0,0,0,0,0,0,0,0,0,0,0,0
GD,Grenada,country,Latin America and the Caribbean,12.262776,-61.604171,DM,Dominica,country,Latin America and the Caribbean,15.414999,-61.370976,351.807691411793,1995,705,492,0,0,0,0,0,0,0,0,0,29,0,0,0,184,0,0,0,0,0,0,0,0
GP,Guadeloupe,country,Latin America and the Caribbean,16.995971,-62.067641,DM,Dominica,country,Latin America and the Caribbean,15.414999,-61.370976,191.099500424979,1995,124,9,47,0,0,0,0,15,28,0,0,0,0,1,0,6,0,0,18,0,0,0,0,0
GT,Guatemala,country,Latin America and the Caribbean,15.783471,-90.230759,DM,Dominica,country,Latin America and the Caribbean,15.414999,-61.370976,3092.16552901011,1995,0,0,0,0,0,0,0,0,0,0,0,0,0,0,0,0,0,0,0,0,0,0,0,0
GN,Guinea,country,Sub-Saharan Africa,9.945587,-9.696645,DM,Dominica,country,Latin America and the Caribbean,15.414999,-61.370976,5632.6343391252,1995,0,0,0,0,0,0,0,0,0,0,0,0,0,0,0,0,0,0,0,0,0,0,0,0
GY,Guyana,country,Latin America and the Caribbean,4.860416,-58.93018,DM,Dominica,country,Latin America and the Caribbean,15.414999,-61.370976,1204.89763773236,1995,1891,113,0,1777,0,0,0,0,0,0,0,0,0,0,0,1,0,0,0,0,0,0,0,0
HU,Hungary,country,Europe and Central Asia,47.162494,19.503304,DM,Dominica,country,Latin America and the Caribbean,15.414999,-61.370976,8082.9334435951,1995,3,0,0,0,0,0,0,3,0,0,0,0,0,0,0,0,0,0,0,0,0,0,0,0
IN,India,country,South Asia,20.593684,78.96288,DM,Dominica,country,Latin America and the Caribbean,15.414999,-61.370976,14132.4196754703,1995,0,0,0,0,0,0,0,0,0,0,0,0,0,0,0,0,0,0,0,0,0,0,0,0
IE,Ireland,country,Europe and Central Asia,53.41291,-8.24389,DM,Dominica,country,Latin America and the Caribbean,15.414999,-61.370976,6241.39899154786,1995,3,0,0,0,0,0,0,0,0,0,0,0,0,0,0,3,0,0,0,0,0,0,0,0
IT,Italy,country,Europe and Central Asia,41.87194,12.56738,DM,Dominica,country,Latin America and the Caribbean,15.414999,-61.370976,7559.94828886558,1995,0,0,0,0,0,0,0,0,0,0,0,0,0,0,0,0,0,0,0,0,0,0,0,0
JM,Jamaica,country,Latin America and the Caribbean,18.109581,-77.297508,DM,Dominica,country,Latin America and the Caribbean,15.414999,-61.370976,1723.25060619713,1995,659,13,0,1,0,0,1,1,0,0,0,0,15,51,0,465,0,58,54,0,0,0,0,0
MX,Mexico,country,Latin America and the Caribbean,23.634501,-102.552784,DM,Dominica,country,Latin America and the Caribbean,15.414999,-61.370976,4400.83591607222,1995,10,7,0,0,0,0,0,2,0,0,0,0,0,1,0,0,0,0,0,0,0,0,0,0
MS,Montserrat,country,Latin America and the Caribbean,16.7425,-62.1874,DM,Dominica,country,Latin America and the Caribbean,15.414999,-61.370976,171.650312041359,1995,1,0,0,0,0,0,0,0,0,0,0,0,0,0,0,1,0,0,0,0,0,0,0,0
NL,Netherlands,country,Europe and Central Asia,52.132633,5.291266,DM,Dominica,country,Latin America and the Caribbean,15.414999,-61.370976,7082.57846164332,1995,864,9,274,0,0,0,0,240,0,0,0,0,0,6,0,0,0,0,335,0,0,0,0,0
NZ,New Zealand,country,East Asia and Pacific,-40.900557,174.885971,DM,Dominica,country,Latin America and the Caribbean,15.414999,-61.370976,13955.5733985947,1995,14,0,0,0,0,0,0,0,0,0,0,0,0,0,0,0,0,14,0,0,0,0,0,0
PA,Panama,country,Latin America and the Caribbean,8.537981,-80.782127,DM,Dominica,country,Latin America and the Caribbean,15.414999,-61.370976,2246.38904273489,1995,103,6,0,0,0,0,0,0,0,0,0,0,0,4,0,0,0,0,93,0,0,0,0,0
PR,Puerto Rico,country,Latin America and the Caribbean,18.220833,-66.590149,DM,Dominica,country,Latin America and the Caribbean,15.414999,-61.370976,637.777716860064,1995,240,64,2,27,0,0,1,27,2,0,0,12,6,43,1,48,0,4,3,0,0,0,0,0
KN,St. Kitts and Nevis,country,Latin America and the Caribbean,17.357822,-62.782998,DM,Dominica,country,Latin America and the Caribbean,15.414999,-61.370976,263.652286594621,1995,325,89,0,0,0,0,0,26,0,0,0,0,0,0,140,70,0,0,0,0,0,0,0,0
LC,St. Lucia,country,Latin America and the Caribbean,13.909444,-60.978893,DM,Dominica,country,Latin America and the Caribbean,15.414999,-61.370976,172.834597373838,1995,2745,11,0,1,0,0,124,0,0,0,3,9,0,6,25,2566,0,0,0,0,0,0,0,0
VC,St. Vincent & Grenadines,country,Latin America and the Caribbean,12.984305,-61.287228,DM,Dominica,country,Latin America and the Caribbean,15.414999,-61.370976,270.734490508517,1995,5019,4421,0,0,0,0,0,0,9,0,0,447,0,0,0,142,0,0,0,0,0,0,0,0
SG,Singapore,country,East Asia and Pacific,1.352083,103.819836,DM,Dominica,country,Latin America and the Caribbean,15.414999,-61.370976,17559.4909493425,1995,1,1,0,0,0,0,0,0,0,0,0,0,0,0,0,0,0,0,0,0,0,0,0,0
ES,Spain,country,Europe and Central Asia,40.463667,-3.74922,DM,Dominica,country,Latin America and the Caribbean,15.414999,-61.370976,6187.04865099674,1995,22,0,0,0,0,0,0,0,0,0,0,0,0,0,0,0,0,0,22,0,0,0,0,0
LK,Sri Lanka,country,South Asia,7.873054,80.771797,DM,Dominica,country,Latin America and the Caribbean,15.414999,-61.370976,15123.0824816073,1995,0,0,0,0,0,0,0,0,0,0,0,0,0,0,0,0,0,0,0,0,0,0,0,0
SZ,Swaziland,country,Sub-Saharan Africa,-26.522503,31.465866,DM,Dominica,country,Latin America and the Caribbean,15.414999,-61.370976,11052.6237941607,1995,1,0,0,0,0,0,0,0,0,0,0,0,0,0,0,0,0,0,1,0,0,0,0,0
CH,Switzerland,country,Europe and Central Asia,46.818188,8.227512,DM,Dominica,country,Latin America and the Caribbean,15.414999,-61.370976,7227.50140894923,1995,9,6,0,0,0,0,0,2,0,0,0,0,0,0,0,0,0,0,1,0,0,0,0,0
TT,Trinidad and Tobago,country,Latin America and the Caribbean,10.691803,-61.222503,DM,Dominica,country,Latin America and the Caribbean,15.414999,-61.370976,526.03007868635,1995,1847,192,1,28,0,0,0,18,166,0,3,411,13,128,206,487,0,11,183,0,0,0,0,0
TR,Turkey,country,Europe and Central Asia,38.963745,35.243322,DM,Dominica,country,Latin America and the Caribbean,15.414999,-61.370976,9502.78444171132,1995,12,0,0,0,0,0,0,0,3,0,0,0,0,0,0,0,0,0,9,0,0,0,0,0
UA,Ukraine,country,Europe and Central Asia,48.379433,31.16558,DM,Dominica,country,Latin America and the Caribbean,15.414999,-61.370976,8926.78389199721,1995,16,0,0,0,0,0,0,0,0,0,0,0,0,0,0,0,0,0,16,0,0,0,0,0
GB,United Kingdom,country,Europe and Central Asia,55.378051,-3.435973,DM,Dominica,country,Latin America and the Caribbean,15.414999,-61.370976,6608.88335542643,1995,3328,168,45,1036,0,0,0,42,15,0,0,1,9,74,601,126,0,314,897,0,0,0,0,0
TZ,Tanzania,country,Sub-Saharan Africa,-6.369028,34.888822,DM,Dominica,country,Latin America and the Caribbean,15.414999,-61.370976,10875.6954307787,1995,1,0,0,0,0,0,0,1,0,0,0,0,0,0,0,0,0,0,0,0,0,0,0,0
US,USA,country,North America,37.09024,-95.712891,DM,Dominica,country,Latin America and the Caribbean,15.414999,-61.370976,4154.60750234614,1995,6249,488,97,37,0,4,15,140,125,1,0,27,18,164,2158,178,5,2628,169,0,0,0,0,0
VI,Virgin Islands (U.S.),country,Latin America and the Caribbean,18.335765,-64.896335,DM,Dominica,country,Latin America and the Caribbean,15.414999,-61.370976,496.692984661841,1995,34,2,0,1,0,0,0,3,2,0,0,0,1,3,0,19,0,3,0,0,0,0,0,0
VE,Venezuela,country,Latin America and the Caribbean,6.42375,-66.58973,DM,Dominica,country,Latin America and the Caribbean,15.414999,-61.370976,1151.71336485953,1995,71,10,0,0,0,0,0,0,21,0,0,0,1,16,0,23,0,0,0,0,0,0,0,0
ZM,Zambia,country,Sub-Saharan Africa,-13.133897,27.849332,DM,Dominica,country,Latin America and the Caribbean,15.414999,-61.370976,10322.6208768923,1995,1,0,0,0,0,0,0,0,0,0,0,0,0,1,0,0,0,0,0,0,0,0,0,0
ZW,Zimbabwe,country,Sub-Saharan Africa,-19.015438,29.154857,DM,Dominica,country,Latin America and the Caribbean,15.414999,-61.370976,10625.4061794759,1995,18,0,0,0,0,0,0,0,0,0,0,0,0,18,0,0,0,0,0,0,0,0,0,0
AG,Antigua & Barbuda,country,Latin America and the Caribbean,17.060816,-61.796428,DM,Dominica,country,Latin America and the Caribbean,15.414999,-61.370976,188.769606224064,1997,45,9,0,0,0,0,0,0,0,0,0,0,0,0,0,32,1,4,0,0,0,0,0,0
AR,Argentina,country,Latin America and the Caribbean,-38.416097,-63.616672,DM,Dominica,country,Latin America and the Caribbean,15.414999,-61.370976,5997.03229493844,1997,35,0,0,0,0,0,0,14,0,0,0,0,0,0,0,0,0,21,0,0,0,0,0,0
AW,Aruba,country,Latin America and the Caribbean,12.52111,-69.968338,DM,Dominica,country,Latin America and the Caribbean,15.414999,-61.370976,982.8788127345,1997,0,0,0,0,0,0,0,0,0,0,0,0,0,0,0,0,0,0,0,0,0,0,0,0
BS,The Bahamas,country,Latin America and the Caribbean,25.03428,-77.39628,DM,Dominica,country,Latin America and the Caribbean,15.414999,-61.370976,1984.24563561771,1997,44,20,0,0,0,0,0,0,0,0,0,0,0,1,0,0,1,23,0,0,0,0,0,0
BD,Bangladesh,country,South Asia,23.684994,90.356331,DM,Dominica,country,Latin America and the Caribbean,15.414999,-61.370976,14707.8995729536,1997,5,0,0,0,0,0,0,0,0,0,0,0,0,0,0,0,0,0,5,0,0,0,0,0
BB,Barbados,country,Latin America and the Caribbean,13.193887,-59.543198,DM,Dominica,country,Latin America and the Caribbean,15.414999,-61.370976,316.227415959398,1997,3113,1075,2,2,0,0,0,6,11,0,0,1470,6,20,264,191,49,41,25,0,0,0,0,0
BR,Brazil,country,Latin America and the Caribbean,-14.235004,-51.92528,DM,Dominica,country,Latin America and the Caribbean,15.414999,-61.370976,3460.46625258294,1997,96,0,0,0,0,0,0,0,0,0,0,0,0,87,0,0,0,9,0,0,0,0,0,0
VG,British Virgin Islands,country,Latin America and the Caribbean,18.420695,-64.639968,DM,Dominica,country,Latin America and the Caribbean,15.414999,-61.370976,482.830213869563,1997,19,0,0,0,0,0,0,0,0,0,0,0,0,1,0,18,0,0,0,0,0,0,0,0
CA,Canada,country,North America,56.130366,-106.346771,DM,Dominica,country,Latin America and the Caribbean,15.414999,-61.370976,5908.34603722269,1997,337,17,0,1,0,0,5,48,3,0,0,0,0,42,0,55,0,115,51,0,0,0,0,0
CL,Chile,country,Latin America and the Caribbean,-35.675147,-71.542969,DM,Dominica,country,Latin America and the Caribbean,15.414999,-61.370976,5787.58971236115,1997,2,0,0,0,0,0,0,0,0,0,0,0,0,0,0,2,0,0,0,0,0,0,0,0
CN,China,country,East Asia and Pacific,35.86166,104.195397,DM,Dominica,country,Latin America and the Caribbean,15.414999,-61.370976,14130.2792097766,1997,34,1,0,0,0,0,0,8,25,0,0,0,0,0,0,0,0,0,0,0,0,0,0,0
CO,Colombia,country,Latin America and the Caribbean,4.570868,-74.297333,DM,Dominica,country,Latin America and the Caribbean,15.414999,-61.370976,1859.74847505777,1997,15,12,0,0,0,0,0,0,0,0,0,0,3,0,0,0,0,0,0,0,0,0,0,0
DK,Denmark,country,Europe and Central Asia,56.26392,9.501785,DM,Dominica,country,Latin America and the Caribbean,15.414999,-61.370976,7418.53972475287,1997,27,0,0,0,0,0,0,0,0,0,0,0,0,0,0,0,0,27,0,0,0,0,0,0
DO,Dominican Republic,country,Latin America and the Caribbean,18.735693,-70.162651,DM,Dominica,country,Latin America and the Caribbean,15.414999,-61.370976,1005.69694423348,1997,0,0,0,0,0,0,0,0,0,0,0,0,0,0,0,0,0,0,0,0,0,0,0,0
FI,Finland,country,Europe and Central Asia,61.92411,25.748151,DM,Dominica,country,Latin America and the Caribbean,15.414999,-61.370976,8358.77422516427,1997,16,0,0,0,0,0,0,0,0,0,0,0,0,0,0,16,0,0,0,0,0,0,0,0
FR,France,country,Europe and Central Asia,46.227638,2.213749,DM,Dominica,country,Latin America and the Caribbean,15.414999,-61.370976,6762.60371327622,1997,1136,0,0,903,0,0,0,0,0,0,0,0,0,3,0,171,0,0,59,0,0,0,0,0
DE,Germany,country,Europe and Central Asia,51.165691,10.451526,DM,Dominica,country,Latin America and the Caribbean,15.414999,-61.370976,7424.35692208181,1997,86,15,3,0,0,0,0,3,0,0,0,33,0,4,0,8,0,3,17,0,0,0,0,0
GD,Grenada,country,Latin America and the Caribbean,12.262776,-61.604171,DM,Dominica,country,Latin America and the Caribbean,15.414999,-61.370976,351.807691411793,1997,1118,469,0,0,0,0,0,0,0,0,1,380,0,0,0,268,0,0,0,0,0,0,0,0
GP,Guadeloupe,country,Latin America and the Caribbean,16.995971,-62.067641,DM,Dominica,country,Latin America and the Caribbean,15.414999,-61.370976,191.099500424979,1997,182,0,51,2,0,4,0,38,25,0,0,0,0,12,0,18,0,0,32,0,0,0,0,0
GT,Guatemala,country,Latin America and the Caribbean,15.783471,-90.230759,DM,Dominica,country,Latin America and the Caribbean,15.414999,-61.370976,3092.16552901011,1997,1,0,0,0,0,0,0,0,0,0,0,0,0,1,0,0,0,0,0,0,0,0,0,0
GY,Guyana,country,Latin America and the Caribbean,4.860416,-58.93018,DM,Dominica,country,Latin America and the Caribbean,15.414999,-61.370976,1204.89763773236,1997,1733,732,0,1000,0,0,0,0,0,0,0,0,0,0,0,1,0,0,0,0,0,0,0,0
HU,Hungary,country,Europe and Central Asia,47.162494,19.503304,DM,Dominica,country,Latin America and the Caribbean,15.414999,-61.370976,8082.9334435951,1997,0,0,0,0,0,0,0,0,0,0,0,0,0,0,0,0,0,0,0,0,0,0,0,0
IN,India,country,South Asia,20.593684,78.96288,DM,Dominica,country,Latin America and the Caribbean,15.414999,-61.370976,14132.4196754703,1997,1,1,0,0,0,0,0,0,0,0,0,0,0,0,0,0,0,0,0,0,0,0,0,0
IE,Ireland,country,Europe and Central Asia,53.41291,-8.24389,DM,Dominica,country,Latin America and the Caribbean,15.414999,-61.370976,6241.39899154786,1997,22,0,0,0,0,0,0,0,0,0,0,0,0,0,0,22,0,0,0,0,0,0,0,0
IL,Israel,country,Middle East and North Africa,31.046051,34.851612,DM,Dominica,country,Latin America and the Caribbean,15.414999,-61.370976,9715.29077212889,1997,0,0,0,0,0,0,0,0,0,0,0,0,0,0,0,0,0,0,0,0,0,0,0,0
IT,Italy,country,Europe and Central Asia,41.87194,12.56738,DM,Dominica,country,Latin America and the Caribbean,15.414999,-61.370976,7559.94828886558,1997,0,0,0,0,0,0,0,0,0,0,0,0,0,0,0,0,0,0,0,0,0,0,0,0
JM,Jamaica,country,Latin America and the Caribbean,18.109581,-77.297508,DM,Dominica,country,Latin America and the Caribbean,15.414999,-61.370976,1723.25060619713,1997,641,29,0,1,0,0,0,0,1,0,0,1,6,54,0,512,0,1,36,0,0,0,0,0
JP,Japan,country,East Asia and Pacific,36.204824,138.252924,DM,Dominica,country,Latin America and the Caribbean,15.414999,-61.370976,13931.4485094987,1997,8,0,0,0,0,0,0,5,0,0,0,0,0,0,0,0,0,0,3,0,0,0,0,0
MW,Malawi,country,Sub-Saharan Africa,-13.254308,34.301525,DM,Dominica,country,Latin America and the Caribbean,15.414999,-61.370976,11002.9173255716,1997,0,0,0,0,0,0,0,0,0,0,0,0,0,0,0,0,0,0,0,0,0,0,0,0
MX,Mexico,country,Latin America and the Caribbean,23.634501,-102.552784,DM,Dominica,country,Latin America and the Caribbean,15.414999,-61.370976,4400.83591607222,1997,8,6,0,0,0,0,0,0,0,0,0,0,0,2,0,0,0,0,0,0,0,0,0,0
NA,Namibia,country,Sub-Saharan Africa,-22.95764,18.49041,DM,Dominica,country,Latin America and the Caribbean,15.414999,-61.370976,9683.25131583435,1997,3,0,0,0,0,0,0,3,0,0,0,0,0,0,0,0,0,0,0,0,0,0,0,0
NL,Netherlands,country,Europe and Central Asia,52.132633,5.291266,DM,Dominica,country,Latin America and the Caribbean,15.414999,-61.370976,7082.57846164332,1997,1044,8,159,0,0,0,0,195,3,0,0,0,1,12,0,2,0,0,664,0,0,0,0,0
NZ,New Zealand,country,East Asia and Pacific,-40.900557,174.885971,DM,Dominica,country,Latin America and the Caribbean,15.414999,-61.370976,13955.5733985947,1997,0,0,0,0,0,0,0,0,0,0,0,0,0,0,0,0,0,0,0,0,0,0,0,0
PA,Panama,country,Latin America and the Caribbean,8.537981,-80.782127,DM,Dominica,country,Latin America and the Caribbean,15.414999,-61.370976,2246.38904273489,1997,32,4,0,0,0,0,0,0,0,0,0,0,1,0,0,0,0,2,25,0,0,0,0,0
PH,Philippines,country,East Asia and Pacific,12.879721,121.774017,DM,Dominica,country,Latin America and the Caribbean,15.414999,-61.370976,16868.7617940053,1997,0,0,0,0,0,0,0,0,0,0,0,0,0,0,0,0,0,0,0,0,0,0,0,0
PR,Puerto Rico,country,Latin America and the Caribbean,18.220833,-66.590149,DM,Dominica,country,Latin America and the Caribbean,15.414999,-61.370976,637.777716860064,1997,238,48,1,33,0,0,0,23,21,0,0,20,9,57,10,13,0,1,2,0,0,0,0,0
KN,St. Kitts and Nevis,country,Latin America and the Caribbean,17.357822,-62.782998,DM,Dominica,country,Latin America and the Caribbean,15.414999,-61.370976,263.652286594621,1997,279,88,0,0,0,0,0,0,0,0,0,0,0,0,107,84,0,0,0,0,0,0,0,0
LC,St. Lucia,country,Latin America and the Caribbean,13.909444,-60.978893,DM,Dominica,country,Latin America and the Caribbean,15.414999,-61.370976,172.834597373838,1997,1645,46,0,0,0,0,396,0,0,0,2,0,0,9,211,981,0,0,0,0,0,0,0,0
VC,St. Vincent & Grenadines,country,Latin America and the Caribbean,12.984305,-61.287228,DM,Dominica,country,Latin America and the Caribbean,15.414999,-61.370976,270.734490508517,1997,3134,2354,0,500,0,0,0,0,0,0,0,279,0,1,0,0,0,0,0,0,0,0,0,0
SL,Sierra Leone,country,Sub-Saharan Africa,8.460555,-11.779889,DM,Dominica,country,Latin America and the Caribbean,15.414999,-61.370976,5444.78794729365,1997,2,0,0,0,0,0,0,0,0,0,1,0,0,1,0,0,0,0,0,0,0,0,0,0
ZA,S. Africa,country,Sub-Saharan Africa,-30.559482,22.937506,DM,Dominica,country,Latin America and the Caribbean,15.414999,-61.370976,10355.8057395063,1997,0,0,0,0,0,0,0,0,0,0,0,0,0,0,0,0,0,0,0,0,0,0,0,0
ES,Spain,country,Europe and Central Asia,40.463667,-3.74922,DM,Dominica,country,Latin America and the Caribbean,15.414999,-61.370976,6187.04865099674,1997,8,0,0,0,0,0,0,0,0,0,0,0,0,0,8,0,0,0,0,0,0,0,0,0
LK,Sri Lanka,country,South Asia,7.873054,80.771797,DM,Dominica,country,Latin America and the Caribbean,15.414999,-61.370976,15123.0824816073,1997,4,0,0,0,0,0,0,0,0,0,0,0,0,4,0,0,0,0,0,0,0,0,0,0
SE,Sweden,country,Europe and Central Asia,60.128161,18.643501,DM,Dominica,country,Latin America and the Caribbean,15.414999,-61.370976,7983.23412389947,1997,0,0,0,0,0,0,0,0,0,0,0,0,0,0,0,0,0,0,0,0,0,0,0,0
CH,Switzerland,country,Europe and Central Asia,46.818188,8.227512,DM,Dominica,country,Latin America and the Caribbean,15.414999,-61.370976,7227.50140894923,1997,2,1,0,0,0,0,0,0,0,0,0,0,0,1,0,0,0,0,0,0,0,0,0,0
TT,Trinidad and Tobago,country,Latin America and the Caribbean,10.691803,-61.222503,DM,Dominica,country,Latin America and the Caribbean,15.414999,-61.370976,526.03007868635,1997,3354,1225,1,23,0,0,2,10,230,0,3,218,30,200,564,647,0,68,133,0,0,0,0,0
TR,Turkey,country,Europe and Central Asia,38.963745,35.243322,DM,Dominica,country,Latin America and the Caribbean,15.414999,-61.370976,9502.78444171132,1997,1,0,0,0,0,0,0,0,1,0,0,0,0,0,0,0,0,0,0,0,0,0,0,0
GB,United Kingdom,country,Europe and Central Asia,55.378051,-3.435973,DM,Dominica,country,Latin America and the Caribbean,15.414999,-61.370976,6608.88335542643,1997,2842,173,135,1032,0,0,0,204,15,0,0,0,17,43,0,88,0,345,790,0,0,0,0,0
US,USA,country,North America,37.09024,-95.712891,DM,Dominica,country,Latin America and the Caribbean,15.414999,-61.370976,4154.60750234614,1997,10798,390,133,26,0,1,14,243,194,0,1,45,50,297,5795,224,7,3095,290,0,0,0,0,0
VI,Virgin Islands (U.S.),country,Latin America and the Caribbean,18.335765,-64.896335,DM,Dominica,country,Latin America and the Caribbean,15.414999,-61.370976,496.692984661841,1997,41,2,0,2,0,0,0,4,6,0,0,0,2,20,0,3,0,2,0,0,0,0,0,0
VE,Venezuela,country,Latin America and the Caribbean,6.42375,-66.58973,DM,Dominica,country,Latin America and the Caribbean,15.414999,-61.370976,1151.71336485953,1997,108,8,0,0,0,0,0,0,0,0,0,0,0,32,0,68,0,0,0,0,0,0,0,0
ZW,Zimbabwe,country,Sub-Saharan Africa,-19.015438,29.154857,DM,Dominica,country,Latin America and the Caribbean,15.414999,-61.370976,10625.4061794759,1997,6,0,0,0,0,0,0,0,0,0,0,0,0,6,0,0,0,0,0,0,0,0,0,0
WS,Samoa,country,East Asia and Pacific,-13.759029,-172.104629,DM,Dominica,country,Latin America and the Caribbean,15.414999,-61.370976,12606.729984194,2000,0,0,0,0,0,0,0,0,0,0,0,0,0,0,0,0,0,0,0,0,0,0,0,0
AG,Antigua & Barbuda,country,Latin America and the Caribbean,17.060816,-61.796428,DM,Dominica,country,Latin America and the Caribbean,15.414999,-61.370976,188.769606224064,2000,22,1,0,0,0,0,0,0,0,0,0,0,0,0,0,21,0,0,0,0,0,0,0,0
AR,Argentina,country,Latin America and the Caribbean,-38.416097,-63.616672,DM,Dominica,country,Latin America and the Caribbean,15.414999,-61.370976,5997.03229493844,2000,0,0,0,0,0,0,0,0,0,0,0,0,0,0,0,0,0,0,0,0,0,0,0,0
AU,Australia,country,East Asia and Pacific,-25.274398,133.775136,DM,Dominica,country,Latin America and the Caribbean,15.414999,-61.370976,18115.7192805474,2000,10,0,0,0,0,0,0,0,0,0,0,0,0,0,0,0,0,10,0,0,0,0,0,0
AT,Austria,country,Europe and Central Asia,47.516231,14.550072,DM,Dominica,country,Latin America and the Caribbean,15.414999,-61.370976,7708.08005536544,2000,0,0,0,0,0,0,0,0,0,0,0,0,0,0,0,0,0,0,0,0,0,0,0,0
BS,The Bahamas,country,Latin America and the Caribbean,25.03428,-77.39628,DM,Dominica,country,Latin America and the Caribbean,15.414999,-61.370976,1984.24563561771,2000,0,0,0,0,0,0,0,0,0,0,0,0,0,0,0,0,0,0,0,0,0,0,0,0
BB,Barbados,country,Latin America and the Caribbean,13.193887,-59.543198,DM,Dominica,country,Latin America and the Caribbean,15.414999,-61.370976,316.227415959398,2000,1420,259,0,0,0,0,0,6,20,0,0,698,1,37,210,72,52,27,90,0,0,0,0,0
BE,Belgium,country,Europe and Central Asia,50.503887,4.469936,DM,Dominica,country,Latin America and the Caribbean,15.414999,-61.370976,6998.31318629249,2000,19,0,0,0,0,0,0,0,0,0,0,0,0,0,19,0,0,0,0,0,0,0,0,0
BZ,Belize,country,Latin America and the Caribbean,17.189877,-88.49765,DM,Dominica,country,Latin America and the Caribbean,15.414999,-61.370976,2902.72256224363,2000,22,0,0,0,22,0,0,0,0,0,0,0,0,0,0,0,0,0,0,0,0,0,0,0
BM,Bermuda,country,North America,32.321384,-64.75737,DM,Dominica,country,Latin America and the Caribbean,15.414999,-61.370976,1912.96193801276,2000,2,0,0,0,0,0,0,0,0,0,0,0,0,0,0,2,0,0,0,0,0,0,0,0
BR,Brazil,country,Latin America and the Caribbean,-14.235004,-51.92528,DM,Dominica,country,Latin America and the Caribbean,15.414999,-61.370976,3460.46625258294,2000,83,0,0,0,0,0,0,0,0,0,0,0,2,0,0,0,0,81,0,0,0,0,0,0
VG,British Virgin Islands,country,Latin America and the Caribbean,18.420695,-64.639968,DM,Dominica,country,Latin America and the Caribbean,15.414999,-61.370976,482.830213869563,2000,0,0,0,0,0,0,0,0,0,0,0,0,0,0,0,0,0,0,0,0,0,0,0,0
BG,Bulgaria,country,Europe and Central Asia,42.733883,25.48583,DM,Dominica,country,Latin America and the Caribbean,15.414999,-61.370976,8609.20967786582,2000,1,0,0,0,0,0,0,0,0,0,0,0,0,0,0,0,0,1,0,0,0,0,0,0
CA,Canada,country,North America,56.130366,-106.346771,DM,Dominica,country,Latin America and the Caribbean,15.414999,-61.370976,5908.34603722269,2000,945,32,0,0,171,0,11,54,192,0,0,0,1,29,0,8,0,133,314,0,0,0,0,0
KY,Cayman Islands,country,Latin America and the Caribbean,19.513469,-80.566956,DM,Dominica,country,Latin America and the Caribbean,15.414999,-61.370976,2087.422361126,2000,12,0,0,0,0,0,0,0,0,0,0,1,0,0,10,0,0,1,0,0,0,0,0,0
CL,Chile,country,Latin America and the Caribbean,-35.675147,-71.542969,DM,Dominica,country,Latin America and the Caribbean,15.414999,-61.370976,5787.58971236115,2000,0,0,0,0,0,0,0,0,0,0,0,0,0,0,0,0,0,0,0,0,0,0,0,0
CN,China,country,East Asia and Pacific,35.86166,104.195397,DM,Dominica,country,Latin America and the Caribbean,15.414999,-61.370976,14130.2792097766,2000,43,1,0,0,0,0,13,29,0,0,0,0,0,0,0,0,0,0,0,0,0,0,0,0
CO,Colombia,country,Latin America and the Caribbean,4.570868,-74.297333,DM,Dominica,country,Latin America and the Caribbean,15.414999,-61.370976,1859.74847505777,2000,51,36,0,7,0,0,0,0,0,0,0,0,7,1,0,0,0,0,0,0,0,0,0,0
CR,Costa Rica,country,Latin America and the Caribbean,9.748917,-83.753428,DM,Dominica,country,Latin America and the Caribbean,15.414999,-61.370976,2510.41002870025,2000,206,0,0,0,0,0,0,0,0,0,206,0,0,0,0,0,0,0,0,0,0,0,0,0
CY,Cyprus,country,Europe and Central Asia,35.126413,33.429859,DM,Dominica,country,Latin America and the Caribbean,15.414999,-61.370976,9463.45299353319,2000,27,0,0,0,0,0,0,0,0,0,20,0,0,0,4,3,0,0,0,0,0,0,0,0
CZ,Czech Republic,country,Europe and Central Asia,49.817492,15.472962,DM,Dominica,country,Latin America and the Caribbean,15.414999,-61.370976,7774.5144719382,2000,2,0,0,0,0,0,0,0,0,0,0,0,0,0,0,0,0,0,2,0,0,0,0,0
DK,Denmark,country,Europe and Central Asia,56.26392,9.501785,DM,Dominica,country,Latin America and the Caribbean,15.414999,-61.370976,7418.53972475287,2000,74,16,0,0,0,0,0,0,0,0,0,0,0,0,0,0,0,58,0,0,0,0,0,0
DO,Dominican Republic,country,Latin America and the Caribbean,18.735693,-70.162651,DM,Dominica,country,Latin America and the Caribbean,15.414999,-61.370976,1005.69694423348,2000,0,0,0,0,0,0,0,0,0,0,0,0,0,0,0,0,0,0,0,0,0,0,0,0
EC,Ecuador,country,Latin America and the Caribbean,-1.831239,-78.183406,DM,Dominica,country,Latin America and the Caribbean,15.414999,-61.370976,2666.81150268421,2000,14,0,0,0,0,0,0,0,14,0,0,0,0,0,0,0,0,0,0,0,0,0,0,0
FR,France,country,Europe and Central Asia,46.227638,2.213749,DM,Dominica,country,Latin America and the Caribbean,15.414999,-61.370976,6762.60371327622,2000,421,31,80,1,0,0,0,33,26,0,0,0,0,5,6,180,0,1,58,0,0,0,0,0
DE,Germany,country,Europe and Central Asia,51.165691,10.451526,DM,Dominica,country,Latin America and the Caribbean,15.414999,-61.370976,7424.35692208181,2000,73,41,0,1,0,0,0,0,0,0,0,0,0,2,0,5,0,3,21,0,0,0,0,0
GR,Greece,country,Europe and Central Asia,39.074208,21.824312,DM,Dominica,country,Latin America and the Caribbean,15.414999,-61.370976,8366.11062195839,2000,24,24,0,0,0,0,0,0,0,0,0,0,0,0,0,0,0,0,0,0,0,0,0,0
GD,Grenada,country,Latin America and the Caribbean,12.262776,-61.604171,DM,Dominica,country,Latin America and the Caribbean,15.414999,-61.370976,351.807691411793,2000,2960,2583,0,0,0,0,0,0,0,0,1,376,0,0,0,0,0,0,0,0,0,0,0,0
GT,Guatemala,country,Latin America and the Caribbean,15.783471,-90.230759,DM,Dominica,country,Latin America and the Caribbean,15.414999,-61.370976,3092.16552901011,2000,0,0,0,0,0,0,0,0,0,0,0,0,0,0,0,0,0,0,0,0,0,0,0,0
GN,Guinea,country,Sub-Saharan Africa,9.945587,-9.696645,DM,Dominica,country,Latin America and the Caribbean,15.414999,-61.370976,5632.6343391252,2000,0,0,0,0,0,0,0,0,0,0,0,0,0,0,0,0,0,0,0,0,0,0,0,0
GY,Guyana,country,Latin America and the Caribbean,4.860416,-58.93018,DM,Dominica,country,Latin America and the Caribbean,15.414999,-61.370976,1204.89763773236,2000,5895,655,0,4825,0,0,0,0,0,0,0,0,0,0,400,15,0,0,0,0,0,0,0,0
HT,Haiti,country,Latin America and the Caribbean,18.971187,-72.285215,DM,Dominica,country,Latin America and the Caribbean,15.414999,-61.370976,1225.95627276387,2000,0,0,0,0,0,0,0,0,0,0,0,0,0,0,0,0,0,0,0,0,0,0,0,0
HU,Hungary,country,Europe and Central Asia,47.162494,19.503304,DM,Dominica,country,Latin America and the Caribbean,15.414999,-61.370976,8082.9334435951,2000,0,0,0,0,0,0,0,0,0,0,0,0,0,0,0,0,0,0,0,0,0,0,0,0
IN,India,country,South Asia,20.593684,78.96288,DM,Dominica,country,Latin America and the Caribbean,15.414999,-61.370976,14132.4196754703,2000,0,0,0,0,0,0,0,0,0,0,0,0,0,0,0,0,0,0,0,0,0,0,0,0
IE,Ireland,country,Europe and Central Asia,53.41291,-8.24389,DM,Dominica,country,Latin America and the Caribbean,15.414999,-61.370976,6241.39899154786,2000,65,0,0,0,0,0,0,0,0,0,0,0,0,0,0,0,0,0,65,0,0,0,0,0
IL,Israel,country,Middle East and North Africa,31.046051,34.851612,DM,Dominica,country,Latin America and the Caribbean,15.414999,-61.370976,9715.29077212889,2000,0,0,0,0,0,0,0,0,0,0,0,0,0,0,0,0,0,0,0,0,0,0,0,0
IT,Italy,country,Europe and Central Asia,41.87194,12.56738,DM,Dominica,country,Latin America and the Caribbean,15.414999,-61.370976,7559.94828886558,2000,9,0,0,0,0,0,0,0,0,0,0,0,0,0,0,9,0,0,0,0,0,0,0,0
JM,Jamaica,country,Latin America and the Caribbean,18.109581,-77.297508,DM,Dominica,country,Latin America and the Caribbean,15.414999,-61.370976,1723.25060619713,2000,707,30,0,6,0,0,1,0,1,0,0,0,29,38,0,484,0,29,89,0,0,0,0,0
JP,Japan,country,East Asia and Pacific,36.204824,138.252924,DM,Dominica,country,Latin America and the Caribbean,15.414999,-61.370976,13931.4485094987,2000,15,1,0,4,0,0,0,1,0,0,0,0,4,4,0,1,0,0,0,0,0,0,0,0
MW,Malawi,country,Sub-Saharan Africa,-13.254308,34.301525,DM,Dominica,country,Latin America and the Caribbean,15.414999,-61.370976,11002.9173255716,2000,1,0,0,0,1,0,0,0,0,0,0,0,0,0,0,0,0,0,0,0,0,0,0,0
ML,Mali,country,Sub-Saharan Africa,17.570692,-3.996166,DM,Dominica,country,Latin America and the Caribbean,15.414999,-61.370976,6105.70866233973,2000,4,0,0,0,0,0,0,4,0,0,0,0,0,0,0,0,0,0,0,0,0,0,0,0
MX,Mexico,country,Latin America and the Caribbean,23.634501,-102.552784,DM,Dominica,country,Latin America and the Caribbean,15.414999,-61.370976,4400.83591607222,2000,25,12,0,0,0,0,0,0,1,0,0,0,0,0,0,12,0,0,0,0,0,0,0,0
NL,Netherlands,country,Europe and Central Asia,52.132633,5.291266,DM,Dominica,country,Latin America and the Caribbean,15.414999,-61.370976,7082.57846164332,2000,2112,8,269,2,0,3,0,341,1,0,0,0,0,12,12,35,0,30,1399,0,0,0,0,0
PA,Panama,country,Latin America and the Caribbean,8.537981,-80.782127,DM,Dominica,country,Latin America and the Caribbean,15.414999,-61.370976,2246.38904273489,2000,177,0,0,21,0,0,0,0,0,0,0,0,0,0,0,17,0,0,139,0,0,0,0,0
PT,Portugal,country,Europe and Central Asia,39.399872,-8.224454,DM,Dominica,country,Latin America and the Caribbean,15.414999,-61.370976,5789.86048073182,2000,0,0,0,0,0,0,0,0,0,0,0,0,0,0,0,0,0,0,0,0,0,0,0,0
KN,St. Kitts and Nevis,country,Latin America and the Caribbean,17.357822,-62.782998,DM,Dominica,country,Latin America and the Caribbean,15.414999,-61.370976,263.652286594621,2000,289,49,0,0,0,0,0,0,0,0,0,0,0,0,158,82,0,0,0,0,0,0,0,0
LC,St. Lucia,country,Latin America and the Caribbean,13.909444,-60.978893,DM,Dominica,country,Latin America and the Caribbean,15.414999,-61.370976,172.834597373838,2000,1828,73,0,1,0,0,0,0,9,0,2,0,0,8,77,1658,0,0,0,0,0,0,0,0
VC,St. Vincent & Grenadines,country,Latin America and the Caribbean,12.984305,-61.287228,DM,Dominica,country,Latin America and the Caribbean,15.414999,-61.370976,270.734490508517,2000,2868,2172,0,0,0,0,0,0,0,0,0,674,0,0,0,21,0,0,1,0,0,0,0,0
SA,Saudi Arabia,country,Middle East and North Africa,23.885942,45.079162,DM,Dominica,country,Latin America and the Caribbean,15.414999,-61.370976,10927.4065701548,2000,0,0,0,0,0,0,0,0,0,0,0,0,0,0,0,0,0,0,0,0,0,0,0,0
SL,Sierra Leone,country,Sub-Saharan Africa,8.460555,-11.779889,DM,Dominica,country,Latin America and the Caribbean,15.414999,-61.370976,5444.78794729365,2000,0,0,0,0,0,0,0,0,0,0,0,0,0,0,0,0,0,0,0,0,0,0,0,0
ZA,S. Africa,country,Sub-Saharan Africa,-30.559482,22.937506,DM,Dominica,country,Latin America and the Caribbean,15.414999,-61.370976,10355.8057395063,2000,0,0,0,0,0,0,0,0,0,0,0,0,0,0,0,0,0,0,0,0,0,0,0,0
ES,Spain,country,Europe and Central Asia,40.463667,-3.74922,DM,Dominica,country,Latin America and the Caribbean,15.414999,-61.370976,6187.04865099674,2000,0,0,0,0,0,0,0,0,0,0,0,0,0,0,0,0,0,0,0,0,0,0,0,0
LK,Sri Lanka,country,South Asia,7.873054,80.771797,DM,Dominica,country,Latin America and the Caribbean,15.414999,-61.370976,15123.0824816073,2000,5,0,0,0,0,0,0,1,0,0,0,0,4,0,0,0,0,0,0,0,0,0,0,0
SZ,Swaziland,country,Sub-Saharan Africa,-26.522503,31.465866,DM,Dominica,country,Latin America and the Caribbean,15.414999,-61.370976,11052.6237941607,2000,2,0,0,0,0,0,0,0,0,0,0,0,0,0,0,0,0,0,2,0,0,0,0,0
CH,Switzerland,country,Europe and Central Asia,46.818188,8.227512,DM,Dominica,country,Latin America and the Caribbean,15.414999,-61.370976,7227.50140894923,2000,8,5,0,0,0,0,0,1,0,0,0,0,0,2,0,0,0,0,0,0,0,0,0,0
TH,Thailand,country,East Asia and Pacific,15.870032,100.992541,DM,Dominica,country,Latin America and the Caribbean,15.414999,-61.370976,16051.6880422079,2000,0,0,0,0,0,0,0,0,0,0,0,0,0,0,0,0,0,0,0,0,0,0,0,0
TT,Trinidad and Tobago,country,Latin America and the Caribbean,10.691803,-61.222503,DM,Dominica,country,Latin America and the Caribbean,15.414999,-61.370976,526.03007868635,2000,3345,986,0,59,2,11,8,28,158,0,5,798,31,348,230,470,0,69,142,0,0,0,0,0
TR,Turkey,country,Europe and Central Asia,38.963745,35.243322,DM,Dominica,country,Latin America and the Caribbean,15.414999,-61.370976,9502.78444171132,2000,1,0,0,0,0,0,0,0,1,0,0,0,0,0,0,0,0,0,0,0,0,0,0,0
UA,Ukraine,country,Europe and Central Asia,48.379433,31.16558,DM,Dominica,country,Latin America and the Caribbean,15.414999,-61.370976,8926.78389199721,2000,1,0,0,0,0,0,1,0,0,0,0,0,0,0,0,0,0,0,0,0,0,0,0,0
AE,United Arab Emirates,country,Middle East and North Africa,23.424076,53.847818,DM,Dominica,country,Latin America and the Caribbean,15.414999,-61.370976,11770.640445766,2000,40,40,0,0,0,0,0,0,0,0,0,0,0,0,0,0,0,0,0,0,0,0,0,0
GB,United Kingdom,country,Europe and Central Asia,55.378051,-3.435973,DM,Dominica,country,Latin America and the Caribbean,15.414999,-61.370976,6608.88335542643,2000,3077,320,65,1827,0,3,1,70,14,0,0,0,18,30,38,52,0,295,344,0,0,0,0,0
US,USA,country,North America,37.09024,-95.712891,DM,Dominica,country,Latin America and the Caribbean,15.414999,-61.370976,4154.60750234614,2000,9110,268,189,67,110,62,34,257,108,0,2,87,52,324,3464,311,4,3551,224,0,0,0,0,0
UY,Uruguay,country,Latin America and the Caribbean,-32.522779,-55.765835,DM,Dominica,country,Latin America and the Caribbean,15.414999,-61.370976,5369.71979978393,2000,2,2,0,0,0,0,0,0,0,0,0,0,0,0,0,0,0,0,0,0,0,0,0,0
VE,Venezuela,country,Latin America and the Caribbean,6.42375,-66.58973,DM,Dominica,country,Latin America and the Caribbean,15.414999,-61.370976,1151.71336485953,2000,39,5,0,0,0,0,0,0,0,0,0,0,0,15,0,19,0,0,0,0,0,0,0,0
ZW,Zimbabwe,country,Sub-Saharan Africa,-19.015438,29.154857,DM,Dominica,country,Latin America and the Caribbean,15.414999,-61.370976,10625.4061794759,2000,0,0,0,0,0,0,0,0,0,0,0,0,0,0,0,0,0,0,0,0,0,0,0,0
AF,Afghanistan,country,South Asia,33.93911,67.709953,DM,Dominica,country,Latin America and the Caribbean,15.414999,-61.370976,12338.895765484,2001,1,0,0,0,0,0,0,0,1,0,0,0,0,0,0,0,0,0,0,0,0,0,0,0
AL,Albania,country,Europe and Central Asia,41.153332,20.168331,DM,Dominica,country,Latin America and the Caribbean,15.414999,-61.370976,8197.25025281891,2001,0,0,0,0,0,0,0,0,0,0,0,0,0,0,0,0,0,0,0,0,0,0,0,0
AG,Antigua & Barbuda,country,Latin America and the Caribbean,17.060816,-61.796428,DM,Dominica,country,Latin America and the Caribbean,15.414999,-61.370976,188.769606224064,2001,18,0,0,0,0,0,0,0,0,0,0,0,0,0,0,13,1,0,5,0,0,0,0,0
AR,Argentina,country,Latin America and the Caribbean,-38.416097,-63.616672,DM,Dominica,country,Latin America and the Caribbean,15.414999,-61.370976,5997.03229493844,2001,1,0,0,0,0,0,0,0,0,0,0,0,0,0,0,1,0,0,0,0,0,0,0,0
AW,Aruba,country,Latin America and the Caribbean,12.52111,-69.968338,DM,Dominica,country,Latin America and the Caribbean,15.414999,-61.370976,982.8788127345,2001,2,0,0,0,0,0,0,0,0,0,0,0,0,0,0,0,0,2,0,0,0,0,0,0
AU,Australia,country,East Asia and Pacific,-25.274398,133.775136,DM,Dominica,country,Latin America and the Caribbean,15.414999,-61.370976,18115.7192805474,2001,17,0,0,0,0,0,0,0,0,0,0,0,0,0,0,0,0,17,0,0,0,0,0,0
BD,Bangladesh,country,South Asia,23.684994,90.356331,DM,Dominica,country,Latin America and the Caribbean,15.414999,-61.370976,14707.8995729536,2001,0,0,0,0,0,0,0,0,0,0,0,0,0,0,0,0,0,0,0,0,0,0,0,0
BB,Barbados,country,Latin America and the Caribbean,13.193887,-59.543198,DM,Dominica,country,Latin America and the Caribbean,15.414999,-61.370976,316.227415959398,2001,683,222,0,1,0,0,0,3,21,0,0,18,1,6,261,45,42,37,68,0,0,0,0,0
BE,Belgium,country,Europe and Central Asia,50.503887,4.469936,DM,Dominica,country,Latin America and the Caribbean,15.414999,-61.370976,6998.31318629249,2001,13,0,0,0,0,0,0,0,0,0,0,0,0,0,0,0,0,0,13,0,0,0,0,0
BZ,Belize,country,Latin America and the Caribbean,17.189877,-88.49765,DM,Dominica,country,Latin America and the Caribbean,15.414999,-61.370976,2902.72256224363,2001,1,0,0,0,1,0,0,0,0,0,0,0,0,0,0,0,0,0,0,0,0,0,0,0
BR,Brazil,country,Latin America and the Caribbean,-14.235004,-51.92528,DM,Dominica,country,Latin America and the Caribbean,15.414999,-61.370976,3460.46625258294,2001,47,0,0,0,0,0,0,0,0,0,0,0,3,19,0,0,0,25,0,0,0,0,0,0
VG,British Virgin Islands,country,Latin America and the Caribbean,18.420695,-64.639968,DM,Dominica,country,Latin America and the Caribbean,15.414999,-61.370976,482.830213869563,2001,0,0,0,0,0,0,0,0,0,0,0,0,0,0,0,0,0,0,0,0,0,0,0,0
CA,Canada,country,North America,56.130366,-106.346771,DM,Dominica,country,Latin America and the Caribbean,15.414999,-61.370976,5908.34603722269,2001,1104,46,51,0,308,0,6,48,6,0,0,0,0,38,1,0,0,161,439,0,0,0,0,0
CL,Chile,country,Latin America and the Caribbean,-35.675147,-71.542969,DM,Dominica,country,Latin America and the Caribbean,15.414999,-61.370976,5787.58971236115,2001,3,0,0,0,0,0,0,0,0,0,0,0,0,0,0,3,0,0,0,0,0,0,0,0
HK,Hong Kong,country,East Asia and Pacific,22.396428,114.109497,DM,Dominica,country,Latin America and the Caribbean,15.414999,-61.370976,15799.6091754972,2001,0,0,0,0,0,0,0,0,0,0,0,0,0,0,0,0,0,0,0,0,0,0,0,0
CN,China,country,East Asia and Pacific,35.86166,104.195397,DM,Dominica,country,Latin America and the Caribbean,15.414999,-61.370976,14130.2792097766,2001,25,1,0,0,0,1,0,22,0,0,0,0,0,1,0,0,0,0,0,0,0,0,0,0
TW,Taiwan,country,East Asia and Pacific,23.69781,120.960515,DM,Dominica,country,Latin America and the Caribbean,15.414999,-61.370976,15676.1075287334,2001,0,0,0,0,0,0,0,0,0,0,0,0,0,0,0,0,0,0,0,0,0,0,0,0
CO,Colombia,country,Latin America and the Caribbean,4.570868,-74.297333,DM,Dominica,country,Latin America and the Caribbean,15.414999,-61.370976,1859.74847505777,2001,23,14,0,6,0,0,0,0,0,0,0,0,3,0,0,0,0,0,0,0,0,0,0,0
CR,Costa Rica,country,Latin America and the Caribbean,9.748917,-83.753428,DM,Dominica,country,Latin America and the Caribbean,15.414999,-61.370976,2510.41002870025,2001,84,0,0,0,0,0,0,0,0,0,82,0,2,0,0,0,0,0,0,0,0,0,0,0
CY,Cyprus,country,Europe and Central Asia,35.126413,33.429859,DM,Dominica,country,Latin America and the Caribbean,15.414999,-61.370976,9463.45299353319,2001,23,21,0,0,0,0,0,2,0,0,0,0,0,0,0,0,0,0,0,0,0,0,0,0
DK,Denmark,country,Europe and Central Asia,56.26392,9.501785,DM,Dominica,country,Latin America and the Caribbean,15.414999,-61.370976,7418.53972475287,2001,58,16,0,0,0,0,0,0,0,0,0,0,0,0,0,0,0,42,0,0,0,0,0,0
EC,Ecuador,country,Latin America and the Caribbean,-1.831239,-78.183406,DM,Dominica,country,Latin America and the Caribbean,15.414999,-61.370976,2666.81150268421,2001,32,0,0,0,0,0,0,0,32,0,0,0,0,0,0,0,0,0,0,0,0,0,0,0
FI,Finland,country,Europe and Central Asia,61.92411,25.748151,DM,Dominica,country,Latin America and the Caribbean,15.414999,-61.370976,8358.77422516427,2001,2,0,0,0,0,0,0,0,0,0,0,0,0,0,0,2,0,0,0,0,0,0,0,0
FR,France,country,Europe and Central Asia,46.227638,2.213749,DM,Dominica,country,Latin America and the Caribbean,15.414999,-61.370976,6762.60371327622,2001,613,0,109,69,0,0,0,72,32,0,0,26,0,6,6,252,0,1,40,0,0,0,0,0
GA,Gabon,country,Sub-Saharan Africa,-0.803689,11.609444,DM,Dominica,country,Latin America and the Caribbean,15.414999,-61.370976,8219.21927908491,2001,20,20,0,0,0,0,0,0,0,0,0,0,0,0,0,0,0,0,0,0,0,0,0,0
DE,Germany,country,Europe and Central Asia,51.165691,10.451526,DM,Dominica,country,Latin America and the Caribbean,15.414999,-61.370976,7424.35692208181,2001,52,3,0,4,0,0,0,0,0,0,0,0,0,2,0,2,0,0,41,0,0,0,0,0
GR,Greece,country,Europe and Central Asia,39.074208,21.824312,DM,Dominica,country,Latin America and the Caribbean,15.414999,-61.370976,8366.11062195839,2001,1,0,0,0,0,0,0,0,1,0,0,0,0,0,0,0,0,0,0,0,0,0,0,0
GD,Grenada,country,Latin America and the Caribbean,12.262776,-61.604171,DM,Dominica,country,Latin America and the Caribbean,15.414999,-61.370976,351.807691411793,2001,3052,2818,0,0,0,0,0,0,0,0,1,233,0,0,0,0,0,0,0,0,0,0,0,0
GT,Guatemala,country,Latin America and the Caribbean,15.783471,-90.230759,DM,Dominica,country,Latin America and the Caribbean,15.414999,-61.370976,3092.16552901011,2001,5,0,0,0,0,0,0,0,0,0,0,0,0,5,0,0,0,0,0,0,0,0,0,0
GY,Guyana,country,Latin America and the Caribbean,4.860416,-58.93018,DM,Dominica,country,Latin America and the Caribbean,15.414999,-61.370976,1204.89763773236,2001,2551,748,0,1553,0,1,206,0,22,0,2,0,0,2,3,13,0,0,1,0,0,0,0,0
IN,India,country,South Asia,20.593684,78.96288,DM,Dominica,country,Latin America and the Caribbean,15.414999,-61.370976,14132.4196754703,2001,0,0,0,0,0,0,0,0,0,0,0,0,0,0,0,0,0,0,0,0,0,0,0,0
ID,Indonesia,country,East Asia and Pacific,-0.789275,113.921327,DM,Dominica,country,Latin America and the Caribbean,15.414999,-61.370976,18329.1678027762,2001,0,0,0,0,0,0,0,0,0,0,0,0,0,0,0,0,0,0,0,0,0,0,0,0
IE,Ireland,country,Europe and Central Asia,53.41291,-8.24389,DM,Dominica,country,Latin America and the Caribbean,15.414999,-61.370976,6241.39899154786,2001,42,0,0,0,0,0,0,0,0,0,0,0,0,0,0,0,0,0,42,0,0,0,0,0
JM,Jamaica,country,Latin America and the Caribbean,18.109581,-77.297508,DM,Dominica,country,Latin America and the Caribbean,15.414999,-61.370976,1723.25060619713,2001,733,21,0,8,0,0,0,0,0,0,0,0,14,35,0,509,0,16,130,0,0,0,0,0
JP,Japan,country,East Asia and Pacific,36.204824,138.252924,DM,Dominica,country,Latin America and the Caribbean,15.414999,-61.370976,13931.4485094987,2001,8,1,0,0,0,0,0,0,0,0,0,0,0,1,0,3,0,0,3,0,0,0,0,0
MW,Malawi,country,Sub-Saharan Africa,-13.254308,34.301525,DM,Dominica,country,Latin America and the Caribbean,15.414999,-61.370976,11002.9173255716,2001,0,0,0,0,0,0,0,0,0,0,0,0,0,0,0,0,0,0,0,0,0,0,0,0
MY,Malaysia,country,East Asia and Pacific,4.210484,101.975766,DM,Dominica,country,Latin America and the Caribbean,15.414999,-61.370976,17184.044978378,2001,499,0,0,0,0,0,0,0,0,0,0,0,0,0,499,0,0,0,0,0,0,0,0,0
MX,Mexico,country,Latin America and the Caribbean,23.634501,-102.552784,DM,Dominica,country,Latin America and the Caribbean,15.414999,-61.370976,4400.83591607222,2001,12,12,0,0,0,0,0,0,0,0,0,0,0,0,0,0,0,0,0,0,0,0,0,0
NL,Netherlands,country,Europe and Central Asia,52.132633,5.291266,DM,Dominica,country,Latin America and the Caribbean,15.414999,-61.370976,7082.57846164332,2001,1789,7,200,0,0,2,0,682,0,0,0,0,0,10,1,90,0,3,794,0,0,0,0,0
NZ,New Zealand,country,East Asia and Pacific,-40.900557,174.885971,DM,Dominica,country,Latin America and the Caribbean,15.414999,-61.370976,13955.5733985947,2001,0,0,0,0,0,0,0,0,0,0,0,0,0,0,0,0,0,0,0,0,0,0,0,0
PA,Panama,country,Latin America and the Caribbean,8.537981,-80.782127,DM,Dominica,country,Latin America and the Caribbean,15.414999,-61.370976,2246.38904273489,2001,159,8,0,22,2,0,0,0,5,0,0,1,9,5,0,6,0,0,101,0,0,0,0,0
PG,Papua New Guinea,country,East Asia and Pacific,-6.314993,143.95555,DM,Dominica,country,Latin America and the Caribbean,15.414999,-61.370976,17093.0345880263,2001,0,0,0,0,0,0,0,0,0,0,0,0,0,0,0,0,0,0,0,0,0,0,0,0
KN,St. Kitts and Nevis,country,Latin America and the Caribbean,17.357822,-62.782998,DM,Dominica,country,Latin America and the Caribbean,15.414999,-61.370976,263.652286594621,2001,239,44,0,0,0,0,0,0,0,0,0,0,0,1,117,77,0,0,0,0,0,0,0,0
LC,St. Lucia,country,Latin America and the Caribbean,13.909444,-60.978893,DM,Dominica,country,Latin America and the Caribbean,15.414999,-61.370976,172.834597373838,2001,1426,60,0,0,0,0,0,0,0,0,0,0,0,4,27,1335,0,0,0,0,0,0,0,0
VC,St. Vincent & Grenadines,country,Latin America and the Caribbean,12.984305,-61.287228,DM,Dominica,country,Latin America and the Caribbean,15.414999,-61.370976,270.734490508517,2001,3616,1110,0,0,0,0,0,0,0,0,0,2496,0,1,0,6,0,3,0,0,0,0,0,0
SN,Senegal,country,Sub-Saharan Africa,14.497401,-14.452362,DM,Dominica,country,Latin America and the Caribbean,15.414999,-61.370976,5036.97865041503,2001,0,0,0,0,0,0,0,0,0,0,0,0,0,0,0,0,0,0,0,0,0,0,0,0
SL,Sierra Leone,country,Sub-Saharan Africa,8.460555,-11.779889,DM,Dominica,country,Latin America and the Caribbean,15.414999,-61.370976,5444.78794729365,2001,0,0,0,0,0,0,0,0,0,0,0,0,0,0,0,0,0,0,0,0,0,0,0,0
ZA,S. Africa,country,Sub-Saharan Africa,-30.559482,22.937506,DM,Dominica,country,Latin America and the Caribbean,15.414999,-61.370976,10355.8057395063,2001,0,0,0,0,0,0,0,0,0,0,0,0,0,0,0,0,0,0,0,0,0,0,0,0
ES,Spain,country,Europe and Central Asia,40.463667,-3.74922,DM,Dominica,country,Latin America and the Caribbean,15.414999,-61.370976,6187.04865099674,2001,1,1,0,0,0,0,0,0,0,0,0,0,0,0,0,0,0,0,0,0,0,0,0,0
LK,Sri Lanka,country,South Asia,7.873054,80.771797,DM,Dominica,country,Latin America and the Caribbean,15.414999,-61.370976,15123.0824816073,2001,13,0,0,0,0,0,0,0,0,0,0,0,10,3,0,0,0,0,0,0,0,0,0,0
SZ,Swaziland,country,Sub-Saharan Africa,-26.522503,31.465866,DM,Dominica,country,Latin America and the Caribbean,15.414999,-61.370976,11052.6237941607,2001,0,0,0,0,0,0,0,0,0,0,0,0,0,0,0,0,0,0,0,0,0,0,0,0
SE,Sweden,country,Europe and Central Asia,60.128161,18.643501,DM,Dominica,country,Latin America and the Caribbean,15.414999,-61.370976,7983.23412389947,2001,0,0,0,0,0,0,0,0,0,0,0,0,0,0,0,0,0,0,0,0,0,0,0,0
CH,Switzerland,country,Europe and Central Asia,46.818188,8.227512,DM,Dominica,country,Latin America and the Caribbean,15.414999,-61.370976,7227.50140894923,2001,8,5,0,0,0,0,0,0,0,0,0,0,3,0,0,0,0,0,0,0,0,0,0,0
TT,Trinidad and Tobago,country,Latin America and the Caribbean,10.691803,-61.222503,DM,Dominica,country,Latin America and the Caribbean,15.414999,-61.370976,526.03007868635,2001,3454,933,4,29,0,5,3,16,71,0,4,1323,5,242,306,345,0,93,75,0,0,0,0,0
TR,Turkey,country,Europe and Central Asia,38.963745,35.243322,DM,Dominica,country,Latin America and the Caribbean,15.414999,-61.370976,9502.78444171132,2001,5,0,0,0,0,0,0,0,5,0,0,0,0,0,0,0,0,0,0,0,0,0,0,0
AE,United Arab Emirates,country,Middle East and North Africa,23.424076,53.847818,DM,Dominica,country,Latin America and the Caribbean,15.414999,-61.370976,11770.640445766,2001,53,53,0,0,0,0,0,0,0,0,0,0,0,0,0,0,0,0,0,0,0,0,0,0
GB,United Kingdom,country,Europe and Central Asia,55.378051,-3.435973,DM,Dominica,country,Latin America and the Caribbean,15.414999,-61.370976,6608.88335542643,2001,2797,243,91,1804,0,2,0,84,23,0,0,0,9,15,0,58,0,276,192,0,0,0,0,0
US,USA,country,North America,37.09024,-95.712891,DM,Dominica,country,Latin America and the Caribbean,15.414999,-61.370976,4154.60750234614,2001,12798,265,146,55,72,55,9,257,55,0,1,149,78,340,6709,198,3,4181,228,0,0,0,0,0
VE,Venezuela,country,Latin America and the Caribbean,6.42375,-66.58973,DM,Dominica,country,Latin America and the Caribbean,15.414999,-61.370976,1151.71336485953,2001,66,6,0,0,0,0,0,0,0,0,0,0,0,21,0,39,0,0,0,0,0,0,0,0
ZW,Zimbabwe,country,Sub-Saharan Africa,-19.015438,29.154857,DM,Dominica,country,Latin America and the Caribbean,15.414999,-61.370976,10625.4061794759,2001,0,0,0,0,0,0,0,0,0,0,0,0,0,0,0,0,0,0,0,0,0,0,0,0
AL,Albania,country,Europe and Central Asia,41.153332,20.168331,DM,Dominica,country,Latin America and the Caribbean,15.414999,-61.370976,8197.25025281891,2002,1,0,0,0,0,0,0,0,0,0,0,0,0,0,0,0,0,1,0,0,0,0,0,0
WS,Samoa,country,East Asia and Pacific,-13.759029,-172.104629,DM,Dominica,country,Latin America and the Caribbean,15.414999,-61.370976,12606.729984194,2002,0,0,0,0,0,0,0,0,0,0,0,0,0,0,0,0,0,0,0,0,0,0,0,0
AG,Antigua & Barbuda,country,Latin America and the Caribbean,17.060816,-61.796428,DM,Dominica,country,Latin America and the Caribbean,15.414999,-61.370976,188.769606224064,2002,41,23,0,0,0,0,0,2,0,0,0,0,0,1,0,14,0,0,1,0,0,0,0,0
AR,Argentina,country,Latin America and the Caribbean,-38.416097,-63.616672,DM,Dominica,country,Latin America and the Caribbean,15.414999,-61.370976,5997.03229493844,2002,94,0,0,0,0,0,0,0,0,0,0,0,0,0,0,0,0,0,94,0,0,0,0,0
AU,Australia,country,East Asia and Pacific,-25.274398,133.775136,DM,Dominica,country,Latin America and the Caribbean,15.414999,-61.370976,18115.7192805474,2002,66,0,0,0,0,0,0,0,0,0,0,0,0,1,0,0,0,65,0,0,0,0,0,0
BD,Bangladesh,country,South Asia,23.684994,90.356331,DM,Dominica,country,Latin America and the Caribbean,15.414999,-61.370976,14707.8995729536,2002,23,23,0,0,0,0,0,0,0,0,0,0,0,0,0,0,0,0,0,0,0,0,0,0
BB,Barbados,country,Latin America and the Caribbean,13.193887,-59.543198,DM,Dominica,country,Latin America and the Caribbean,15.414999,-61.370976,316.227415959398,2002,2233,1778,0,0,0,0,0,2,21,0,0,19,3,35,252,40,55,23,60,0,0,0,0,0
BZ,Belize,country,Latin America and the Caribbean,17.189877,-88.49765,DM,Dominica,country,Latin America and the Caribbean,15.414999,-61.370976,2902.72256224363,2002,18,0,0,0,0,0,0,0,0,0,0,0,0,0,0,0,0,18,0,0,0,0,0,0
BR,Brazil,country,Latin America and the Caribbean,-14.235004,-51.92528,DM,Dominica,country,Latin America and the Caribbean,15.414999,-61.370976,3460.46625258294,2002,109,0,0,0,0,0,0,0,0,0,0,0,7,20,0,0,0,63,19,0,0,0,0,0
VG,British Virgin Islands,country,Latin America and the Caribbean,18.420695,-64.639968,DM,Dominica,country,Latin America and the Caribbean,15.414999,-61.370976,482.830213869563,2002,0,0,0,0,0,0,0,0,0,0,0,0,0,0,0,0,0,0,0,0,0,0,0,0
CA,Canada,country,North America,56.130366,-106.346771,DM,Dominica,country,Latin America and the Caribbean,15.414999,-61.370976,5908.34603722269,2002,1057,102,53,1,232,1,2,82,9,0,1,8,4,35,4,11,0,163,349,0,0,0,0,0
TD,Chad,country,Sub-Saharan Africa,15.454166,18.732207,DM,Dominica,country,Latin America and the Caribbean,15.414999,-61.370976,8535.05783515201,2002,0,0,0,0,0,0,0,0,0,0,0,0,0,0,0,0,0,0,0,0,0,0,0,0
CL,Chile,country,Latin America and the Caribbean,-35.675147,-71.542969,DM,Dominica,country,Latin America and the Caribbean,15.414999,-61.370976,5787.58971236115,2002,6,0,0,0,0,0,0,0,0,0,0,0,1,0,0,5,0,0,0,0,0,0,0,0
HK,Hong Kong,country,East Asia and Pacific,22.396428,114.109497,DM,Dominica,country,Latin America and the Caribbean,15.414999,-61.370976,15799.6091754972,2002,0,0,0,0,0,0,0,0,0,0,0,0,0,0,0,0,0,0,0,0,0,0,0,0
CN,China,country,East Asia and Pacific,35.86166,104.195397,DM,Dominica,country,Latin America and the Caribbean,15.414999,-61.370976,14130.2792097766,2002,28,0,0,0,0,12,0,16,0,0,0,0,0,0,0,0,0,0,0,0,0,0,0,0
TW,Taiwan,country,East Asia and Pacific,23.69781,120.960515,DM,Dominica,country,Latin America and the Caribbean,15.414999,-61.370976,15676.1075287334,2002,0,0,0,0,0,0,0,0,0,0,0,0,0,0,0,0,0,0,0,0,0,0,0,0
CO,Colombia,country,Latin America and the Caribbean,4.570868,-74.297333,DM,Dominica,country,Latin America and the Caribbean,15.414999,-61.370976,1859.74847505777,2002,12,7,0,4,0,0,0,0,0,0,0,0,1,0,0,0,0,0,0,0,0,0,0,0
CR,Costa Rica,country,Latin America and the Caribbean,9.748917,-83.753428,DM,Dominica,country,Latin America and the Caribbean,15.414999,-61.370976,2510.41002870025,2002,241,0,0,0,0,0,0,0,0,0,241,0,0,0,0,0,0,0,0,0,0,0,0,0
DK,Denmark,country,Europe and Central Asia,56.26392,9.501785,DM,Dominica,country,Latin America and the Caribbean,15.414999,-61.370976,7418.53972475287,2002,53,0,0,0,0,0,0,0,0,0,0,0,0,0,0,0,0,53,0,0,0,0,0,0
EC,Ecuador,country,Latin America and the Caribbean,-1.831239,-78.183406,DM,Dominica,country,Latin America and the Caribbean,15.414999,-61.370976,2666.81150268421,2002,9,0,0,0,0,0,0,0,9,0,0,0,0,0,0,0,0,0,0,0,0,0,0,0
FI,Finland,country,Europe and Central Asia,61.92411,25.748151,DM,Dominica,country,Latin America and the Caribbean,15.414999,-61.370976,8358.77422516427,2002,1,0,0,0,0,0,0,0,0,0,0,0,0,0,0,1,0,0,0,0,0,0,0,0
FR,France,country,Europe and Central Asia,46.227638,2.213749,DM,Dominica,country,Latin America and the Caribbean,15.414999,-61.370976,6762.60371327622,2002,359,0,79,1,0,0,0,33,21,0,0,0,0,11,7,162,0,0,45,0,0,0,0,0
DE,Germany,country,Europe and Central Asia,51.165691,10.451526,DM,Dominica,country,Latin America and the Caribbean,15.414999,-61.370976,7424.35692208181,2002,68,57,0,2,0,0,0,0,0,0,0,0,0,1,0,8,0,0,0,0,0,0,0,0
GR,Greece,country,Europe and Central Asia,39.074208,21.824312,DM,Dominica,country,Latin America and the Caribbean,15.414999,-61.370976,8366.11062195839,2002,112,112,0,0,0,0,0,0,0,0,0,0,0,0,0,0,0,0,0,0,0,0,0,0
GD,Grenada,country,Latin America and the Caribbean,12.262776,-61.604171,DM,Dominica,country,Latin America and the Caribbean,15.414999,-61.370976,351.807691411793,2002,1419,1144,0,0,0,0,0,0,0,0,1,274,0,0,0,0,0,0,0,0,0,0,0,0
GT,Guatemala,country,Latin America and the Caribbean,15.783471,-90.230759,DM,Dominica,country,Latin America and the Caribbean,15.414999,-61.370976,3092.16552901011,2002,9,0,0,0,0,0,0,0,0,0,0,0,0,9,0,0,0,0,0,0,0,0,0,0
GY,Guyana,country,Latin America and the Caribbean,4.860416,-58.93018,DM,Dominica,country,Latin America and the Caribbean,15.414999,-61.370976,1204.89763773236,2002,2152,711,0,1350,0,0,0,0,7,0,0,0,1,2,1,80,0,0,0,0,0,0,0,0
HN,Honduras,country,Latin America and the Caribbean,15.199999,-86.241905,DM,Dominica,country,Latin America and the Caribbean,15.414999,-61.370976,2669.01487470046,2002,0,0,0,0,0,0,0,0,0,0,0,0,0,0,0,0,0,0,0,0,0,0,0,0
IN,India,country,South Asia,20.593684,78.96288,DM,Dominica,country,Latin America and the Caribbean,15.414999,-61.370976,14132.4196754703,2002,0,0,0,0,0,0,0,0,0,0,0,0,0,0,0,0,0,0,0,0,0,0,0,0
ID,Indonesia,country,East Asia and Pacific,-0.789275,113.921327,DM,Dominica,country,Latin America and the Caribbean,15.414999,-61.370976,18329.1678027762,2002,6,0,0,6,0,0,0,0,0,0,0,0,0,0,0,0,0,0,0,0,0,0,0,0
IE,Ireland,country,Europe and Central Asia,53.41291,-8.24389,DM,Dominica,country,Latin America and the Caribbean,15.414999,-61.370976,6241.39899154786,2002,0,0,0,0,0,0,0,0,0,0,0,0,0,0,0,0,0,0,0,0,0,0,0,0
JM,Jamaica,country,Latin America and the Caribbean,18.109581,-77.297508,DM,Dominica,country,Latin America and the Caribbean,15.414999,-61.370976,1723.25060619713,2002,632,17,0,9,0,0,1,0,0,0,0,0,27,36,0,458,0,18,66,0,0,0,0,0
JP,Japan,country,East Asia and Pacific,36.204824,138.252924,DM,Dominica,country,Latin America and the Caribbean,15.414999,-61.370976,13931.4485094987,2002,10,2,0,0,0,0,0,0,0,0,0,0,0,0,0,8,0,0,0,0,0,0,0,0
MY,Malaysia,country,East Asia and Pacific,4.210484,101.975766,DM,Dominica,country,Latin America and the Caribbean,15.414999,-61.370976,17184.044978378,2002,1197,0,0,0,0,0,0,0,0,0,0,0,0,0,1197,0,0,0,0,0,0,0,0,0
MX,Mexico,country,Latin America and the Caribbean,23.634501,-102.552784,DM,Dominica,country,Latin America and the Caribbean,15.414999,-61.370976,4400.83591607222,2002,12,10,0,0,0,0,0,0,0,0,0,0,0,2,0,0,0,0,0,0,0,0,0,0
NL,Netherlands,country,Europe and Central Asia,52.132633,5.291266,DM,Dominica,country,Latin America and the Caribbean,15.414999,-61.370976,7082.57846164332,2002,1551,5,307,0,1,0,0,388,3,0,0,0,0,7,2,64,0,4,770,0,0,0,0,0
PA,Panama,country,Latin America and the Caribbean,8.537981,-80.782127,DM,Dominica,country,Latin America and the Caribbean,15.414999,-61.370976,2246.38904273489,2002,136,6,3,0,0,0,0,0,1,0,0,1,3,4,0,5,0,8,105,0,0,0,0,0
PT,Portugal,country,Europe and Central Asia,39.399872,-8.224454,DM,Dominica,country,Latin America and the Caribbean,15.414999,-61.370976,5789.86048073182,2002,23,0,0,23,0,0,0,0,0,0,0,0,0,0,0,0,0,0,0,0,0,0,0,0
KR,"Korea, Rep.",country,East Asia and Pacific,35.907757,127.766922,DM,Dominica,country,Latin America and the Caribbean,15.414999,-61.370976,14243.7301438885,2002,0,0,0,0,0,0,0,0,0,0,0,0,0,0,0,0,0,0,0,0,0,0,0,0
KN,St. Kitts and Nevis,country,Latin America and the Caribbean,17.357822,-62.782998,DM,Dominica,country,Latin America and the Caribbean,15.414999,-61.370976,263.652286594621,2002,177,58,0,0,0,0,0,0,0,0,0,0,0,4,91,24,0,0,0,0,0,0,0,0
LC,St. Lucia,country,Latin America and the Caribbean,13.909444,-60.978893,DM,Dominica,country,Latin America and the Caribbean,15.414999,-61.370976,172.834597373838,2002,1422,40,0,0,0,0,0,1,0,0,1,0,0,16,21,1343,0,0,0,0,0,0,0,0
VC,St. Vincent & Grenadines,country,Latin America and the Caribbean,12.984305,-61.287228,DM,Dominica,country,Latin America and the Caribbean,15.414999,-61.370976,270.734490508517,2002,1841,1127,0,0,0,0,0,0,0,0,0,699,0,0,0,15,0,0,0,0,0,0,0,0
SL,Sierra Leone,country,Sub-Saharan Africa,8.460555,-11.779889,DM,Dominica,country,Latin America and the Caribbean,15.414999,-61.370976,5444.78794729365,2002,0,0,0,0,0,0,0,0,0,0,0,0,0,0,0,0,0,0,0,0,0,0,0,0
ES,Spain,country,Europe and Central Asia,40.463667,-3.74922,DM,Dominica,country,Latin America and the Caribbean,15.414999,-61.370976,6187.04865099674,2002,3,2,0,0,0,0,0,0,0,0,0,0,0,0,0,0,0,0,1,0,0,0,0,0
LK,Sri Lanka,country,South Asia,7.873054,80.771797,DM,Dominica,country,Latin America and the Caribbean,15.414999,-61.370976,15123.0824816073,2002,2,0,0,0,0,0,0,0,0,0,0,0,0,2,0,0,0,0,0,0,0,0,0,0
SZ,Swaziland,country,Sub-Saharan Africa,-26.522503,31.465866,DM,Dominica,country,Latin America and the Caribbean,15.414999,-61.370976,11052.6237941607,2002,1,1,0,0,0,0,0,0,0,0,0,0,0,0,0,0,0,0,0,0,0,0,0,0
CH,Switzerland,country,Europe and Central Asia,46.818188,8.227512,DM,Dominica,country,Latin America and the Caribbean,15.414999,-61.370976,7227.50140894923,2002,4,3,0,0,0,0,0,1,0,0,0,0,0,0,0,0,0,0,0,0,0,0,0,0
TT,Trinidad and Tobago,country,Latin America and the Caribbean,10.691803,-61.222503,DM,Dominica,country,Latin America and the Caribbean,15.414999,-61.370976,526.03007868635,2002,3734,855,1,37,0,9,6,24,74,0,6,1515,6,264,474,339,0,74,50,0,0,0,0,0
TR,Turkey,country,Europe and Central Asia,38.963745,35.243322,DM,Dominica,country,Latin America and the Caribbean,15.414999,-61.370976,9502.78444171132,2002,26,25,0,0,0,0,0,0,1,0,0,0,0,0,0,0,0,0,0,0,0,0,0,0
UA,Ukraine,country,Europe and Central Asia,48.379433,31.16558,DM,Dominica,country,Latin America and the Caribbean,15.414999,-61.370976,8926.78389199721,2002,9,0,0,0,0,0,0,0,0,0,0,0,0,0,0,0,0,9,0,0,0,0,0,0
AE,United Arab Emirates,country,Middle East and North Africa,23.424076,53.847818,DM,Dominica,country,Latin America and the Caribbean,15.414999,-61.370976,11770.640445766,2002,0,0,0,0,0,0,0,0,0,0,0,0,0,0,0,0,0,0,0,0,0,0,0,0
GB,United Kingdom,country,Europe and Central Asia,55.378051,-3.435973,DM,Dominica,country,Latin America and the Caribbean,15.414999,-61.370976,6608.88335542643,2002,3020,271,77,1630,1,3,0,59,16,0,0,5,16,27,0,77,0,548,290,0,0,0,0,0
US,USA,country,North America,37.09024,-95.712891,DM,Dominica,country,Latin America and the Caribbean,15.414999,-61.370976,4154.60750234614,2002,8140,317,153,80,59,56,18,228,55,0,2,44,49,306,3556,242,7,2783,192,0,0,0,0,0
UY,Uruguay,country,Latin America and the Caribbean,-32.522779,-55.765835,DM,Dominica,country,Latin America and the Caribbean,15.414999,-61.370976,5369.71979978393,2002,0,0,0,0,0,0,0,0,0,0,0,0,0,0,0,0,0,0,0,0,0,0,0,0
VE,Venezuela,country,Latin America and the Caribbean,6.42375,-66.58973,DM,Dominica,country,Latin America and the Caribbean,15.414999,-61.370976,1151.71336485953,2002,58,3,0,0,0,0,0,0,1,0,0,0,0,32,0,22,0,0,0,0,0,0,0,0
ZW,Zimbabwe,country,Sub-Saharan Africa,-19.015438,29.154857,DM,Dominica,country,Latin America and the Caribbean,15.414999,-61.370976,10625.4061794759,2002,29,0,0,0,0,0,0,0,0,0,0,0,0,29,0,0,0,0,0,0,0,0,0,0
WS,Samoa,country,East Asia and Pacific,-13.759029,-172.104629,DM,Dominica,country,Latin America and the Caribbean,15.414999,-61.370976,12606.729984194,2003,0,0,0,0,0,0,0,0,0,0,0,0,0,0,0,0,0,0,0,0,0,0,0,0
AG,Antigua & Barbuda,country,Latin America and the Caribbean,17.060816,-61.796428,DM,Dominica,country,Latin America and the Caribbean,15.414999,-61.370976,188.769606224064,2003,4,0,0,0,0,0,0,0,0,0,0,0,0,0,0,4,0,0,0,0,0,0,0,0
AR,Argentina,country,Latin America and the Caribbean,-38.416097,-63.616672,DM,Dominica,country,Latin America and the Caribbean,15.414999,-61.370976,5997.03229493844,2003,79,4,0,0,0,0,0,0,0,0,0,0,0,0,0,0,0,0,75,0,0,0,0,0
AU,Australia,country,East Asia and Pacific,-25.274398,133.775136,DM,Dominica,country,Latin America and the Caribbean,15.414999,-61.370976,18115.7192805474,2003,13,0,0,0,0,0,0,0,0,0,0,0,0,0,0,0,0,13,0,0,0,0,0,0
BS,The Bahamas,country,Latin America and the Caribbean,25.03428,-77.39628,DM,Dominica,country,Latin America and the Caribbean,15.414999,-61.370976,1984.24563561771,2003,0,0,0,0,0,0,0,0,0,0,0,0,0,0,0,0,0,0,0,0,0,0,0,0
BD,Bangladesh,country,South Asia,23.684994,90.356331,DM,Dominica,country,Latin America and the Caribbean,15.414999,-61.370976,14707.8995729536,2003,38,23,0,0,0,0,0,0,0,0,0,0,0,0,15,0,0,0,0,0,0,0,0,0
BB,Barbados,country,Latin America and the Caribbean,13.193887,-59.543198,DM,Dominica,country,Latin America and the Caribbean,15.414999,-61.370976,316.227415959398,2003,3078,2510,0,2,0,0,0,3,11,0,0,12,0,7,379,71,53,25,58,0,0,0,0,0
BZ,Belize,country,Latin America and the Caribbean,17.189877,-88.49765,DM,Dominica,country,Latin America and the Caribbean,15.414999,-61.370976,2902.72256224363,2003,14,0,0,0,14,0,0,0,0,0,0,0,0,0,0,0,0,0,0,0,0,0,0,0
BR,Brazil,country,Latin America and the Caribbean,-14.235004,-51.92528,DM,Dominica,country,Latin America and the Caribbean,15.414999,-61.370976,3460.46625258294,2003,83,0,0,0,4,0,0,0,0,0,0,0,19,20,0,0,0,28,12,0,0,0,0,0
VG,British Virgin Islands,country,Latin America and the Caribbean,18.420695,-64.639968,DM,Dominica,country,Latin America and the Caribbean,15.414999,-61.370976,482.830213869563,2003,0,0,0,0,0,0,0,0,0,0,0,0,0,0,0,0,0,0,0,0,0,0,0,0
BI,Burundi,country,Sub-Saharan Africa,-3.373056,29.918886,DM,Dominica,country,Latin America and the Caribbean,15.414999,-61.370976,10256.7292377541,2003,0,0,0,0,0,0,0,0,0,0,0,0,0,0,0,0,0,0,0,0,0,0,0,0
CA,Canada,country,North America,56.130366,-106.346771,DM,Dominica,country,Latin America and the Caribbean,15.414999,-61.370976,5908.34603722269,2003,1191,88,149,2,239,2,3,51,17,0,0,7,5,46,2,23,0,265,292,0,0,0,0,0
CL,Chile,country,Latin America and the Caribbean,-35.675147,-71.542969,DM,Dominica,country,Latin America and the Caribbean,15.414999,-61.370976,5787.58971236115,2003,33,12,0,0,0,0,0,0,0,0,0,0,5,0,0,0,0,0,16,0,0,0,0,0
CN,China,country,East Asia and Pacific,35.86166,104.195397,DM,Dominica,country,Latin America and the Caribbean,15.414999,-61.370976,14130.2792097766,2003,59,0,0,1,0,0,0,56,0,0,0,0,0,2,0,0,0,0,0,0,0,0,0,0
TW,Taiwan,country,East Asia and Pacific,23.69781,120.960515,DM,Dominica,country,Latin America and the Caribbean,15.414999,-61.370976,15676.1075287334,2003,1,0,0,0,0,0,0,0,0,0,0,0,0,1,0,0,0,0,0,0,0,0,0,0
CO,Colombia,country,Latin America and the Caribbean,4.570868,-74.297333,DM,Dominica,country,Latin America and the Caribbean,15.414999,-61.370976,1859.74847505777,2003,1228,32,0,10,0,0,0,0,0,0,0,0,1,1,1181,3,0,0,0,0,0,0,0,0
CR,Costa Rica,country,Latin America and the Caribbean,9.748917,-83.753428,DM,Dominica,country,Latin America and the Caribbean,15.414999,-61.370976,2510.41002870025,2003,268,0,0,0,0,0,0,0,0,0,245,0,5,18,0,0,0,0,0,0,0,0,0,0
CI,Ivory Coast,country,Sub-Saharan Africa,7.539989,-5.54708,DM,Dominica,country,Latin America and the Caribbean,15.414999,-61.370976,6136.96172872149,2003,0,0,0,0,0,0,0,0,0,0,0,0,0,0,0,0,0,0,0,0,0,0,0,0
CU,Cuba,country,Latin America and the Caribbean,21.521757,-77.781167,DM,Dominica,country,Latin America and the Caribbean,15.414999,-61.370976,1859.69842200049,2003,0,0,0,0,0,0,0,0,0,0,0,0,0,0,0,0,0,0,0,0,0,0,0,0
DK,Denmark,country,Europe and Central Asia,56.26392,9.501785,DM,Dominica,country,Latin America and the Caribbean,15.414999,-61.370976,7418.53972475287,2003,72,0,0,0,0,0,0,0,0,0,0,0,0,0,0,0,0,72,0,0,0,0,0,0
DO,Dominican Republic,country,Latin America and the Caribbean,18.735693,-70.162651,DM,Dominica,country,Latin America and the Caribbean,15.414999,-61.370976,1005.69694423348,2003,10,9,0,0,0,0,0,0,0,0,0,0,0,1,0,0,0,0,0,0,0,0,0,0
EC,Ecuador,country,Latin America and the Caribbean,-1.831239,-78.183406,DM,Dominica,country,Latin America and the Caribbean,15.414999,-61.370976,2666.81150268421,2003,26,0,0,0,0,0,0,0,26,0,0,0,0,0,0,0,0,0,0,0,0,0,0,0
FR,France,country,Europe and Central Asia,46.227638,2.213749,DM,Dominica,country,Latin America and the Caribbean,15.414999,-61.370976,6762.60371327622,2003,386,1,89,1,1,3,0,42,20,0,0,1,0,59,3,118,0,6,42,0,0,0,0,0
DE,Germany,country,Europe and Central Asia,51.165691,10.451526,DM,Dominica,country,Latin America and the Caribbean,15.414999,-61.370976,7424.35692208181,2003,38,17,0,1,0,0,0,0,0,0,0,0,0,4,0,0,0,0,16,0,0,0,0,0
GD,Grenada,country,Latin America and the Caribbean,12.262776,-61.604171,DM,Dominica,country,Latin America and the Caribbean,15.414999,-61.370976,351.807691411793,2003,428,303,0,0,0,0,0,0,0,0,2,123,0,0,0,0,0,0,0,0,0,0,0,0
GT,Guatemala,country,Latin America and the Caribbean,15.783471,-90.230759,DM,Dominica,country,Latin America and the Caribbean,15.414999,-61.370976,3092.16552901011,2003,13,0,0,0,0,0,0,0,0,0,0,0,0,13,0,0,0,0,0,0,0,0,0,0
GY,Guyana,country,Latin America and the Caribbean,4.860416,-58.93018,DM,Dominica,country,Latin America and the Caribbean,15.414999,-61.370976,1204.89763773236,2003,2553,621,0,1620,0,0,0,0,6,0,0,0,0,0,200,106,0,0,0,0,0,0,0,0
ID,Indonesia,country,East Asia and Pacific,-0.789275,113.921327,DM,Dominica,country,Latin America and the Caribbean,15.414999,-61.370976,18329.1678027762,2003,8,0,0,8,0,0,0,0,0,0,0,0,0,0,0,0,0,0,0,0,0,0,0,0
IR,Iran,country,Middle East and North Africa,32.427908,53.688046,DM,Dominica,country,Latin America and the Caribbean,15.414999,-61.370976,11316.7700357323,2003,1,0,0,0,0,0,0,0,1,0,0,0,0,0,0,0,0,0,0,0,0,0,0,0
IE,Ireland,country,Europe and Central Asia,53.41291,-8.24389,DM,Dominica,country,Latin America and the Caribbean,15.414999,-61.370976,6241.39899154786,2003,0,0,0,0,0,0,0,0,0,0,0,0,0,0,0,0,0,0,0,0,0,0,0,0
JM,Jamaica,country,Latin America and the Caribbean,18.109581,-77.297508,DM,Dominica,country,Latin America and the Caribbean,15.414999,-61.370976,1723.25060619713,2003,681,22,0,9,0,0,1,0,0,0,0,0,37,43,0,457,0,16,96,0,0,0,0,0
JP,Japan,country,East Asia and Pacific,36.204824,138.252924,DM,Dominica,country,Latin America and the Caribbean,15.414999,-61.370976,13931.4485094987,2003,0,0,0,0,0,0,0,0,0,0,0,0,0,0,0,0,0,0,0,0,0,0,0,0
MY,Malaysia,country,East Asia and Pacific,4.210484,101.975766,DM,Dominica,country,Latin America and the Caribbean,15.414999,-61.370976,17184.044978378,2003,0,0,0,0,0,0,0,0,0,0,0,0,0,0,0,0,0,0,0,0,0,0,0,0
MX,Mexico,country,Latin America and the Caribbean,23.634501,-102.552784,DM,Dominica,country,Latin America and the Caribbean,15.414999,-61.370976,4400.83591607222,2003,1,1,0,0,0,0,0,0,0,0,0,0,0,0,0,0,0,0,0,0,0,0,0,0
NL,Netherlands,country,Europe and Central Asia,52.132633,5.291266,DM,Dominica,country,Latin America and the Caribbean,15.414999,-61.370976,7082.57846164332,2003,1582,8,265,0,0,0,0,374,0,0,0,0,0,6,1,21,0,0,907,0,0,0,0,0
PA,Panama,country,Latin America and the Caribbean,8.537981,-80.782127,DM,Dominica,country,Latin America and the Caribbean,15.414999,-61.370976,2246.38904273489,2003,71,2,0,0,0,0,0,0,3,0,0,0,2,0,0,0,0,0,64,0,0,0,0,0
PE,Peru,country,Latin America and the Caribbean,-9.189967,-75.015152,DM,Dominica,country,Latin America and the Caribbean,15.414999,-61.370976,3125.13814561336,2003,20,0,0,0,0,0,0,0,0,0,0,0,0,0,0,0,0,0,20,0,0,0,0,0
KN,St. Kitts and Nevis,country,Latin America and the Caribbean,17.357822,-62.782998,DM,Dominica,country,Latin America and the Caribbean,15.414999,-61.370976,263.652286594621,2003,157,39,0,0,0,0,0,0,0,0,0,1,0,1,115,1,0,0,0,0,0,0,0,0
LC,St. Lucia,country,Latin America and the Caribbean,13.909444,-60.978893,DM,Dominica,country,Latin America and the Caribbean,15.414999,-61.370976,172.834597373838,2003,1068,66,0,0,0,0,0,0,0,0,2,0,0,2,39,959,0,0,0,0,0,0,0,0
VC,St. Vincent & Grenadines,country,Latin America and the Caribbean,12.984305,-61.287228,DM,Dominica,country,Latin America and the Caribbean,15.414999,-61.370976,270.734490508517,2003,1968,1336,0,0,0,0,0,0,0,0,0,632,0,0,0,0,0,0,0,0,0,0,0,0
ZA,S. Africa,country,Sub-Saharan Africa,-30.559482,22.937506,DM,Dominica,country,Latin America and the Caribbean,15.414999,-61.370976,10355.8057395063,2003,0,0,0,0,0,0,0,0,0,0,0,0,0,0,0,0,0,0,0,0,0,0,0,0
ES,Spain,country,Europe and Central Asia,40.463667,-3.74922,DM,Dominica,country,Latin America and the Caribbean,15.414999,-61.370976,6187.04865099674,2003,2,0,0,0,0,0,0,0,0,0,0,0,0,0,0,0,0,0,2,0,0,0,0,0
LK,Sri Lanka,country,South Asia,7.873054,80.771797,DM,Dominica,country,Latin America and the Caribbean,15.414999,-61.370976,15123.0824816073,2003,5,1,0,0,0,0,0,0,0,0,0,0,0,4,0,0,0,0,0,0,0,0,0,0
SZ,Swaziland,country,Sub-Saharan Africa,-26.522503,31.465866,DM,Dominica,country,Latin America and the Caribbean,15.414999,-61.370976,11052.6237941607,2003,6,0,0,0,0,0,0,0,0,0,0,0,6,0,0,0,0,0,0,0,0,0,0,0
CH,Switzerland,country,Europe and Central Asia,46.818188,8.227512,DM,Dominica,country,Latin America and the Caribbean,15.414999,-61.370976,7227.50140894923,2003,17,5,0,0,0,0,0,2,0,0,0,0,9,1,0,0,0,0,0,0,0,0,0,0
TH,Thailand,country,East Asia and Pacific,15.870032,100.992541,DM,Dominica,country,Latin America and the Caribbean,15.414999,-61.370976,16051.6880422079,2003,21,21,0,0,0,0,0,0,0,0,0,0,0,0,0,0,0,0,0,0,0,0,0,0
TT,Trinidad and Tobago,country,Latin America and the Caribbean,10.691803,-61.222503,DM,Dominica,country,Latin America and the Caribbean,15.414999,-61.370976,526.03007868635,2003,3937,837,0,44,6,7,3,15,78,0,6,1735,11,214,467,414,1,56,44,0,0,0,0,0
TR,Turkey,country,Europe and Central Asia,38.963745,35.243322,DM,Dominica,country,Latin America and the Caribbean,15.414999,-61.370976,9502.78444171132,2003,12,12,0,0,0,0,0,0,0,0,0,0,0,0,0,0,0,0,0,0,0,0,0,0
UA,Ukraine,country,Europe and Central Asia,48.379433,31.16558,DM,Dominica,country,Latin America and the Caribbean,15.414999,-61.370976,8926.78389199721,2003,0,0,0,0,0,0,0,0,0,0,0,0,0,0,0,0,0,0,0,0,0,0,0,0
AE,United Arab Emirates,country,Middle East and North Africa,23.424076,53.847818,DM,Dominica,country,Latin America and the Caribbean,15.414999,-61.370976,11770.640445766,2003,0,0,0,0,0,0,0,0,0,0,0,0,0,0,0,0,0,0,0,0,0,0,0,0
GB,United Kingdom,country,Europe and Central Asia,55.378051,-3.435973,DM,Dominica,country,Latin America and the Caribbean,15.414999,-61.370976,6608.88335542643,2003,2793,254,39,1594,0,1,0,32,19,0,0,0,5,14,1,29,0,479,326,0,0,0,0,0
US,USA,country,North America,37.09024,-95.712891,DM,Dominica,country,Latin America and the Caribbean,15.414999,-61.370976,4154.60750234614,2003,10615,296,90,85,35,94,17,161,48,0,1,73,63,489,5928,181,3,2892,162,0,0,0,0,0
VE,Venezuela,country,Latin America and the Caribbean,6.42375,-66.58973,DM,Dominica,country,Latin America and the Caribbean,15.414999,-61.370976,1151.71336485953,2003,69,4,0,0,0,0,0,0,0,0,0,0,0,24,0,41,0,0,0,0,0,0,0,0
AL,Albania,country,Europe and Central Asia,41.153332,20.168331,DM,Dominica,country,Latin America and the Caribbean,15.414999,-61.370976,8197.25025281891,2004,0,0,0,0,0,0,0,0,0,0,0,0,0,0,0,0,0,0,0,0,0,0,0,0
WS,Samoa,country,East Asia and Pacific,-13.759029,-172.104629,DM,Dominica,country,Latin America and the Caribbean,15.414999,-61.370976,12606.729984194,2004,0,0,0,0,0,0,0,0,0,0,0,0,0,0,0,0,0,0,0,0,0,0,0,0
AG,Antigua & Barbuda,country,Latin America and the Caribbean,17.060816,-61.796428,DM,Dominica,country,Latin America and the Caribbean,15.414999,-61.370976,188.769606224064,2004,10,0,0,0,0,0,0,0,0,0,0,0,0,0,0,10,0,0,0,0,0,0,0,0
AR,Argentina,country,Latin America and the Caribbean,-38.416097,-63.616672,DM,Dominica,country,Latin America and the Caribbean,15.414999,-61.370976,5997.03229493844,2004,74,10,0,0,0,0,0,0,0,0,0,0,0,0,0,0,0,0,64,0,0,0,0,0
AU,Australia,country,East Asia and Pacific,-25.274398,133.775136,DM,Dominica,country,Latin America and the Caribbean,15.414999,-61.370976,18115.7192805474,2004,48,0,0,0,0,0,0,0,0,0,0,0,0,1,0,1,0,46,0,0,0,0,0,0
AT,Austria,country,Europe and Central Asia,47.516231,14.550072,DM,Dominica,country,Latin America and the Caribbean,15.414999,-61.370976,7708.08005536544,2004,8,0,0,0,0,0,0,0,0,0,0,0,0,0,0,8,0,0,0,0,0,0,0,0
BD,Bangladesh,country,South Asia,23.684994,90.356331,DM,Dominica,country,Latin America and the Caribbean,15.414999,-61.370976,14707.8995729536,2004,0,0,0,0,0,0,0,0,0,0,0,0,0,0,0,0,1,0,0,0,0,0,0,0
BB,Barbados,country,Latin America and the Caribbean,13.193887,-59.543198,DM,Dominica,country,Latin America and the Caribbean,15.414999,-61.370976,316.227415959398,2004,3335,2185,0,2,0,0,0,1,20,0,0,53,0,0,623,358,69,32,61,0,0,0,0,0
BE,Belgium,country,Europe and Central Asia,50.503887,4.469936,DM,Dominica,country,Latin America and the Caribbean,15.414999,-61.370976,6998.31318629249,2004,27,0,0,0,0,0,0,0,0,0,0,0,0,0,0,0,0,0,27,0,0,0,0,0
BZ,Belize,country,Latin America and the Caribbean,17.189877,-88.49765,DM,Dominica,country,Latin America and the Caribbean,15.414999,-61.370976,2902.72256224363,2004,15,0,0,0,15,0,0,0,0,0,0,0,0,0,0,0,0,0,0,0,0,0,0,0
BR,Brazil,country,Latin America and the Caribbean,-14.235004,-51.92528,DM,Dominica,country,Latin America and the Caribbean,15.414999,-61.370976,3460.46625258294,2004,153,8,0,1,0,0,0,0,0,0,0,0,22,20,0,0,0,87,15,0,0,0,0,0
VG,British Virgin Islands,country,Latin America and the Caribbean,18.420695,-64.639968,DM,Dominica,country,Latin America and the Caribbean,15.414999,-61.370976,482.830213869563,2004,0,0,0,0,0,0,0,0,0,0,0,0,0,0,0,0,0,0,0,0,0,0,0,0
CA,Canada,country,North America,56.130366,-106.346771,DM,Dominica,country,Latin America and the Caribbean,15.414999,-61.370976,5908.34603722269,2004,1179,69,151,3,199,1,2,80,11,0,2,14,4,50,3,47,0,310,233,0,0,0,0,0
CL,Chile,country,Latin America and the Caribbean,-35.675147,-71.542969,DM,Dominica,country,Latin America and the Caribbean,15.414999,-61.370976,5787.58971236115,2004,27,19,0,0,0,0,0,0,0,0,0,0,3,0,0,5,0,0,0,0,0,0,0,0
HK,Hong Kong,country,East Asia and Pacific,22.396428,114.109497,DM,Dominica,country,Latin America and the Caribbean,15.414999,-61.370976,15799.6091754972,2004,0,0,0,0,0,0,0,0,0,0,0,0,0,0,0,0,0,0,0,0,0,0,0,0
CN,China,country,East Asia and Pacific,35.86166,104.195397,DM,Dominica,country,Latin America and the Caribbean,15.414999,-61.370976,14130.2792097766,2004,68,1,0,2,0,1,0,57,0,0,0,0,0,1,0,6,0,0,0,0,0,0,0,0
TW,Taiwan,country,East Asia and Pacific,23.69781,120.960515,DM,Dominica,country,Latin America and the Caribbean,15.414999,-61.370976,15676.1075287334,2004,0,0,0,0,0,0,0,0,0,0,0,0,0,0,0,0,0,0,0,0,0,0,0,0
CO,Colombia,country,Latin America and the Caribbean,4.570868,-74.297333,DM,Dominica,country,Latin America and the Caribbean,15.414999,-61.370976,1859.74847505777,2004,89,29,0,3,0,0,0,0,1,0,0,0,9,1,0,44,0,0,2,0,0,0,0,0
CR,Costa Rica,country,Latin America and the Caribbean,9.748917,-83.753428,DM,Dominica,country,Latin America and the Caribbean,15.414999,-61.370976,2510.41002870025,2004,61,0,0,0,0,0,0,0,0,0,47,0,0,14,0,0,0,0,0,0,0,0,0,0
DK,Denmark,country,Europe and Central Asia,56.26392,9.501785,DM,Dominica,country,Latin America and the Caribbean,15.414999,-61.370976,7418.53972475287,2004,78,0,0,0,0,0,0,0,0,0,0,0,0,0,0,0,0,78,0,0,0,0,0,0
DO,Dominican Republic,country,Latin America and the Caribbean,18.735693,-70.162651,DM,Dominica,country,Latin America and the Caribbean,15.414999,-61.370976,1005.69694423348,2004,15,1,0,0,0,0,0,0,2,0,0,0,0,1,0,1,0,0,10,0,0,0,0,0
EC,Ecuador,country,Latin America and the Caribbean,-1.831239,-78.183406,DM,Dominica,country,Latin America and the Caribbean,15.414999,-61.370976,2666.81150268421,2004,12,0,0,0,0,0,0,0,12,0,0,0,0,0,0,0,0,0,0,0,0,0,0,0
FR,France,country,Europe and Central Asia,46.227638,2.213749,DM,Dominica,country,Latin America and the Caribbean,15.414999,-61.370976,6762.60371327622,2004,364,3,78,1,1,0,0,70,16,0,0,0,2,22,0,121,0,7,43,0,0,0,0,0
DE,Germany,country,Europe and Central Asia,51.165691,10.451526,DM,Dominica,country,Latin America and the Caribbean,15.414999,-61.370976,7424.35692208181,2004,27,15,2,2,0,0,0,0,0,0,0,0,0,4,0,4,0,0,0,0,0,0,0,0
GD,Grenada,country,Latin America and the Caribbean,12.262776,-61.604171,DM,Dominica,country,Latin America and the Caribbean,15.414999,-61.370976,351.807691411793,2004,908,775,0,0,0,0,0,0,0,0,3,130,0,0,0,0,0,0,0,0,0,0,0,0
GU,Guam,country,East Asia and Pacific,13.444304,144.793731,DM,Dominica,country,Latin America and the Caribbean,15.414999,-61.370976,15722.3146288726,2004,8,8,0,0,0,0,0,0,0,0,0,0,0,0,0,0,0,0,0,0,0,0,0,0
GT,Guatemala,country,Latin America and the Caribbean,15.783471,-90.230759,DM,Dominica,country,Latin America and the Caribbean,15.414999,-61.370976,3092.16552901011,2004,26,5,0,0,0,0,0,0,0,0,0,0,1,20,0,0,0,0,0,0,0,0,0,0
GY,Guyana,country,Latin America and the Caribbean,4.860416,-58.93018,DM,Dominica,country,Latin America and the Caribbean,15.414999,-61.370976,1204.89763773236,2004,2947,811,0,1615,0,0,0,0,17,0,0,0,0,0,400,104,0,0,0,0,0,0,0,0
HT,Haiti,country,Latin America and the Caribbean,18.971187,-72.285215,DM,Dominica,country,Latin America and the Caribbean,15.414999,-61.370976,1225.95627276387,2004,2,0,0,0,0,0,0,0,0,0,0,0,0,2,0,0,0,0,0,0,0,0,0,0
IN,India,country,South Asia,20.593684,78.96288,DM,Dominica,country,Latin America and the Caribbean,15.414999,-61.370976,14132.4196754703,2004,1,0,0,1,0,0,0,0,0,0,0,0,0,0,0,0,0,0,0,0,0,0,0,0
IT,Italy,country,Europe and Central Asia,41.87194,12.56738,DM,Dominica,country,Latin America and the Caribbean,15.414999,-61.370976,7559.94828886558,2004,0,0,0,0,0,0,0,0,0,0,0,0,0,0,0,0,0,0,0,0,0,0,0,0
JM,Jamaica,country,Latin America and the Caribbean,18.109581,-77.297508,DM,Dominica,country,Latin America and the Caribbean,15.414999,-61.370976,1723.25060619713,2004,556,19,2,10,0,0,0,0,0,0,0,0,27,25,0,412,0,15,46,0,0,0,0,0
JP,Japan,country,East Asia and Pacific,36.204824,138.252924,DM,Dominica,country,Latin America and the Caribbean,15.414999,-61.370976,13931.4485094987,2004,0,0,0,0,0,0,0,0,0,0,0,0,0,0,0,0,0,0,0,0,0,0,0,0
MW,Malawi,country,Sub-Saharan Africa,-13.254308,34.301525,DM,Dominica,country,Latin America and the Caribbean,15.414999,-61.370976,11002.9173255716,2004,0,0,0,0,0,0,0,0,0,0,0,0,0,0,0,0,0,0,0,0,0,0,0,0
MY,Malaysia,country,East Asia and Pacific,4.210484,101.975766,DM,Dominica,country,Latin America and the Caribbean,15.414999,-61.370976,17184.044978378,2004,0,0,0,0,0,0,0,0,0,0,0,0,0,0,0,0,0,0,0,0,0,0,0,0
MX,Mexico,country,Latin America and the Caribbean,23.634501,-102.552784,DM,Dominica,country,Latin America and the Caribbean,15.414999,-61.370976,4400.83591607222,2004,0,0,0,0,0,0,0,0,0,0,0,0,0,0,0,0,0,0,0,0,0,0,0,0
NL,Netherlands,country,Europe and Central Asia,52.132633,5.291266,DM,Dominica,country,Latin America and the Caribbean,15.414999,-61.370976,7082.57846164332,2004,1317,6,201,2,0,0,0,277,1,0,0,0,0,9,1,66,0,0,754,0,0,0,0,0
NO,Norway,country,Europe and Central Asia,60.472024,8.468946,DM,Dominica,country,Latin America and the Caribbean,15.414999,-61.370976,7428.58331871928,2004,3,0,0,0,0,0,0,0,1,0,0,0,0,0,0,0,0,0,2,0,0,0,0,0
PA,Panama,country,Latin America and the Caribbean,8.537981,-80.782127,DM,Dominica,country,Latin America and the Caribbean,15.414999,-61.370976,2246.38904273489,2004,12,3,0,0,0,0,0,0,0,0,0,0,2,1,0,0,0,0,6,0,0,0,0,0
PE,Peru,country,Latin America and the Caribbean,-9.189967,-75.015152,DM,Dominica,country,Latin America and the Caribbean,15.414999,-61.370976,3125.13814561336,2004,239,0,0,0,0,0,0,0,0,0,0,0,0,0,0,0,0,0,239,0,0,0,0,0
KN,St. Kitts and Nevis,country,Latin America and the Caribbean,17.357822,-62.782998,DM,Dominica,country,Latin America and the Caribbean,15.414999,-61.370976,263.652286594621,2004,113,21,0,0,0,0,0,0,0,0,0,2,0,6,83,1,0,0,0,0,0,0,0,0
LC,St. Lucia,country,Latin America and the Caribbean,13.909444,-60.978893,DM,Dominica,country,Latin America and the Caribbean,15.414999,-61.370976,172.834597373838,2004,1772,63,0,1,0,0,0,0,0,0,1,0,0,4,34,1669,0,0,0,0,0,0,0,0
VC,St. Vincent & Grenadines,country,Latin America and the Caribbean,12.984305,-61.287228,DM,Dominica,country,Latin America and the Caribbean,15.414999,-61.370976,270.734490508517,2004,1599,963,0,0,0,0,0,0,1,0,0,632,0,2,0,1,0,0,0,0,0,0,0,0
SA,Saudi Arabia,country,Middle East and North Africa,23.885942,45.079162,DM,Dominica,country,Latin America and the Caribbean,15.414999,-61.370976,10927.4065701548,2004,2,0,0,0,0,0,0,0,0,0,0,0,0,0,0,0,0,0,2,0,0,0,0,0
ZA,S. Africa,country,Sub-Saharan Africa,-30.559482,22.937506,DM,Dominica,country,Latin America and the Caribbean,15.414999,-61.370976,10355.8057395063,2004,0,0,0,0,0,0,0,0,0,0,0,0,0,0,0,0,0,0,0,0,0,0,0,0
ES,Spain,country,Europe and Central Asia,40.463667,-3.74922,DM,Dominica,country,Latin America and the Caribbean,15.414999,-61.370976,6187.04865099674,2004,24,0,0,0,0,0,0,0,0,0,0,0,0,0,0,19,0,0,5,0,0,0,0,0
LK,Sri Lanka,country,South Asia,7.873054,80.771797,DM,Dominica,country,Latin America and the Caribbean,15.414999,-61.370976,15123.0824816073,2004,8,0,0,0,0,0,0,0,0,0,0,0,0,8,0,0,0,0,0,0,0,0,0,0
SZ,Swaziland,country,Sub-Saharan Africa,-26.522503,31.465866,DM,Dominica,country,Latin America and the Caribbean,15.414999,-61.370976,11052.6237941607,2004,10,0,0,0,0,0,0,0,0,0,0,0,10,0,0,0,0,0,0,0,0,0,0,0
SE,Sweden,country,Europe and Central Asia,60.128161,18.643501,DM,Dominica,country,Latin America and the Caribbean,15.414999,-61.370976,7983.23412389947,2004,30,0,0,0,0,0,0,0,0,0,0,0,0,0,0,0,0,0,30,0,0,0,0,0
CH,Switzerland,country,Europe and Central Asia,46.818188,8.227512,DM,Dominica,country,Latin America and the Caribbean,15.414999,-61.370976,7227.50140894923,2004,4,1,0,1,0,0,0,0,0,0,0,0,2,0,0,0,0,0,0,0,0,0,0,0
TH,Thailand,country,East Asia and Pacific,15.870032,100.992541,DM,Dominica,country,Latin America and the Caribbean,15.414999,-61.370976,16051.6880422079,2004,21,21,0,0,0,0,0,0,0,0,0,0,0,0,0,0,0,0,0,0,0,0,0,0
TT,Trinidad and Tobago,country,Latin America and the Caribbean,10.691803,-61.222503,DM,Dominica,country,Latin America and the Caribbean,15.414999,-61.370976,526.03007868635,2004,3650,706,0,46,13,14,4,24,116,0,6,1511,15,288,291,508,0,84,24,0,0,0,0,0
TR,Turkey,country,Europe and Central Asia,38.963745,35.243322,DM,Dominica,country,Latin America and the Caribbean,15.414999,-61.370976,9502.78444171132,2004,2,0,0,0,0,0,0,0,1,0,0,0,0,1,0,0,0,0,0,0,0,0,0,0
GB,United Kingdom,country,Europe and Central Asia,55.378051,-3.435973,DM,Dominica,country,Latin America and the Caribbean,15.414999,-61.370976,6608.88335542643,2004,2778,371,11,1447,0,0,0,31,21,0,0,4,10,30,0,39,0,617,197,0,0,0,0,0
US,USA,country,North America,37.09024,-95.712891,DM,Dominica,country,Latin America and the Caribbean,15.414999,-61.370976,4154.60750234614,2004,11813,380,138,139,54,67,16,196,78,0,1,1072,63,471,5438,255,4,3139,306,0,0,0,0,0
VE,Venezuela,country,Latin America and the Caribbean,6.42375,-66.58973,DM,Dominica,country,Latin America and the Caribbean,15.414999,-61.370976,1151.71336485953,2004,50,1,0,0,0,0,0,0,0,0,0,0,0,30,0,19,0,0,0,0,0,0,0,0
AL,Albania,country,Europe and Central Asia,41.153332,20.168331,DM,Dominica,country,Latin America and the Caribbean,15.414999,-61.370976,8197.25025281891,2005,0,0,0,0,0,0,0,0,0,0,0,0,0,0,0,0,0,0,0,0,0,0,0,0
WS,Samoa,country,East Asia and Pacific,-13.759029,-172.104629,DM,Dominica,country,Latin America and the Caribbean,15.414999,-61.370976,12606.729984194,2005,1,0,0,0,0,0,0,1,0,0,0,0,0,0,0,0,0,0,0,0,0,0,0,0
AG,Antigua & Barbuda,country,Latin America and the Caribbean,17.060816,-61.796428,DM,Dominica,country,Latin America and the Caribbean,15.414999,-61.370976,188.769606224064,2005,2,0,0,0,0,0,0,0,0,0,0,0,0,0,0,2,0,0,0,0,0,0,0,0
AR,Argentina,country,Latin America and the Caribbean,-38.416097,-63.616672,DM,Dominica,country,Latin America and the Caribbean,15.414999,-61.370976,5997.03229493844,2005,144,8,0,0,0,0,0,0,0,0,0,0,0,5,0,5,0,0,126,0,0,0,0,0
AU,Australia,country,East Asia and Pacific,-25.274398,133.775136,DM,Dominica,country,Latin America and the Caribbean,15.414999,-61.370976,18115.7192805474,2005,59,0,0,0,0,0,0,0,0,0,0,0,0,1,0,7,0,51,0,0,0,0,0,0
AT,Austria,country,Europe and Central Asia,47.516231,14.550072,DM,Dominica,country,Latin America and the Caribbean,15.414999,-61.370976,7708.08005536544,2005,3,0,0,0,0,0,0,0,0,0,0,0,0,0,0,3,0,0,0,0,0,0,0,0
BD,Bangladesh,country,South Asia,23.684994,90.356331,DM,Dominica,country,Latin America and the Caribbean,15.414999,-61.370976,14707.8995729536,2005,0,0,0,0,0,0,0,0,0,0,0,0,0,0,0,0,1,0,0,0,0,0,0,0
BB,Barbados,country,Latin America and the Caribbean,13.193887,-59.543198,DM,Dominica,country,Latin America and the Caribbean,15.414999,-61.370976,316.227415959398,2005,2170,1399,0,5,0,1,0,0,9,0,0,57,0,0,530,39,67,57,73,0,0,0,0,0
BE,Belgium,country,Europe and Central Asia,50.503887,4.469936,DM,Dominica,country,Latin America and the Caribbean,15.414999,-61.370976,6998.31318629249,2005,1,0,0,0,1,0,0,0,0,0,0,0,0,0,0,0,0,0,0,0,0,0,0,0
BZ,Belize,country,Latin America and the Caribbean,17.189877,-88.49765,DM,Dominica,country,Latin America and the Caribbean,15.414999,-61.370976,2902.72256224363,2005,10,0,0,0,10,0,0,0,0,0,0,0,0,0,0,0,0,0,0,0,0,0,0,0
BR,Brazil,country,Latin America and the Caribbean,-14.235004,-51.92528,DM,Dominica,country,Latin America and the Caribbean,15.414999,-61.370976,3460.46625258294,2005,302,8,0,5,0,0,0,0,0,0,0,0,20,22,0,0,0,214,33,0,0,0,0,0
VG,British Virgin Islands,country,Latin America and the Caribbean,18.420695,-64.639968,DM,Dominica,country,Latin America and the Caribbean,15.414999,-61.370976,482.830213869563,2005,0,0,0,0,0,0,0,0,0,0,0,0,0,0,0,0,0,0,0,0,0,0,0,0
CM,Cameroon,country,Sub-Saharan Africa,7.369722,12.354722,DM,Dominica,country,Latin America and the Caribbean,15.414999,-61.370976,8061.87979437861,2005,0,0,0,0,0,0,0,0,0,0,0,0,0,0,0,0,0,0,0,0,0,0,0,0
CA,Canada,country,North America,56.130366,-106.346771,DM,Dominica,country,Latin America and the Caribbean,15.414999,-61.370976,5908.34603722269,2005,1046,42,40,1,253,2,1,77,5,0,0,12,2,35,2,27,0,209,338,0,0,0,0,0
CL,Chile,country,Latin America and the Caribbean,-35.675147,-71.542969,DM,Dominica,country,Latin America and the Caribbean,15.414999,-61.370976,5787.58971236115,2005,38,10,0,0,0,0,0,0,0,0,0,0,4,0,0,11,0,0,13,0,0,0,0,0
HK,Hong Kong,country,East Asia and Pacific,22.396428,114.109497,DM,Dominica,country,Latin America and the Caribbean,15.414999,-61.370976,15799.6091754972,2005,0,0,0,0,0,0,0,0,0,0,0,0,0,0,0,0,0,0,0,0,0,0,0,0
CN,China,country,East Asia and Pacific,35.86166,104.195397,DM,Dominica,country,Latin America and the Caribbean,15.414999,-61.370976,14130.2792097766,2005,74,3,0,1,0,0,0,68,0,0,0,0,0,1,0,1,0,0,0,0,0,0,0,0
TW,Taiwan,country,East Asia and Pacific,23.69781,120.960515,DM,Dominica,country,Latin America and the Caribbean,15.414999,-61.370976,15676.1075287334,2005,0,0,0,0,0,0,0,0,0,0,0,0,0,0,0,0,0,0,0,0,0,0,0,0
CO,Colombia,country,Latin America and the Caribbean,4.570868,-74.297333,DM,Dominica,country,Latin America and the Caribbean,15.414999,-61.370976,1859.74847505777,2005,72,22,0,4,0,0,0,0,0,0,0,0,5,1,0,37,0,0,3,0,0,0,0,0
CR,Costa Rica,country,Latin America and the Caribbean,9.748917,-83.753428,DM,Dominica,country,Latin America and the Caribbean,15.414999,-61.370976,2510.41002870025,2005,100,0,0,0,0,0,0,0,0,0,90,0,0,10,0,0,0,0,0,0,0,0,0,0
DK,Denmark,country,Europe and Central Asia,56.26392,9.501785,DM,Dominica,country,Latin America and the Caribbean,15.414999,-61.370976,7418.53972475287,2005,95,0,0,0,0,0,0,0,0,0,0,0,0,0,0,0,0,95,0,0,0,0,0,0
FR,France,country,Europe and Central Asia,46.227638,2.213749,DM,Dominica,country,Latin America and the Caribbean,15.414999,-61.370976,6762.60371327622,2005,331,1,73,1,0,0,0,50,28,0,0,0,0,1,0,137,0,2,38,0,0,0,0,0
DE,Germany,country,Europe and Central Asia,51.165691,10.451526,DM,Dominica,country,Latin America and the Caribbean,15.414999,-61.370976,7424.35692208181,2005,125,28,0,1,0,0,0,0,0,0,0,0,0,2,1,0,0,1,92,0,0,0,0,0
GR,Greece,country,Europe and Central Asia,39.074208,21.824312,DM,Dominica,country,Latin America and the Caribbean,15.414999,-61.370976,8366.11062195839,2005,24,24,0,0,0,0,0,0,0,0,0,0,0,0,0,0,0,0,0,0,0,0,0,0
GD,Grenada,country,Latin America and the Caribbean,12.262776,-61.604171,DM,Dominica,country,Latin America and the Caribbean,15.414999,-61.370976,351.807691411793,2005,2138,1675,0,0,0,0,0,0,0,0,1,462,0,0,0,0,0,0,0,0,0,0,0,0
GU,Guam,country,East Asia and Pacific,13.444304,144.793731,DM,Dominica,country,Latin America and the Caribbean,15.414999,-61.370976,15722.3146288726,2005,28,0,0,0,0,0,0,0,0,0,0,0,0,0,0,28,0,0,0,0,0,0,0,0
GT,Guatemala,country,Latin America and the Caribbean,15.783471,-90.230759,DM,Dominica,country,Latin America and the Caribbean,15.414999,-61.370976,3092.16552901011,2005,14,0,0,0,0,0,0,0,0,0,0,0,0,14,0,0,0,0,0,0,0,0,0,0
GY,Guyana,country,Latin America and the Caribbean,4.860416,-58.93018,DM,Dominica,country,Latin America and the Caribbean,15.414999,-61.370976,1204.89763773236,2005,2602,884,0,1409,0,0,0,0,38,0,1,0,1,3,200,66,0,0,0,0,0,0,0,0
HT,Haiti,country,Latin America and the Caribbean,18.971187,-72.285215,DM,Dominica,country,Latin America and the Caribbean,15.414999,-61.370976,1225.95627276387,2005,5,0,0,0,0,0,0,0,0,0,0,0,0,5,0,0,0,0,0,0,0,0,0,0
HN,Honduras,country,Latin America and the Caribbean,15.199999,-86.241905,DM,Dominica,country,Latin America and the Caribbean,15.414999,-61.370976,2669.01487470046,2005,0,0,0,0,0,0,0,0,0,0,0,0,0,0,0,0,0,0,0,0,0,0,0,0
IN,India,country,South Asia,20.593684,78.96288,DM,Dominica,country,Latin America and the Caribbean,15.414999,-61.370976,14132.4196754703,2005,0,0,0,0,0,0,0,0,0,0,0,0,0,0,0,0,0,0,0,0,0,0,0,0
IR,Iran,country,Middle East and North Africa,32.427908,53.688046,DM,Dominica,country,Latin America and the Caribbean,15.414999,-61.370976,11316.7700357323,2005,1,0,0,0,0,0,0,0,1,0,0,0,0,0,0,0,0,0,0,0,0,0,0,0
IE,Ireland,country,Europe and Central Asia,53.41291,-8.24389,DM,Dominica,country,Latin America and the Caribbean,15.414999,-61.370976,6241.39899154786,2005,64,0,0,0,0,0,0,0,0,0,0,0,0,0,0,0,0,0,64,0,0,0,0,0
IT,Italy,country,Europe and Central Asia,41.87194,12.56738,DM,Dominica,country,Latin America and the Caribbean,15.414999,-61.370976,7559.94828886558,2005,0,0,0,0,0,0,0,0,0,0,0,0,0,0,0,0,0,0,0,0,0,0,0,0
JM,Jamaica,country,Latin America and the Caribbean,18.109581,-77.297508,DM,Dominica,country,Latin America and the Caribbean,15.414999,-61.370976,1723.25060619713,2005,728,21,0,11,0,0,0,0,0,0,0,0,36,33,2,517,0,25,83,0,0,0,0,0
JP,Japan,country,East Asia and Pacific,36.204824,138.252924,DM,Dominica,country,Latin America and the Caribbean,15.414999,-61.370976,13931.4485094987,2005,5,1,0,0,0,0,0,0,0,0,0,0,1,2,0,0,0,0,1,0,0,0,0,0
MX,Mexico,country,Latin America and the Caribbean,23.634501,-102.552784,DM,Dominica,country,Latin America and the Caribbean,15.414999,-61.370976,4400.83591607222,2005,10,10,0,0,0,0,0,0,0,0,0,0,0,0,0,0,0,0,0,0,0,0,0,0
NL,Netherlands,country,Europe and Central Asia,52.132633,5.291266,DM,Dominica,country,Latin America and the Caribbean,15.414999,-61.370976,7082.57846164332,2005,1271,5,339,0,0,0,0,313,0,0,0,0,0,2,0,66,0,0,546,0,0,0,0,0
PA,Panama,country,Latin America and the Caribbean,8.537981,-80.782127,DM,Dominica,country,Latin America and the Caribbean,15.414999,-61.370976,2246.38904273489,2005,115,5,0,0,0,0,0,14,6,0,0,0,30,12,0,4,0,0,44,0,0,0,0,0
PE,Peru,country,Latin America and the Caribbean,-9.189967,-75.015152,DM,Dominica,country,Latin America and the Caribbean,15.414999,-61.370976,3125.13814561336,2005,59,0,0,0,0,0,0,0,0,0,0,0,0,0,0,0,0,0,59,0,0,0,0,0
KN,St. Kitts and Nevis,country,Latin America and the Caribbean,17.357822,-62.782998,DM,Dominica,country,Latin America and the Caribbean,15.414999,-61.370976,263.652286594621,2005,20,3,0,0,0,0,0,0,0,0,0,0,0,1,3,13,0,0,0,0,0,0,0,0
LC,St. Lucia,country,Latin America and the Caribbean,13.909444,-60.978893,DM,Dominica,country,Latin America and the Caribbean,15.414999,-61.370976,172.834597373838,2005,1391,88,0,1,0,0,0,0,0,0,0,0,0,2,17,1283,0,0,0,0,0,0,0,0
VC,St. Vincent & Grenadines,country,Latin America and the Caribbean,12.984305,-61.287228,DM,Dominica,country,Latin America and the Caribbean,15.414999,-61.370976,270.734490508517,2005,1811,1202,0,0,0,0,0,0,2,0,0,598,0,1,8,0,0,0,0,0,0,0,0,0
SN,Senegal,country,Sub-Saharan Africa,14.497401,-14.452362,DM,Dominica,country,Latin America and the Caribbean,15.414999,-61.370976,5036.97865041503,2005,0,0,0,0,0,0,0,0,0,0,0,0,0,0,0,0,0,0,0,0,0,0,0,0
ES,Spain,country,Europe and Central Asia,40.463667,-3.74922,DM,Dominica,country,Latin America and the Caribbean,15.414999,-61.370976,6187.04865099674,2005,24,0,0,0,0,0,0,0,0,0,0,0,0,0,0,19,0,0,5,0,0,0,0,0
LK,Sri Lanka,country,South Asia,7.873054,80.771797,DM,Dominica,country,Latin America and the Caribbean,15.414999,-61.370976,15123.0824816073,2005,8,5,0,0,0,0,0,0,0,0,0,0,1,2,0,0,0,0,0,0,0,0,0,0
SZ,Swaziland,country,Sub-Saharan Africa,-26.522503,31.465866,DM,Dominica,country,Latin America and the Caribbean,15.414999,-61.370976,11052.6237941607,2005,4,0,0,0,0,0,0,0,0,0,0,0,4,0,0,0,0,0,0,0,0,0,0,0
CH,Switzerland,country,Europe and Central Asia,46.818188,8.227512,DM,Dominica,country,Latin America and the Caribbean,15.414999,-61.370976,7227.50140894923,2005,12,0,0,0,0,0,0,5,0,0,0,0,6,1,0,0,0,0,0,0,0,0,0,0
TH,Thailand,country,East Asia and Pacific,15.870032,100.992541,DM,Dominica,country,Latin America and the Caribbean,15.414999,-61.370976,16051.6880422079,2005,0,0,0,0,0,0,0,0,0,0,0,0,0,0,0,0,0,0,0,0,0,0,0,0
TT,Trinidad and Tobago,country,Latin America and the Caribbean,10.691803,-61.222503,DM,Dominica,country,Latin America and the Caribbean,15.414999,-61.370976,526.03007868635,2005,4114,829,0,32,26,7,9,44,151,0,5,1287,9,258,378,995,0,52,32,0,0,0,0,0
TR,Turkey,country,Europe and Central Asia,38.963745,35.243322,DM,Dominica,country,Latin America and the Caribbean,15.414999,-61.370976,9502.78444171132,2005,7,7,0,0,0,0,0,0,0,0,0,0,0,0,0,0,0,0,0,0,0,0,0,0
GB,United Kingdom,country,Europe and Central Asia,55.378051,-3.435973,DM,Dominica,country,Latin America and the Caribbean,15.414999,-61.370976,6608.88335542643,2005,3251,373,26,1948,0,0,0,60,28,0,0,0,6,17,0,40,0,608,145,0,0,0,0,0
US,USA,country,North America,37.09024,-95.712891,DM,Dominica,country,Latin America and the Caribbean,15.414999,-61.370976,4154.60750234614,2005,7238,364,225,134,67,74,19,300,86,1,2,115,48,303,1436,356,10,3430,278,0,0,0,0,0
VE,Venezuela,country,Latin America and the Caribbean,6.42375,-66.58973,DM,Dominica,country,Latin America and the Caribbean,15.414999,-61.370976,1151.71336485953,2005,27,0,0,0,0,0,0,0,0,0,0,0,0,27,0,0,0,0,0,0,0,0,0,0
AL,Albania,country,Europe and Central Asia,41.153332,20.168331,DM,Dominica,country,Latin America and the Caribbean,15.414999,-61.370976,8197.25025281891,2006,0,0,0,0,0,0,0,0,0,0,0,0,0,0,0,0,0,0,0,0,0,0,0,0
AG,Antigua & Barbuda,country,Latin America and the Caribbean,17.060816,-61.796428,DM,Dominica,country,Latin America and the Caribbean,15.414999,-61.370976,188.769606224064,2006,0,0,0,0,0,0,0,0,0,0,0,0,0,0,0,0,2,0,0,0,0,0,0,0
AR,Argentina,country,Latin America and the Caribbean,-38.416097,-63.616672,DM,Dominica,country,Latin America and the Caribbean,15.414999,-61.370976,5997.03229493844,2006,97,5,0,2,0,0,0,0,0,0,0,0,1,0,6,8,0,0,75,0,0,0,0,0
AU,Australia,country,East Asia and Pacific,-25.274398,133.775136,DM,Dominica,country,Latin America and the Caribbean,15.414999,-61.370976,18115.7192805474,2006,37,0,0,0,0,0,0,0,0,0,0,0,0,2,0,0,0,35,0,0,0,0,0,0
AT,Austria,country,Europe and Central Asia,47.516231,14.550072,DM,Dominica,country,Latin America and the Caribbean,15.414999,-61.370976,7708.08005536544,2006,7,0,0,0,0,0,0,0,0,0,0,0,0,0,0,7,0,0,0,0,0,0,0,0
BB,Barbados,country,Latin America and the Caribbean,13.193887,-59.543198,DM,Dominica,country,Latin America and the Caribbean,15.414999,-61.370976,316.227415959398,2006,1569,778,0,3,0,1,0,1,13,0,0,7,1,2,664,31,85,44,24,0,0,0,0,0
BE,Belgium,country,Europe and Central Asia,50.503887,4.469936,DM,Dominica,country,Latin America and the Caribbean,15.414999,-61.370976,6998.31318629249,2006,2,0,0,0,2,0,0,0,0,0,0,0,0,0,0,0,0,0,0,0,0,0,0,0
BZ,Belize,country,Latin America and the Caribbean,17.189877,-88.49765,DM,Dominica,country,Latin America and the Caribbean,15.414999,-61.370976,2902.72256224363,2006,11,4,0,0,7,0,0,0,0,0,0,0,0,0,0,0,0,0,0,0,0,0,0,0
BR,Brazil,country,Latin America and the Caribbean,-14.235004,-51.92528,DM,Dominica,country,Latin America and the Caribbean,15.414999,-61.370976,3460.46625258294,2006,252,6,0,0,0,0,0,0,0,0,0,0,15,0,0,0,0,212,19,0,0,0,0,0
VG,British Virgin Islands,country,Latin America and the Caribbean,18.420695,-64.639968,DM,Dominica,country,Latin America and the Caribbean,15.414999,-61.370976,482.830213869563,2006,3,0,0,0,0,0,0,0,0,0,0,0,0,0,0,3,0,0,0,0,0,0,0,0
CA,Canada,country,North America,56.130366,-106.346771,DM,Dominica,country,Latin America and the Caribbean,15.414999,-61.370976,5908.34603722269,2006,1081,45,139,0,203,0,0,29,2,0,1,2,0,23,0,51,0,167,419,0,0,0,0,0
CL,Chile,country,Latin America and the Caribbean,-35.675147,-71.542969,DM,Dominica,country,Latin America and the Caribbean,15.414999,-61.370976,5787.58971236115,2006,19,8,0,0,0,0,0,0,0,0,0,0,3,0,0,8,0,0,0,0,0,0,0,0
CN,China,country,East Asia and Pacific,35.86166,104.195397,DM,Dominica,country,Latin America and the Caribbean,15.414999,-61.370976,14130.2792097766,2006,86,2,11,1,1,7,0,62,0,0,0,0,0,2,0,0,0,0,0,0,0,0,0,0
CO,Colombia,country,Latin America and the Caribbean,4.570868,-74.297333,DM,Dominica,country,Latin America and the Caribbean,15.414999,-61.370976,1859.74847505777,2006,92,38,0,9,0,0,0,0,0,0,0,0,4,1,0,34,0,0,6,0,0,0,0,0
CR,Costa Rica,country,Latin America and the Caribbean,9.748917,-83.753428,DM,Dominica,country,Latin America and the Caribbean,15.414999,-61.370976,2510.41002870025,2006,86,0,0,0,0,0,0,0,0,0,82,0,0,4,0,0,0,0,0,0,0,0,0,0
