sourceCode,sourceName,sourceGrouping,sourceRegion,sourceLat,sourceLong,destCode,destName,destGrouping,destRegion,destLat,destLong,distance,year,totalTons,cereals,roots,sugarCrops,pulses,nuts,oilCrops,vegetables,fruits,fibers,spices,fodderCrops,coffeeTea,tobaccoRubber,oilsFats,beverages,livestock,animalMeats,animalProducts,animalHides,nimalOther,pesticides,fertilizers,machinery
AR,Argentina,country,Latin America and the Caribbean,-38.416097,-63.616672,KG,Kyrgyz Rep.,country,Europe and Central Asia,41.20438,74.766098,16499.1795479395,1998,86,0,0,0,0,0,0,0,14,0,0,0,0,0,72,0,0,0,0,0,0,0,0,0
AM,Armenia,country,Europe and Central Asia,40.069099,45.038189,KG,Kyrgyz Rep.,country,Europe and Central Asia,41.20438,74.766098,2502.21567122156,1998,93,0,0,0,0,0,0,0,0,93,0,0,0,0,0,0,0,0,0,0,0,0,0,0
AU,Australia,country,East Asia and Pacific,-25.274398,133.775136,KG,Kyrgyz Rep.,country,Europe and Central Asia,41.20438,74.766098,9577.95383436393,1998,126,0,0,0,0,0,0,0,0,0,0,0,0,0,0,89,0,37,0,0,0,0,0,0
AT,Austria,country,Europe and Central Asia,47.516231,14.550072,KG,Kyrgyz Rep.,country,Europe and Central Asia,41.20438,74.766098,4722.25921652766,1998,362,0,0,129,0,0,0,14,0,0,0,0,0,61,0,115,0,0,43,0,0,0,0,0
AZ,Azerbaijan,country,Europe and Central Asia,40.143105,47.576927,KG,Kyrgyz Rep.,country,Europe and Central Asia,41.20438,74.766098,2289.22478548816,1998,1716,0,0,0,0,0,0,0,0,218,0,0,239,0,961,298,0,0,0,0,0,0,0,0
BD,Bangladesh,country,South Asia,23.684994,90.356331,KG,Kyrgyz Rep.,country,Europe and Central Asia,41.20438,74.766098,2430.53657887284,1998,134,0,0,0,0,0,0,0,0,0,0,0,134,0,0,0,0,0,0,0,0,0,0,0
BY,Belarus,country,Europe and Central Asia,53.709807,27.953389,KG,Kyrgyz Rep.,country,Europe and Central Asia,41.20438,74.766098,3707.83252318164,1998,574,0,0,574,0,0,0,0,0,0,0,0,0,0,0,0,0,0,0,0,0,0,0,0
BE,Belgium,country,Europe and Central Asia,50.503887,4.469936,KG,Kyrgyz Rep.,country,Europe and Central Asia,41.20438,74.766098,5338.68825203297,1998,323,1,0,8,0,0,0,12,0,0,0,0,6,3,19,262,0,2,10,0,0,0,0,0
BJ,Benin,country,Sub-Saharan Africa,9.30769,2.315834,KG,Kyrgyz Rep.,country,Europe and Central Asia,41.20438,74.766098,7870.92878961315,1998,57,0,0,0,0,0,0,0,0,0,0,0,0,0,0,57,0,0,0,0,0,0,0,0
BW,Botswana,country,Sub-Saharan Africa,-22.328474,24.684866,KG,Kyrgyz Rep.,country,Europe and Central Asia,41.20438,74.766098,8758.37820569918,1998,27,0,0,0,0,0,0,0,0,0,0,0,27,0,0,0,0,0,0,0,0,0,0,0
BR,Brazil,country,Latin America and the Caribbean,-14.235004,-51.92528,KG,Kyrgyz Rep.,country,Europe and Central Asia,41.20438,74.766098,14104.9642520286,1998,37967,0,0,37784,0,0,0,0,0,0,0,0,44,44,95,0,0,0,0,0,0,0,0,0
BG,Bulgaria,country,Europe and Central Asia,42.733883,25.48583,KG,Kyrgyz Rep.,country,Europe and Central Asia,41.20438,74.766098,4023.60981814916,1998,400,9,0,132,0,0,0,13,0,0,0,0,0,38,0,208,0,0,0,0,0,0,0,0
CA,Canada,country,North America,56.130366,-106.346771,KG,Kyrgyz Rep.,country,Europe and Central Asia,41.20438,74.766098,9201.74537147451,1998,296,13,0,0,0,0,0,2,2,0,0,0,1,217,0,1,0,59,1,0,0,0,0,0
CN,China,country,East Asia and Pacific,35.86166,104.195397,KG,Kyrgyz Rep.,country,Europe and Central Asia,41.20438,74.766098,2617.35078545563,1998,10033,2594,0,390,0,0,6,188,212,395,1,27,102,3212,1062,945,0,28,871,0,0,0,0,0
CO,Colombia,country,Latin America and the Caribbean,4.570868,-74.297333,KG,Kyrgyz Rep.,country,Europe and Central Asia,41.20438,74.766098,14049.9095943979,1998,15,0,0,0,0,0,0,0,15,0,0,0,0,0,0,0,0,0,0,0,0,0,0,0
CR,Costa Rica,country,Latin America and the Caribbean,9.748917,-83.753428,KG,Kyrgyz Rep.,country,Europe and Central Asia,41.20438,74.766098,13952.969550441,1998,330,0,0,0,0,0,0,0,330,0,0,0,0,0,0,0,0,0,0,0,0,0,0,0
CU,Cuba,country,Latin America and the Caribbean,21.521757,-77.781167,KG,Kyrgyz Rep.,country,Europe and Central Asia,41.20438,74.766098,12500.9878639621,1998,33687,0,0,33687,0,0,0,0,0,0,0,0,0,0,0,0,0,0,0,0,0,0,0,0
CY,Cyprus,country,Europe and Central Asia,35.126413,33.429859,KG,Kyrgyz Rep.,country,Europe and Central Asia,41.20438,74.766098,3645.43271454431,1998,16,0,0,0,0,0,0,0,0,0,0,0,15,1,0,0,0,0,0,0,0,0,0,0
CZ,Czech Republic,country,Europe and Central Asia,49.817492,15.472962,KG,Kyrgyz Rep.,country,Europe and Central Asia,41.20438,74.766098,4598.42272759781,1998,515,45,0,0,0,0,1,0,0,0,0,0,37,3,0,429,0,0,0,0,0,0,0,0
DK,Denmark,country,Europe and Central Asia,56.26392,9.501785,KG,Kyrgyz Rep.,country,Europe and Central Asia,41.20438,74.766098,4867.54543575004,1998,4975,17,0,465,0,0,0,0,0,0,0,0,7,3001,0,1484,0,1,0,0,0,0,0,0
EC,Ecuador,country,Latin America and the Caribbean,-1.831239,-78.183406,KG,Kyrgyz Rep.,country,Europe and Central Asia,41.20438,74.766098,14882.4150424879,1998,184,0,0,0,0,0,0,0,183,0,0,0,0,1,0,0,0,0,0,0,0,0,0,0
EG,Egypt,country,Middle East and North Africa,26.820553,30.802498,KG,Kyrgyz Rep.,country,Europe and Central Asia,41.20438,74.766098,4307.28941215807,1998,23,0,0,0,0,0,0,0,0,0,0,0,0,23,0,0,0,0,0,0,0,0,0,0
EE,Estonia,country,Europe and Central Asia,58.595272,25.013607,KG,Kyrgyz Rep.,country,Europe and Central Asia,41.20438,74.766098,3936.16340474864,1998,402,0,0,196,0,0,0,0,0,0,0,0,1,0,0,0,0,160,45,0,0,0,0,0
FI,Finland,country,Europe and Central Asia,61.92411,25.748151,KG,Kyrgyz Rep.,country,Europe and Central Asia,41.20438,74.766098,3959.13118265701,1998,255,1,0,10,0,0,0,0,0,0,0,0,98,0,94,0,0,0,52,0,0,0,0,0
FR,France,country,Europe and Central Asia,46.227638,2.213749,KG,Kyrgyz Rep.,country,Europe and Central Asia,41.20438,74.766098,5657.44704841201,1998,502,22,0,15,0,0,1,5,2,0,5,0,79,187,32,49,0,93,12,0,0,0,0,0
GE,Georgia,country,Europe and Central Asia,42.315407,43.356892,KG,Kyrgyz Rep.,country,Europe and Central Asia,41.20438,74.766098,2596.25735281228,1998,540,0,0,0,0,0,0,0,0,0,22,0,0,0,0,518,0,0,0,0,0,0,0,0
DE,Germany,country,Europe and Central Asia,51.165691,10.451526,KG,Kyrgyz Rep.,country,Europe and Central Asia,41.20438,74.766098,4913.78032354948,1998,8726,465,77,143,0,0,3,36,237,0,7,2,87,1673,1445,4056,0,266,229,0,0,0,0,0
GR,Greece,country,Europe and Central Asia,39.074208,21.824312,KG,Kyrgyz Rep.,country,Europe and Central Asia,41.20438,74.766098,4441.20661165864,1998,168,10,0,2,0,0,0,0,0,0,0,0,23,70,45,18,0,0,0,0,0,0,0,0
HU,Hungary,country,Europe and Central Asia,47.162494,19.503304,KG,Kyrgyz Rep.,country,Europe and Central Asia,41.20438,74.766098,4367.8392295881,1998,2294,115,0,18,0,0,8,183,54,0,0,0,1,21,1631,261,0,2,0,0,0,0,0,0
IN,India,country,South Asia,20.593684,78.96288,KG,Kyrgyz Rep.,country,Europe and Central Asia,41.20438,74.766098,2328.34888884646,1998,1285,34,0,0,0,0,0,0,0,212,1,0,1033,5,0,0,0,0,0,0,0,0,0,0
ID,Indonesia,country,East Asia and Pacific,-0.789275,113.921327,KG,Kyrgyz Rep.,country,Europe and Central Asia,41.20438,74.766098,6117.07231616174,1998,4,0,0,0,0,0,0,0,0,0,0,0,0,0,4,0,0,0,0,0,0,0,0,0
IR,Iran,country,Middle East and North Africa,32.427908,53.688046,KG,Kyrgyz Rep.,country,Europe and Central Asia,41.20438,74.766098,2109.5291635246,1998,4884,2037,0,214,0,0,0,446,1035,6,1,0,278,294,551,0,0,22,0,0,0,0,0,0
IL,Israel,country,Middle East and North Africa,31.046051,34.851612,KG,Kyrgyz Rep.,country,Europe and Central Asia,41.20438,74.766098,3726.3060121638,1998,47578,0,0,0,0,0,0,0,71,0,0,0,0,47507,0,0,0,0,0,0,0,0,0,0
IT,Italy,country,Europe and Central Asia,41.87194,12.56738,KG,Kyrgyz Rep.,country,Europe and Central Asia,41.20438,74.766098,5064.29814458202,1998,245,71,0,0,0,0,0,8,15,0,0,0,0,1,0,22,0,111,17,0,0,0,0,0
JP,Japan,country,East Asia and Pacific,36.204824,138.252924,KG,Kyrgyz Rep.,country,Europe and Central Asia,41.20438,74.766098,5420.32235754361,1998,0,0,0,0,0,0,0,0,0,0,0,0,0,0,0,0,0,0,0,0,0,0,0,0
KZ,Kazakhstan,country,Europe and Central Asia,48.019573,66.923684,KG,Kyrgyz Rep.,country,Europe and Central Asia,41.20438,74.766098,979.6552303062,1998,125482,116910,8,5832,0,0,35,194,4,36,1,939,29,148,134,303,0,177,732,0,0,0,0,0
KE,Kenya,country,Sub-Saharan Africa,-0.023559,37.906193,KG,Kyrgyz Rep.,country,Europe and Central Asia,41.20438,74.766098,5900.85598829556,1998,20,0,0,0,0,0,0,0,0,0,0,0,20,0,0,0,0,0,0,0,0,0,0,0
LV,Latvia,country,Europe and Central Asia,56.879635,24.603189,KG,Kyrgyz Rep.,country,Europe and Central Asia,41.20438,74.766098,3941.40140129312,1998,988,61,0,48,0,0,0,35,719,0,0,0,0,0,0,119,0,0,6,0,0,0,0,0
LT,Lithuania,country,Europe and Central Asia,55.169438,23.881275,KG,Kyrgyz Rep.,country,Europe and Central Asia,41.20438,74.766098,3976.90247549544,1998,248,0,0,0,0,0,0,5,170,0,0,0,14,53,0,0,0,0,6,0,0,0,0,0
MW,Malawi,country,Sub-Saharan Africa,-13.254308,34.301525,KG,Kyrgyz Rep.,country,Europe and Central Asia,41.20438,74.766098,7351.36632206561,1998,19,0,0,0,0,0,0,0,0,0,0,0,19,0,0,0,0,0,0,0,0,0,0,0
MY,Malaysia,country,East Asia and Pacific,4.210484,101.975766,KG,Kyrgyz Rep.,country,Europe and Central Asia,41.20438,74.766098,4931.68766111627,1998,36,0,0,0,0,0,0,0,0,0,0,0,0,0,36,0,0,0,0,0,0,0,0,0
MX,Mexico,country,Latin America and the Caribbean,23.634501,-102.552784,KG,Kyrgyz Rep.,country,Europe and Central Asia,41.20438,74.766098,12814.3613891096,1998,29,0,0,0,0,0,0,0,0,0,0,0,0,0,0,29,0,0,0,0,0,0,0,0
MA,Morocco,country,Middle East and North Africa,31.791702,-7.09262,KG,Kyrgyz Rep.,country,Europe and Central Asia,41.20438,74.766098,7129.84745427709,1998,10,0,0,0,0,0,0,0,10,0,0,0,0,0,0,0,0,0,0,0,0,0,0,0
NL,Netherlands,country,Europe and Central Asia,52.132633,5.291266,KG,Kyrgyz Rep.,country,Europe and Central Asia,41.20438,74.766098,5232.32623700706,1998,258034,50,0,16,0,2,0,24,77,0,0,0,300,254949,705,1719,0,185,7,0,0,0,0,0
NZ,New Zealand,country,East Asia and Pacific,-40.900557,174.885971,KG,Kyrgyz Rep.,country,Europe and Central Asia,41.20438,74.766098,13590.8692440269,1998,0,0,0,0,0,0,0,0,0,0,0,0,0,0,0,0,0,0,0,0,0,0,0,0
PK,Pakistan,country,South Asia,30.375321,69.345116,KG,Kyrgyz Rep.,country,Europe and Central Asia,41.20438,74.766098,1300.3546489322,1998,34,19,0,0,0,0,0,0,0,0,0,0,0,15,0,0,0,0,0,0,0,0,0,0
PE,Peru,country,Latin America and the Caribbean,-9.189967,-75.015152,KG,Kyrgyz Rep.,country,Europe and Central Asia,41.20438,74.766098,15398.8440737154,1998,23,3,0,0,0,0,0,0,0,0,0,0,2,0,18,0,0,0,0,0,0,0,0,0
PL,Poland,country,Europe and Central Asia,51.919438,19.145136,KG,Kyrgyz Rep.,country,Europe and Central Asia,41.20438,74.766098,4306.81030487699,1998,563,67,0,220,0,0,0,4,4,0,0,0,24,3,46,192,0,0,3,0,0,0,0,0
KR,"Korea, Rep.",country,East Asia and Pacific,35.907757,127.766922,KG,Kyrgyz Rep.,country,Europe and Central Asia,41.20438,74.766098,4579.97308282654,1998,413,223,0,13,0,0,53,3,0,0,0,0,39,51,10,21,0,0,0,0,0,0,0,0
MD,Moldova,country,Europe and Central Asia,47.411631,28.369885,KG,Kyrgyz Rep.,country,Europe and Central Asia,41.20438,74.766098,3703.15449395914,1998,23,0,0,0,0,0,0,0,0,0,0,0,0,0,0,23,0,0,0,0,0,0,0,0
RO,Romania,country,Europe and Central Asia,45.943161,24.96676,KG,Kyrgyz Rep.,country,Europe and Central Asia,41.20438,74.766098,3984.85021814101,1998,19,11,0,0,0,0,0,0,0,0,0,0,8,0,0,0,0,0,0,0,0,0,0,0
RU,Russian Federation,country,Europe and Central Asia,61.52401,105.318756,KG,Kyrgyz Rep.,country,Europe and Central Asia,41.20438,74.766098,3048.06401012004,1998,27865,5076,270,8512,107,10,5,71,53,59,1,57,250,10610,800,281,0,124,1491,79,9,0,0,0
SG,Singapore,country,East Asia and Pacific,1.352083,103.819836,KG,Kyrgyz Rep.,country,Europe and Central Asia,41.20438,74.766098,5309.6059327693,1998,118,0,0,0,0,0,0,0,0,0,0,0,39,79,0,0,0,0,0,0,0,0,0,0
SI,Slovenia,country,Europe and Central Asia,46.151241,14.995463,KG,Kyrgyz Rep.,country,Europe and Central Asia,41.20438,74.766098,4729.19313597041,1998,171,0,0,164,0,0,0,0,0,0,0,0,7,0,0,0,0,0,0,0,0,0,0,0
ZA,S. Africa,country,Sub-Saharan Africa,-30.559482,22.937506,KG,Kyrgyz Rep.,country,Europe and Central Asia,41.20438,74.766098,9600.93595584375,1998,11136,0,0,11109,0,0,0,0,20,0,0,0,0,7,0,0,0,0,0,0,0,0,0,0
ES,Spain,country,Europe and Central Asia,40.463667,-3.74922,KG,Kyrgyz Rep.,country,Europe and Central Asia,41.20438,74.766098,6369.24516689102,1998,388,0,0,38,0,0,1,0,48,0,0,0,0,260,22,0,0,19,0,0,0,0,0,0
LK,Sri Lanka,country,South Asia,7.873054,80.771797,KG,Kyrgyz Rep.,country,Europe and Central Asia,41.20438,74.766098,3757.64104604215,1998,3128,0,0,0,0,0,0,0,0,0,0,0,3128,0,0,0,0,0,0,0,0,0,0,0
SE,Sweden,country,Europe and Central Asia,60.128161,18.643501,KG,Kyrgyz Rep.,country,Europe and Central Asia,41.20438,74.766098,4311.38600596317,1998,34,0,0,0,0,0,0,0,0,0,0,0,0,0,0,34,0,0,0,0,0,0,0,0
CH,Switzerland,country,Europe and Central Asia,46.818188,8.227512,KG,Kyrgyz Rep.,country,Europe and Central Asia,41.20438,74.766098,5202.90859175089,1998,114,0,0,42,0,0,0,0,0,0,0,0,16,0,0,37,0,10,9,0,0,0,0,0
TJ,Tajikistan,country,Europe and Central Asia,38.861034,71.276093,KG,Kyrgyz Rep.,country,Europe and Central Asia,41.20438,74.766098,395.583835374318,1998,707,6,0,2,0,0,0,21,297,284,0,0,0,0,10,0,0,6,0,44,37,0,0,0
TH,Thailand,country,East Asia and Pacific,15.870032,100.992541,KG,Kyrgyz Rep.,country,Europe and Central Asia,41.20438,74.766098,3781.57391236422,1998,0,0,0,0,0,0,0,0,0,0,0,0,0,0,0,0,0,0,0,0,0,0,0,0
TR,Turkey,country,Europe and Central Asia,38.963745,35.243322,KG,Kyrgyz Rep.,country,Europe and Central Asia,41.20438,74.766098,3346.42529719866,1998,10883,3949,1,2527,0,8,2,1,37,0,0,0,2486,510,1128,168,0,4,62,0,0,0,0,0
TM,Turkmenistan,country,Europe and Central Asia,38.969719,59.556278,KG,Kyrgyz Rep.,country,Europe and Central Asia,41.20438,74.766098,1317.23522384383,1998,67,0,0,0,0,0,0,0,0,67,0,0,0,0,0,0,0,0,0,0,0,0,0,0
UA,Ukraine,country,Europe and Central Asia,48.379433,31.16558,KG,Kyrgyz Rep.,country,Europe and Central Asia,41.20438,74.766098,3485.87895909157,1998,3308,136,0,3004,0,0,0,0,0,39,0,0,102,0,27,0,0,0,0,0,0,0,0,0
AE,United Arab Emirates,country,Middle East and North Africa,23.424076,53.847818,KG,Kyrgyz Rep.,country,Europe and Central Asia,41.20438,74.766098,2776.56018974439,1998,591,21,0,0,0,0,0,3,0,0,0,0,518,48,0,1,0,0,0,0,0,0,0,0
GB,United Kingdom,country,Europe and Central Asia,55.378051,-3.435973,KG,Kyrgyz Rep.,country,Europe and Central Asia,41.20438,74.766098,5675.86439147661,1998,78,0,0,18,0,0,0,0,1,0,0,0,0,9,0,50,0,0,0,0,0,0,0,0
US,USA,country,North America,37.09024,-95.712891,KG,Kyrgyz Rep.,country,Europe and Central Asia,41.20438,74.766098,11267.9891011573,1998,22566,8665,0,0,0,0,0,6,31,0,0,0,298,78,6958,79,0,6419,32,0,0,0,0,0
UZ,Uzbekistan,country,Europe and Central Asia,41.377491,64.585262,KG,Kyrgyz Rep.,country,Europe and Central Asia,41.20438,74.766098,851.27358566864,1998,31383,433,9,105,0,0,4,426,112,297,0,44,39,27156,2432,297,0,1,28,0,0,0,0,0
VN,Vietnam,country,East Asia and Pacific,14.058324,108.277199,KG,Kyrgyz Rep.,country,Europe and Central Asia,41.20438,74.766098,4428.02840079114,1998,3,0,0,0,0,0,0,0,0,0,0,0,0,0,0,3,0,0,0,0,0,0,0,0
AF,Afghanistan,country,South Asia,33.93911,67.709953,KG,Kyrgyz Rep.,country,Europe and Central Asia,41.20438,74.766098,1019.83807119267,1999,379,0,0,0,0,0,0,0,156,0,0,0,0,0,0,0,0,0,0,223,0,0,0,0
AR,Argentina,country,Latin America and the Caribbean,-38.416097,-63.616672,KG,Kyrgyz Rep.,country,Europe and Central Asia,41.20438,74.766098,16499.1795479395,1999,27,0,0,0,0,0,0,0,7,0,0,0,0,20,0,0,0,0,0,0,0,0,0,0
AT,Austria,country,Europe and Central Asia,47.516231,14.550072,KG,Kyrgyz Rep.,country,Europe and Central Asia,41.20438,74.766098,4722.25921652766,1999,4,0,0,0,0,0,0,0,0,0,0,0,0,4,0,0,0,0,0,0,0,0,0,0
AZ,Azerbaijan,country,Europe and Central Asia,40.143105,47.576927,KG,Kyrgyz Rep.,country,Europe and Central Asia,41.20438,74.766098,2289.22478548816,1999,1600,12,0,0,0,0,0,0,0,15,0,0,611,0,962,0,0,0,0,0,0,0,0,0
BD,Bangladesh,country,South Asia,23.684994,90.356331,KG,Kyrgyz Rep.,country,Europe and Central Asia,41.20438,74.766098,2430.53657887284,1999,227,0,0,0,0,0,0,0,0,0,0,0,227,0,0,0,0,0,0,0,0,0,0,0
BY,Belarus,country,Europe and Central Asia,53.709807,27.953389,KG,Kyrgyz Rep.,country,Europe and Central Asia,41.20438,74.766098,3707.83252318164,1999,4490,0,0,4484,0,0,0,0,0,0,0,0,0,4,0,0,0,0,2,0,0,0,0,0
BE,Belgium,country,Europe and Central Asia,50.503887,4.469936,KG,Kyrgyz Rep.,country,Europe and Central Asia,41.20438,74.766098,5338.68825203297,1999,42,5,0,0,0,0,0,0,0,0,0,0,12,1,0,4,0,20,0,0,0,0,0,0
BR,Brazil,country,Latin America and the Caribbean,-14.235004,-51.92528,KG,Kyrgyz Rep.,country,Europe and Central Asia,41.20438,74.766098,14104.9642520286,1999,4943,0,0,4924,0,0,0,0,0,0,0,0,19,0,0,0,0,0,0,0,0,0,0,0
BG,Bulgaria,country,Europe and Central Asia,42.733883,25.48583,KG,Kyrgyz Rep.,country,Europe and Central Asia,41.20438,74.766098,4023.60981814916,1999,207,0,0,0,0,0,0,0,0,0,0,0,0,18,0,189,0,0,0,0,0,0,0,0
CA,Canada,country,North America,56.130366,-106.346771,KG,Kyrgyz Rep.,country,Europe and Central Asia,41.20438,74.766098,9201.74537147451,1999,450,30,0,4,0,1,2,14,20,0,1,0,9,236,37,0,0,90,6,0,0,0,0,0
CN,China,country,East Asia and Pacific,35.86166,104.195397,KG,Kyrgyz Rep.,country,Europe and Central Asia,41.20438,74.766098,2617.35078545563,1999,5163,2474,0,619,0,0,0,50,438,212,0,1,108,954,27,157,12,12,111,0,0,0,0,0
TW,Taiwan,country,East Asia and Pacific,23.69781,120.960515,KG,Kyrgyz Rep.,country,Europe and Central Asia,41.20438,74.766098,4689.73455777345,1999,30,30,0,0,0,0,0,0,0,0,0,0,0,0,0,0,0,0,0,0,0,0,0,0
CO,Colombia,country,Latin America and the Caribbean,4.570868,-74.297333,KG,Kyrgyz Rep.,country,Europe and Central Asia,41.20438,74.766098,14049.9095943979,1999,9,0,0,0,0,0,0,0,9,0,0,0,0,0,0,0,0,0,0,0,0,0,0,0
CU,Cuba,country,Latin America and the Caribbean,21.521757,-77.781167,KG,Kyrgyz Rep.,country,Europe and Central Asia,41.20438,74.766098,12500.9878639621,1999,24121,0,0,24071,0,0,0,0,0,0,0,0,0,50,0,0,0,0,0,0,0,0,0,0
CY,Cyprus,country,Europe and Central Asia,35.126413,33.429859,KG,Kyrgyz Rep.,country,Europe and Central Asia,41.20438,74.766098,3645.43271454431,1999,7,0,0,0,0,0,0,0,4,0,0,0,0,0,0,3,0,0,0,0,0,0,0,0
CZ,Czech Republic,country,Europe and Central Asia,49.817492,15.472962,KG,Kyrgyz Rep.,country,Europe and Central Asia,41.20438,74.766098,4598.42272759781,1999,69,40,0,0,0,0,1,0,0,0,0,0,17,0,0,11,0,0,0,0,0,0,0,0
DK,Denmark,country,Europe and Central Asia,56.26392,9.501785,KG,Kyrgyz Rep.,country,Europe and Central Asia,41.20438,74.766098,4867.54543575004,1999,104,16,0,70,0,0,0,0,0,0,0,0,0,2,0,16,0,0,0,0,0,0,0,0
EC,Ecuador,country,Latin America and the Caribbean,-1.831239,-78.183406,KG,Kyrgyz Rep.,country,Europe and Central Asia,41.20438,74.766098,14882.4150424879,1999,514,0,0,0,0,0,0,0,514,0,0,0,0,0,0,0,0,0,0,0,0,0,0,0
FI,Finland,country,Europe and Central Asia,61.92411,25.748151,KG,Kyrgyz Rep.,country,Europe and Central Asia,41.20438,74.766098,3959.13118265701,1999,279,7,0,0,0,0,0,0,0,0,0,0,0,0,272,0,0,0,0,0,0,0,0,0
FR,France,country,Europe and Central Asia,46.227638,2.213749,KG,Kyrgyz Rep.,country,Europe and Central Asia,41.20438,74.766098,5657.44704841201,1999,210,51,0,73,0,0,0,0,1,0,0,0,0,63,0,5,0,17,0,0,0,0,0,0
GE,Georgia,country,Europe and Central Asia,42.315407,43.356892,KG,Kyrgyz Rep.,country,Europe and Central Asia,41.20438,74.766098,2596.25735281228,1999,122,2,0,0,0,0,0,0,0,0,0,0,120,0,0,0,0,0,0,0,0,0,0,0
DE,Germany,country,Europe and Central Asia,51.165691,10.451526,KG,Kyrgyz Rep.,country,Europe and Central Asia,41.20438,74.766098,4913.78032354948,1999,2062,152,17,449,0,1,1,4,6,1,0,14,15,699,246,421,0,11,25,0,0,0,0,0
GR,Greece,country,Europe and Central Asia,39.074208,21.824312,KG,Kyrgyz Rep.,country,Europe and Central Asia,41.20438,74.766098,4441.20661165864,1999,30,0,0,0,0,0,0,0,0,0,0,0,0,11,0,19,0,0,0,0,0,0,0,0
HU,Hungary,country,Europe and Central Asia,47.162494,19.503304,KG,Kyrgyz Rep.,country,Europe and Central Asia,41.20438,74.766098,4367.8392295881,1999,370,0,0,5,0,0,0,77,67,0,0,0,0,2,104,113,0,2,0,0,0,0,0,0
IN,India,country,South Asia,20.593684,78.96288,KG,Kyrgyz Rep.,country,Europe and Central Asia,41.20438,74.766098,2328.34888884646,1999,770,0,0,0,0,0,0,0,0,0,0,0,770,0,0,0,0,0,0,0,0,0,0,0
IR,Iran,country,Middle East and North Africa,32.427908,53.688046,KG,Kyrgyz Rep.,country,Europe and Central Asia,41.20438,74.766098,2109.5291635246,1999,2695,1103,0,173,0,0,0,234,677,0,0,0,333,27,78,1,0,40,29,0,0,0,0,0
IL,Israel,country,Middle East and North Africa,31.046051,34.851612,KG,Kyrgyz Rep.,country,Europe and Central Asia,41.20438,74.766098,3726.3060121638,1999,64,1,0,0,0,0,0,0,26,0,0,0,0,37,0,0,0,0,0,0,0,0,0,0
IT,Italy,country,Europe and Central Asia,41.87194,12.56738,KG,Kyrgyz Rep.,country,Europe and Central Asia,41.20438,74.766098,5064.29814458202,1999,354,4,0,300,0,0,0,5,2,0,0,0,0,0,0,1,0,42,0,0,0,0,0,0
JO,Jordan,country,Middle East and North Africa,30.585164,36.238414,KG,Kyrgyz Rep.,country,Europe and Central Asia,41.20438,74.766098,3635.83329002736,1999,1,0,0,0,0,0,0,0,0,0,0,0,0,1,0,0,0,0,0,0,0,0,0,0
KZ,Kazakhstan,country,Europe and Central Asia,48.019573,66.923684,KG,Kyrgyz Rep.,country,Europe and Central Asia,41.20438,74.766098,979.6552303062,1999,147335,115330,0,25965,30,0,8,1,115,19,0,5352,18,179,59,146,0,0,113,0,0,0,0,0
LV,Latvia,country,Europe and Central Asia,56.879635,24.603189,KG,Kyrgyz Rep.,country,Europe and Central Asia,41.20438,74.766098,3941.40140129312,1999,231,0,0,12,0,0,0,11,124,0,0,0,0,0,0,53,0,31,0,0,0,0,0,0
LT,Lithuania,country,Europe and Central Asia,55.169438,23.881275,KG,Kyrgyz Rep.,country,Europe and Central Asia,41.20438,74.766098,3976.90247549544,1999,45,0,0,0,0,0,0,1,12,0,0,0,0,0,0,0,0,0,32,0,0,0,0,0
MW,Malawi,country,Sub-Saharan Africa,-13.254308,34.301525,KG,Kyrgyz Rep.,country,Europe and Central Asia,41.20438,74.766098,7351.36632206561,1999,89,0,0,0,0,0,0,0,0,0,0,0,89,0,0,0,0,0,0,0,0,0,0,0
MY,Malaysia,country,East Asia and Pacific,4.210484,101.975766,KG,Kyrgyz Rep.,country,Europe and Central Asia,41.20438,74.766098,4931.68766111627,1999,18,0,0,0,0,0,0,0,0,0,0,0,0,0,18,0,0,0,0,0,0,0,0,0
MA,Morocco,country,Middle East and North Africa,31.791702,-7.09262,KG,Kyrgyz Rep.,country,Europe and Central Asia,41.20438,74.766098,7129.84745427709,1999,4,0,0,0,0,0,0,0,4,0,0,0,0,0,0,0,0,0,0,0,0,0,0,0
NL,Netherlands,country,Europe and Central Asia,52.132633,5.291266,KG,Kyrgyz Rep.,country,Europe and Central Asia,41.20438,74.766098,5232.32623700706,1999,369,30,0,16,0,0,0,0,2,0,0,0,63,25,165,68,0,0,0,0,0,0,0,0
NZ,New Zealand,country,East Asia and Pacific,-40.900557,174.885971,KG,Kyrgyz Rep.,country,Europe and Central Asia,41.20438,74.766098,13590.8692440269,1999,3,0,0,0,0,0,0,0,3,0,0,0,0,0,0,0,0,0,0,0,0,0,0,0
NO,Norway,country,Europe and Central Asia,60.472024,8.468946,KG,Kyrgyz Rep.,country,Europe and Central Asia,41.20438,74.766098,4871.31995912393,1999,0,0,0,0,0,0,0,0,0,0,0,0,0,0,0,0,0,0,0,0,0,0,0,0
PK,Pakistan,country,South Asia,30.375321,69.345116,KG,Kyrgyz Rep.,country,Europe and Central Asia,41.20438,74.766098,1300.3546489322,1999,14,13,0,0,0,0,0,0,0,0,0,0,0,1,0,0,0,0,0,0,0,0,0,0
PL,Poland,country,Europe and Central Asia,51.919438,19.145136,KG,Kyrgyz Rep.,country,Europe and Central Asia,41.20438,74.766098,4306.81030487699,1999,1133,33,0,915,0,0,0,0,0,0,0,0,41,13,111,0,0,20,0,0,0,0,0,0
KR,"Korea, Rep.",country,East Asia and Pacific,35.907757,127.766922,KG,Kyrgyz Rep.,country,Europe and Central Asia,41.20438,74.766098,4579.97308282654,1999,107,2,0,8,0,0,13,0,0,0,0,0,0,74,9,0,0,0,1,0,0,0,0,0
MD,Moldova,country,Europe and Central Asia,47.411631,28.369885,KG,Kyrgyz Rep.,country,Europe and Central Asia,41.20438,74.766098,3703.15449395914,1999,63,0,0,0,0,0,0,0,0,0,0,0,0,0,0,63,0,0,0,0,0,0,0,0
RU,Russian Federation,country,Europe and Central Asia,61.52401,105.318756,KG,Kyrgyz Rep.,country,Europe and Central Asia,41.20438,74.766098,3048.06401012004,1999,35371,2930,12,7238,46,16,7,41,230,0,26,45,621,20133,310,1820,0,242,1582,72,0,0,0,0
SA,Saudi Arabia,country,Middle East and North Africa,23.885942,45.079162,KG,Kyrgyz Rep.,country,Europe and Central Asia,41.20438,74.766098,3360.63094360438,1999,1,0,0,0,0,0,0,0,1,0,0,0,0,0,0,0,0,0,0,0,0,0,0,0
RS,Serbia,country,Europe and Central Asia,44.016521,21.005859,KG,Kyrgyz Rep.,country,Europe and Central Asia,41.20438,74.766098,4336.91923931682,1999,1,0,0,0,0,0,0,0,1,0,0,0,0,0,0,0,0,0,0,0,0,0,0,0
SG,Singapore,country,East Asia and Pacific,1.352083,103.819836,KG,Kyrgyz Rep.,country,Europe and Central Asia,41.20438,74.766098,5309.6059327693,1999,41,0,0,0,0,0,0,0,0,0,0,0,41,0,0,0,0,0,0,0,0,0,0,0
SK,Slovak Rep.,country,Europe and Central Asia,48.669026,19.699024,KG,Kyrgyz Rep.,country,Europe and Central Asia,41.20438,74.766098,4320.87917811966,1999,8,0,0,0,0,0,0,0,0,0,0,0,8,0,0,0,0,0,0,0,0,0,0,0
SI,Slovenia,country,Europe and Central Asia,46.151241,14.995463,KG,Kyrgyz Rep.,country,Europe and Central Asia,41.20438,74.766098,4729.19313597041,1999,1,0,0,0,0,0,0,0,0,0,0,0,0,1,0,0,0,0,0,0,0,0,0,0
ZA,S. Africa,country,Sub-Saharan Africa,-30.559482,22.937506,KG,Kyrgyz Rep.,country,Europe and Central Asia,41.20438,74.766098,9600.93595584375,1999,3894,0,0,3875,0,0,0,0,11,0,0,0,0,8,0,0,0,0,0,0,0,0,0,0
ES,Spain,country,Europe and Central Asia,40.463667,-3.74922,KG,Kyrgyz Rep.,country,Europe and Central Asia,41.20438,74.766098,6369.24516689102,1999,122,0,0,0,0,0,0,0,25,0,0,0,0,65,0,32,0,0,0,0,0,0,0,0
LK,Sri Lanka,country,South Asia,7.873054,80.771797,KG,Kyrgyz Rep.,country,Europe and Central Asia,41.20438,74.766098,3757.64104604215,1999,1421,0,0,0,0,0,0,0,0,0,0,0,1421,0,0,0,0,0,0,0,0,0,0,0
SE,Sweden,country,Europe and Central Asia,60.128161,18.643501,KG,Kyrgyz Rep.,country,Europe and Central Asia,41.20438,74.766098,4311.38600596317,1999,34,0,0,0,0,0,0,0,0,0,0,0,0,0,0,0,0,0,34,0,0,0,0,0
CH,Switzerland,country,Europe and Central Asia,46.818188,8.227512,KG,Kyrgyz Rep.,country,Europe and Central Asia,41.20438,74.766098,5202.90859175089,1999,0,0,0,0,0,0,0,0,0,0,0,0,0,0,0,0,0,0,0,0,0,0,0,0
SY,Syrian Arab Rep.,country,Middle East and North Africa,34.802075,38.996815,KG,Kyrgyz Rep.,country,Europe and Central Asia,41.20438,74.766098,3193.69467049432,1999,0,0,0,0,0,0,0,0,0,0,0,0,0,0,0,0,0,0,0,0,0,0,0,0
TJ,Tajikistan,country,Europe and Central Asia,38.861034,71.276093,KG,Kyrgyz Rep.,country,Europe and Central Asia,41.20438,74.766098,395.583835374318,1999,343,0,0,3,1,20,0,40,173,6,0,0,0,59,9,0,0,0,0,2,30,0,0,0
TH,Thailand,country,East Asia and Pacific,15.870032,100.992541,KG,Kyrgyz Rep.,country,Europe and Central Asia,41.20438,74.766098,3781.57391236422,1999,0,0,0,0,0,0,0,0,0,0,0,0,0,0,0,0,0,0,0,0,0,0,0,0
TR,Turkey,country,Europe and Central Asia,38.963745,35.243322,KG,Kyrgyz Rep.,country,Europe and Central Asia,41.20438,74.766098,3346.42529719866,1999,2233,360,0,355,1,2,0,47,4,0,0,0,921,285,183,58,0,0,17,0,0,0,0,0
TM,Turkmenistan,country,Europe and Central Asia,38.969719,59.556278,KG,Kyrgyz Rep.,country,Europe and Central Asia,41.20438,74.766098,1317.23522384383,1999,47,0,0,0,0,0,0,0,0,0,0,0,0,0,0,0,0,0,0,47,0,0,0,0
UA,Ukraine,country,Europe and Central Asia,48.379433,31.16558,KG,Kyrgyz Rep.,country,Europe and Central Asia,41.20438,74.766098,3485.87895909157,1999,1173,108,0,683,0,0,0,0,0,0,0,0,209,45,100,28,0,0,0,0,0,0,0,0
AE,United Arab Emirates,country,Middle East and North Africa,23.424076,53.847818,KG,Kyrgyz Rep.,country,Europe and Central Asia,41.20438,74.766098,2776.56018974439,1999,3,0,0,0,0,0,0,0,0,0,0,0,0,3,0,0,0,0,0,0,0,0,0,0
GB,United Kingdom,country,Europe and Central Asia,55.378051,-3.435973,KG,Kyrgyz Rep.,country,Europe and Central Asia,41.20438,74.766098,5675.86439147661,1999,97,0,0,0,0,0,0,0,0,0,0,0,0,3,0,94,0,0,0,0,0,0,0,0
US,USA,country,North America,37.09024,-95.712891,KG,Kyrgyz Rep.,country,Europe and Central Asia,41.20438,74.766098,11267.9891011573,1999,69584,32772,0,375,0,0,29940,0,0,0,0,542,0,22,5089,0,0,843,1,0,0,0,0,0
UZ,Uzbekistan,country,Europe and Central Asia,41.377491,64.585262,KG,Kyrgyz Rep.,country,Europe and Central Asia,41.20438,74.766098,851.27358566864,1999,833,434,2,42,0,0,0,106,61,27,0,0,47,51,12,36,0,12,0,3,0,0,0,0
ZW,Zimbabwe,country,Sub-Saharan Africa,-19.015438,29.154857,KG,Kyrgyz Rep.,country,Europe and Central Asia,41.20438,74.766098,8189.12132737849,1999,40,0,0,0,0,0,0,0,0,0,0,0,0,40,0,0,0,0,0,0,0,0,0,0
AF,Afghanistan,country,South Asia,33.93911,67.709953,KG,Kyrgyz Rep.,country,Europe and Central Asia,41.20438,74.766098,1019.83807119267,2000,91,0,0,0,0,0,0,0,0,32,0,0,0,0,0,0,0,0,0,59,0,0,0,0
AR,Argentina,country,Latin America and the Caribbean,-38.416097,-63.616672,KG,Kyrgyz Rep.,country,Europe and Central Asia,41.20438,74.766098,16499.1795479395,2000,54,0,0,0,0,0,0,0,2,0,0,0,0,0,52,0,0,0,0,0,0,0,0,0
AM,Armenia,country,Europe and Central Asia,40.069099,45.038189,KG,Kyrgyz Rep.,country,Europe and Central Asia,41.20438,74.766098,2502.21567122156,2000,1,0,0,0,0,0,0,0,0,0,0,0,0,0,0,1,0,0,0,0,0,0,0,0
AU,Australia,country,East Asia and Pacific,-25.274398,133.775136,KG,Kyrgyz Rep.,country,Europe and Central Asia,41.20438,74.766098,9577.95383436393,2000,222,185,0,0,0,0,0,0,18,19,0,0,0,0,0,0,0,0,0,0,0,0,0,0
AT,Austria,country,Europe and Central Asia,47.516231,14.550072,KG,Kyrgyz Rep.,country,Europe and Central Asia,41.20438,74.766098,4722.25921652766,2000,22,0,0,19,0,0,0,0,0,0,0,0,0,3,0,0,0,0,0,0,0,0,0,0
AZ,Azerbaijan,country,Europe and Central Asia,40.143105,47.576927,KG,Kyrgyz Rep.,country,Europe and Central Asia,41.20438,74.766098,2289.22478548816,2000,1211,0,0,0,0,0,0,0,0,0,0,0,437,0,587,148,0,0,0,39,0,0,0,0
BD,Bangladesh,country,South Asia,23.684994,90.356331,KG,Kyrgyz Rep.,country,Europe and Central Asia,41.20438,74.766098,2430.53657887284,2000,62,0,0,0,0,0,0,0,0,0,0,0,62,0,0,0,0,0,0,0,0,0,0,0
BY,Belarus,country,Europe and Central Asia,53.709807,27.953389,KG,Kyrgyz Rep.,country,Europe and Central Asia,41.20438,74.766098,3707.83252318164,2000,517,0,0,507,0,0,0,0,0,0,0,0,10,0,0,0,0,0,0,0,0,0,0,0
BR,Brazil,country,Latin America and the Caribbean,-14.235004,-51.92528,KG,Kyrgyz Rep.,country,Europe and Central Asia,41.20438,74.766098,14104.9642520286,2000,174,0,0,0,0,0,0,0,0,0,0,0,16,59,0,0,0,99,0,0,0,0,0,0
BG,Bulgaria,country,Europe and Central Asia,42.733883,25.48583,KG,Kyrgyz Rep.,country,Europe and Central Asia,41.20438,74.766098,4023.60981814916,2000,32,0,0,0,0,0,0,0,0,0,0,0,0,0,0,32,0,0,0,0,0,0,0,0
BF,Burkina Faso,country,Sub-Saharan Africa,12.238333,-1.561593,KG,Kyrgyz Rep.,country,Europe and Central Asia,41.20438,74.766098,7985.35735061468,2000,4,0,0,0,0,0,0,0,4,0,0,0,0,0,0,0,0,0,0,0,0,0,0,0
CA,Canada,country,North America,56.130366,-106.346771,KG,Kyrgyz Rep.,country,Europe and Central Asia,41.20438,74.766098,9201.74537147451,2000,68,2,1,1,0,0,0,2,0,0,0,0,0,0,0,0,0,62,0,0,0,0,0,0
CN,China,country,East Asia and Pacific,35.86166,104.195397,KG,Kyrgyz Rep.,country,Europe and Central Asia,41.20438,74.766098,2617.35078545563,2000,6612,2405,0,123,0,0,2,80,1469,707,62,0,497,1113,29,89,0,20,15,1,0,0,0,0
CY,Cyprus,country,Europe and Central Asia,35.126413,33.429859,KG,Kyrgyz Rep.,country,Europe and Central Asia,41.20438,74.766098,3645.43271454431,2000,11,0,0,0,0,0,0,0,6,0,0,0,0,0,0,5,0,0,0,0,0,0,0,0
CZ,Czech Republic,country,Europe and Central Asia,49.817492,15.472962,KG,Kyrgyz Rep.,country,Europe and Central Asia,41.20438,74.766098,4598.42272759781,2000,17,15,0,0,0,0,0,0,1,0,0,0,0,1,0,0,0,0,0,0,0,0,0,0
DK,Denmark,country,Europe and Central Asia,56.26392,9.501785,KG,Kyrgyz Rep.,country,Europe and Central Asia,41.20438,74.766098,4867.54543575004,2000,104,4,0,59,0,0,9,0,0,0,0,0,10,2,0,20,0,0,0,0,0,0,0,0
EC,Ecuador,country,Latin America and the Caribbean,-1.831239,-78.183406,KG,Kyrgyz Rep.,country,Europe and Central Asia,41.20438,74.766098,14882.4150424879,2000,448,0,0,0,0,0,0,0,448,0,0,0,0,0,0,0,0,0,0,0,0,0,0,0
EG,Egypt,country,Middle East and North Africa,26.820553,30.802498,KG,Kyrgyz Rep.,country,Europe and Central Asia,41.20438,74.766098,4307.28941215807,2000,0,0,0,0,0,0,0,0,0,0,0,0,0,0,0,0,0,0,0,0,0,0,0,0
FI,Finland,country,Europe and Central Asia,61.92411,25.748151,KG,Kyrgyz Rep.,country,Europe and Central Asia,41.20438,74.766098,3959.13118265701,2000,2,0,0,0,0,0,0,0,0,0,0,0,0,0,0,2,0,0,0,0,0,0,0,0
FR,France,country,Europe and Central Asia,46.227638,2.213749,KG,Kyrgyz Rep.,country,Europe and Central Asia,41.20438,74.766098,5657.44704841201,2000,111,51,0,33,0,0,0,0,0,0,0,0,7,2,0,16,0,0,2,0,0,0,0,0
GE,Georgia,country,Europe and Central Asia,42.315407,43.356892,KG,Kyrgyz Rep.,country,Europe and Central Asia,41.20438,74.766098,2596.25735281228,2000,89,0,0,0,0,0,0,0,0,0,20,0,69,0,0,0,0,0,0,0,0,0,0,0
DE,Germany,country,Europe and Central Asia,51.165691,10.451526,KG,Kyrgyz Rep.,country,Europe and Central Asia,41.20438,74.766098,4913.78032354948,2000,622,104,64,14,0,0,0,9,25,0,1,1,16,93,51,211,0,1,32,0,0,0,0,0
GR,Greece,country,Europe and Central Asia,39.074208,21.824312,KG,Kyrgyz Rep.,country,Europe and Central Asia,41.20438,74.766098,4441.20661165864,2000,80,0,0,0,0,0,0,0,1,0,0,0,0,78,0,1,0,0,0,0,0,0,0,0
HU,Hungary,country,Europe and Central Asia,47.162494,19.503304,KG,Kyrgyz Rep.,country,Europe and Central Asia,41.20438,74.766098,4367.8392295881,2000,1007,4,0,0,0,0,0,269,348,0,0,0,0,0,386,0,0,0,0,0,0,0,0,0
IN,India,country,South Asia,20.593684,78.96288,KG,Kyrgyz Rep.,country,Europe and Central Asia,41.20438,74.766098,2328.34888884646,2000,811,0,0,0,0,0,0,0,0,0,0,0,791,1,0,0,0,19,0,0,0,0,0,0
IR,Iran,country,Middle East and North Africa,32.427908,53.688046,KG,Kyrgyz Rep.,country,Europe and Central Asia,41.20438,74.766098,2109.5291635246,2000,2459,962,0,185,1,0,0,242,530,0,3,0,260,1,269,0,0,0,6,0,0,0,0,0
IE,Ireland,country,Europe and Central Asia,53.41291,-8.24389,KG,Kyrgyz Rep.,country,Europe and Central Asia,41.20438,74.766098,6044.84752079556,2000,2,0,0,0,0,0,0,0,0,0,0,0,0,2,0,0,0,0,0,0,0,0,0,0
IL,Israel,country,Middle East and North Africa,31.046051,34.851612,KG,Kyrgyz Rep.,country,Europe and Central Asia,41.20438,74.766098,3726.3060121638,2000,5,1,0,0,0,0,0,0,0,0,0,0,0,4,0,0,0,0,0,0,0,0,0,0
IT,Italy,country,Europe and Central Asia,41.87194,12.56738,KG,Kyrgyz Rep.,country,Europe and Central Asia,41.20438,74.766098,5064.29814458202,2000,30,6,0,0,0,0,0,0,2,0,0,0,0,0,0,1,0,21,0,0,0,0,0,0
KZ,Kazakhstan,country,Europe and Central Asia,48.019573,66.923684,KG,Kyrgyz Rep.,country,Europe and Central Asia,41.20438,74.766098,979.6552303062,2000,152674,132853,0,12105,0,3,1,25,624,36,0,1070,81,121,733,940,0,0,102,3972,8,0,0,0
LV,Latvia,country,Europe and Central Asia,56.879635,24.603189,KG,Kyrgyz Rep.,country,Europe and Central Asia,41.20438,74.766098,3941.40140129312,2000,2174,2000,0,0,0,0,0,6,80,0,0,0,0,0,61,23,0,4,0,0,0,0,0,0
LT,Lithuania,country,Europe and Central Asia,55.169438,23.881275,KG,Kyrgyz Rep.,country,Europe and Central Asia,41.20438,74.766098,3976.90247549544,2000,1460,0,0,1460,0,0,0,0,0,0,0,0,0,0,0,0,0,0,0,0,0,0,0,0
MY,Malaysia,country,East Asia and Pacific,4.210484,101.975766,KG,Kyrgyz Rep.,country,Europe and Central Asia,41.20438,74.766098,4931.68766111627,2000,182,1,0,0,0,0,0,0,0,0,0,0,0,156,25,0,0,0,0,0,0,0,0,0
MX,Mexico,country,Latin America and the Caribbean,23.634501,-102.552784,KG,Kyrgyz Rep.,country,Europe and Central Asia,41.20438,74.766098,12814.3613891096,2000,0,0,0,0,0,0,0,0,0,0,0,0,0,0,0,0,0,0,0,0,0,0,0,0
MA,Morocco,country,Middle East and North Africa,31.791702,-7.09262,KG,Kyrgyz Rep.,country,Europe and Central Asia,41.20438,74.766098,7129.84745427709,2000,5,0,0,0,0,0,0,0,5,0,0,0,0,0,0,0,0,0,0,0,0,0,0,0
NL,Netherlands,country,Europe and Central Asia,52.132633,5.291266,KG,Kyrgyz Rep.,country,Europe and Central Asia,41.20438,74.766098,5232.32623700706,2000,215,5,54,12,0,0,0,0,0,0,0,0,7,0,52,85,0,0,0,0,0,0,0,0
NO,Norway,country,Europe and Central Asia,60.472024,8.468946,KG,Kyrgyz Rep.,country,Europe and Central Asia,41.20438,74.766098,4871.31995912393,2000,14,0,0,0,0,0,0,0,0,0,0,0,0,0,0,14,0,0,0,0,0,0,0,0
PK,Pakistan,country,South Asia,30.375321,69.345116,KG,Kyrgyz Rep.,country,Europe and Central Asia,41.20438,74.766098,1300.3546489322,2000,57,57,0,0,0,0,0,0,0,0,0,0,0,0,0,0,0,0,0,0,0,0,0,0
PA,Panama,country,Latin America and the Caribbean,8.537981,-80.782127,KG,Kyrgyz Rep.,country,Europe and Central Asia,41.20438,74.766098,13961.1294519326,2000,36,0,0,0,0,0,0,0,36,0,0,0,0,0,0,0,0,0,0,0,0,0,0,0
PL,Poland,country,Europe and Central Asia,51.919438,19.145136,KG,Kyrgyz Rep.,country,Europe and Central Asia,41.20438,74.766098,4306.81030487699,2000,559,9,0,0,0,0,0,0,0,0,0,0,19,2,529,0,0,0,0,0,0,0,0,0
KR,"Korea, Rep.",country,East Asia and Pacific,35.907757,127.766922,KG,Kyrgyz Rep.,country,Europe and Central Asia,41.20438,74.766098,4579.97308282654,2000,126,6,0,0,0,0,44,0,0,0,0,0,0,55,20,1,0,0,0,0,0,0,0,0
MD,Moldova,country,Europe and Central Asia,47.411631,28.369885,KG,Kyrgyz Rep.,country,Europe and Central Asia,41.20438,74.766098,3703.15449395914,2000,11,0,0,0,0,0,0,0,0,0,0,0,0,0,0,11,0,0,0,0,0,0,0,0
RU,Russian Federation,country,Europe and Central Asia,61.52401,105.318756,KG,Kyrgyz Rep.,country,Europe and Central Asia,41.20438,74.766098,3048.06401012004,2000,22325,1856,26,5929,121,43,85,124,204,22,0,46,998,4543,2121,3562,0,380,2263,2,0,0,0,0
SG,Singapore,country,East Asia and Pacific,1.352083,103.819836,KG,Kyrgyz Rep.,country,Europe and Central Asia,41.20438,74.766098,5309.6059327693,2000,92,0,0,0,0,0,0,0,0,0,0,0,91,1,0,0,0,0,0,0,0,0,0,0
SK,Slovak Rep.,country,Europe and Central Asia,48.669026,19.699024,KG,Kyrgyz Rep.,country,Europe and Central Asia,41.20438,74.766098,4320.87917811966,2000,2,0,0,0,0,0,0,0,0,0,0,0,0,2,0,0,0,0,0,0,0,0,0,0
SI,Slovenia,country,Europe and Central Asia,46.151241,14.995463,KG,Kyrgyz Rep.,country,Europe and Central Asia,41.20438,74.766098,4729.19313597041,2000,2,1,0,0,0,0,0,0,1,0,0,0,0,0,0,0,0,0,0,0,0,0,0,0
ZA,S. Africa,country,Sub-Saharan Africa,-30.559482,22.937506,KG,Kyrgyz Rep.,country,Europe and Central Asia,41.20438,74.766098,9600.93595584375,2000,2,0,0,0,0,0,0,0,2,0,0,0,0,0,0,0,0,0,0,0,0,0,0,0
ES,Spain,country,Europe and Central Asia,40.463667,-3.74922,KG,Kyrgyz Rep.,country,Europe and Central Asia,41.20438,74.766098,6369.24516689102,2000,11,0,0,0,0,0,0,0,2,0,0,0,0,9,0,0,0,0,0,0,0,0,0,0
LK,Sri Lanka,country,South Asia,7.873054,80.771797,KG,Kyrgyz Rep.,country,Europe and Central Asia,41.20438,74.766098,3757.64104604215,2000,1596,0,0,0,0,0,0,0,0,0,0,0,1596,0,0,0,0,0,0,0,0,0,0,0
SD,Sudan,country,Sub-Saharan Africa,12.862807,30.217636,KG,Kyrgyz Rep.,country,Europe and Central Asia,41.20438,74.766098,5341.26597444923,2000,37,0,0,0,0,0,0,0,37,0,0,0,0,0,0,0,0,0,0,0,0,0,0,0
SE,Sweden,country,Europe and Central Asia,60.128161,18.643501,KG,Kyrgyz Rep.,country,Europe and Central Asia,41.20438,74.766098,4311.38600596317,2000,1,0,0,0,0,0,0,0,0,0,0,0,0,0,0,1,0,0,0,0,0,0,0,0
CH,Switzerland,country,Europe and Central Asia,46.818188,8.227512,KG,Kyrgyz Rep.,country,Europe and Central Asia,41.20438,74.766098,5202.90859175089,2000,1,0,0,0,0,0,0,0,0,0,0,0,1,0,0,0,0,0,0,0,0,0,0,0
TJ,Tajikistan,country,Europe and Central Asia,38.861034,71.276093,KG,Kyrgyz Rep.,country,Europe and Central Asia,41.20438,74.766098,395.583835374318,2000,316,0,0,0,0,0,0,46,210,20,0,0,0,9,0,0,0,0,0,0,31,0,0,0
TH,Thailand,country,East Asia and Pacific,15.870032,100.992541,KG,Kyrgyz Rep.,country,Europe and Central Asia,41.20438,74.766098,3781.57391236422,2000,178,0,0,0,0,0,0,0,0,0,0,0,0,178,0,0,0,0,0,0,0,0,0,0
TR,Turkey,country,Europe and Central Asia,38.963745,35.243322,KG,Kyrgyz Rep.,country,Europe and Central Asia,41.20438,74.766098,3346.42529719866,2000,1752,250,0,468,46,2,6,24,19,1,0,0,616,20,296,1,0,0,3,0,0,0,0,0
TM,Turkmenistan,country,Europe and Central Asia,38.969719,59.556278,KG,Kyrgyz Rep.,country,Europe and Central Asia,41.20438,74.766098,1317.23522384383,2000,14,0,0,0,0,0,0,0,0,14,0,0,0,0,0,0,0,0,0,0,0,0,0,0
UA,Ukraine,country,Europe and Central Asia,48.379433,31.16558,KG,Kyrgyz Rep.,country,Europe and Central Asia,41.20438,74.766098,3485.87895909157,2000,1051,122,0,510,0,0,3,0,0,0,0,0,188,46,182,0,0,0,0,0,0,0,0,0
AE,United Arab Emirates,country,Middle East and North Africa,23.424076,53.847818,KG,Kyrgyz Rep.,country,Europe and Central Asia,41.20438,74.766098,2776.56018974439,2000,22,2,0,0,0,1,0,0,0,0,0,0,14,3,0,0,0,0,0,2,0,0,0,0
GB,United Kingdom,country,Europe and Central Asia,55.378051,-3.435973,KG,Kyrgyz Rep.,country,Europe and Central Asia,41.20438,74.766098,5675.86439147661,2000,59,0,0,0,0,0,0,0,0,0,0,0,0,0,0,59,0,0,0,0,0,0,0,0
US,USA,country,North America,37.09024,-95.712891,KG,Kyrgyz Rep.,country,Europe and Central Asia,41.20438,74.766098,11267.9891011573,2000,97741,95394,0,17,0,0,0,0,0,0,0,0,0,4,500,0,0,1826,0,0,0,0,0,0
UZ,Uzbekistan,country,Europe and Central Asia,41.377491,64.585262,KG,Kyrgyz Rep.,country,Europe and Central Asia,41.20438,74.766098,851.27358566864,2000,7227,6857,0,12,0,0,0,50,38,42,0,0,23,133,0,72,0,0,0,0,0,0,0,0
AR,Argentina,country,Latin America and the Caribbean,-38.416097,-63.616672,KG,Kyrgyz Rep.,country,Europe and Central Asia,41.20438,74.766098,16499.1795479395,2001,27,0,0,0,0,0,0,0,13,0,0,0,0,14,0,0,0,0,0,0,0,0,0,0
AM,Armenia,country,Europe and Central Asia,40.069099,45.038189,KG,Kyrgyz Rep.,country,Europe and Central Asia,41.20438,74.766098,2502.21567122156,2001,2,0,0,0,0,0,0,0,0,0,0,0,0,0,0,2,0,0,0,0,0,0,0,0
AT,Austria,country,Europe and Central Asia,47.516231,14.550072,KG,Kyrgyz Rep.,country,Europe and Central Asia,41.20438,74.766098,4722.25921652766,2001,13,0,0,10,0,0,0,0,0,0,0,0,0,3,0,0,0,0,0,0,0,0,0,0
AZ,Azerbaijan,country,Europe and Central Asia,40.143105,47.576927,KG,Kyrgyz Rep.,country,Europe and Central Asia,41.20438,74.766098,2289.22478548816,2001,14,0,0,0,0,0,0,0,0,0,0,0,0,0,0,14,0,0,0,0,0,0,0,0
BY,Belarus,country,Europe and Central Asia,53.709807,27.953389,KG,Kyrgyz Rep.,country,Europe and Central Asia,41.20438,74.766098,3707.83252318164,2001,407,0,0,407,0,0,0,0,0,0,0,0,0,0,0,0,0,0,0,0,0,0,0,0
BE,Belgium,country,Europe and Central Asia,50.503887,4.469936,KG,Kyrgyz Rep.,country,Europe and Central Asia,41.20438,74.766098,5338.68825203297,2001,1012,0,0,1011,0,0,0,0,0,0,0,0,0,1,0,0,0,0,0,0,0,0,0,0
BR,Brazil,country,Latin America and the Caribbean,-14.235004,-51.92528,KG,Kyrgyz Rep.,country,Europe and Central Asia,41.20438,74.766098,14104.9642520286,2001,4370,0,0,3957,0,0,0,0,16,0,0,0,63,121,0,0,0,213,0,0,0,0,0,0
BG,Bulgaria,country,Europe and Central Asia,42.733883,25.48583,KG,Kyrgyz Rep.,country,Europe and Central Asia,41.20438,74.766098,4023.60981814916,2001,55,0,0,0,0,0,0,0,0,0,0,0,0,0,0,55,0,0,0,0,0,0,0,0
CA,Canada,country,North America,56.130366,-106.346771,KG,Kyrgyz Rep.,country,Europe and Central Asia,41.20438,74.766098,9201.74537147451,2001,79,4,2,1,0,0,0,10,0,0,0,0,1,5,0,0,0,56,0,0,0,0,0,0
CL,Chile,country,Latin America and the Caribbean,-35.675147,-71.542969,KG,Kyrgyz Rep.,country,Europe and Central Asia,41.20438,74.766098,17055.7004734971,2001,0,0,0,0,0,0,0,0,0,0,0,0,0,0,0,0,0,0,0,0,0,0,0,0
CN,China,country,East Asia and Pacific,35.86166,104.195397,KG,Kyrgyz Rep.,country,Europe and Central Asia,41.20438,74.766098,2617.35078545563,2001,5079,882,2,184,0,0,0,51,1117,981,96,0,449,1100,124,36,0,50,7,0,0,0,0,0
CR,Costa Rica,country,Latin America and the Caribbean,9.748917,-83.753428,KG,Kyrgyz Rep.,country,Europe and Central Asia,41.20438,74.766098,13952.969550441,2001,24,0,0,0,0,0,0,0,24,0,0,0,0,0,0,0,0,0,0,0,0,0,0,0
CU,Cuba,country,Latin America and the Caribbean,21.521757,-77.781167,KG,Kyrgyz Rep.,country,Europe and Central Asia,41.20438,74.766098,12500.9878639621,2001,45,0,0,40,0,0,0,0,0,0,0,0,0,5,0,0,0,0,0,0,0,0,0,0
CZ,Czech Republic,country,Europe and Central Asia,49.817492,15.472962,KG,Kyrgyz Rep.,country,Europe and Central Asia,41.20438,74.766098,4598.42272759781,2001,16,16,0,0,0,0,0,0,0,0,0,0,0,0,0,0,0,0,0,0,0,0,0,0
DK,Denmark,country,Europe and Central Asia,56.26392,9.501785,KG,Kyrgyz Rep.,country,Europe and Central Asia,41.20438,74.766098,4867.54543575004,2001,75,18,0,0,0,0,0,0,0,0,0,0,0,51,0,6,0,0,0,0,0,0,0,0
EC,Ecuador,country,Latin America and the Caribbean,-1.831239,-78.183406,KG,Kyrgyz Rep.,country,Europe and Central Asia,41.20438,74.766098,14882.4150424879,2001,524,0,0,0,0,0,0,0,524,0,0,0,0,0,0,0,0,0,0,0,0,0,0,0
FI,Finland,country,Europe and Central Asia,61.92411,25.748151,KG,Kyrgyz Rep.,country,Europe and Central Asia,41.20438,74.766098,3959.13118265701,2001,1060,4,0,1056,0,0,0,0,0,0,0,0,0,0,0,0,0,0,0,0,0,0,0,0
FR,France,country,Europe and Central Asia,46.227638,2.213749,KG,Kyrgyz Rep.,country,Europe and Central Asia,41.20438,74.766098,5657.44704841201,2001,4039,1,0,4009,0,0,0,0,0,0,0,0,0,19,0,10,0,0,0,0,0,0,0,0
GE,Georgia,country,Europe and Central Asia,42.315407,43.356892,KG,Kyrgyz Rep.,country,Europe and Central Asia,41.20438,74.766098,2596.25735281228,2001,28,0,0,0,0,0,0,0,0,0,0,0,28,0,0,0,0,0,0,0,0,0,0,0
DE,Germany,country,Europe and Central Asia,51.165691,10.451526,KG,Kyrgyz Rep.,country,Europe and Central Asia,41.20438,74.766098,4913.78032354948,2001,4083,20,44,3595,0,0,0,2,10,0,0,0,15,213,0,147,0,0,37,0,0,0,0,0
GR,Greece,country,Europe and Central Asia,39.074208,21.824312,KG,Kyrgyz Rep.,country,Europe and Central Asia,41.20438,74.766098,4441.20661165864,2001,2,0,0,0,0,0,0,0,1,0,0,0,0,1,0,0,0,0,0,0,0,0,0,0
GT,Guatemala,country,Latin America and the Caribbean,15.783471,-90.230759,KG,Kyrgyz Rep.,country,Europe and Central Asia,41.20438,74.766098,13507.6671089538,2001,4,0,0,0,0,0,0,0,0,0,0,0,0,4,0,0,0,0,0,0,0,0,0,0
HU,Hungary,country,Europe and Central Asia,47.162494,19.503304,KG,Kyrgyz Rep.,country,Europe and Central Asia,41.20438,74.766098,4367.8392295881,2001,1984,11,0,0,0,0,0,160,219,0,0,0,0,0,1526,68,0,0,0,0,0,0,0,0
IN,India,country,South Asia,20.593684,78.96288,KG,Kyrgyz Rep.,country,Europe and Central Asia,41.20438,74.766098,2328.34888884646,2001,827,0,0,0,0,0,0,0,0,0,0,0,786,1,0,0,0,40,0,0,0,0,0,0
ID,Indonesia,country,East Asia and Pacific,-0.789275,113.921327,KG,Kyrgyz Rep.,country,Europe and Central Asia,41.20438,74.766098,6117.07231616174,2001,200,0,0,0,0,0,0,0,0,0,0,0,20,0,180,0,0,0,0,0,0,0,0,0
IR,Iran,country,Middle East and North Africa,32.427908,53.688046,KG,Kyrgyz Rep.,country,Europe and Central Asia,41.20438,74.766098,2109.5291635246,2001,1017,404,0,48,0,0,0,153,240,0,4,0,62,14,92,0,0,0,0,0,0,0,0,0
IL,Israel,country,Middle East and North Africa,31.046051,34.851612,KG,Kyrgyz Rep.,country,Europe and Central Asia,41.20438,74.766098,3726.3060121638,2001,119,0,0,0,0,0,0,0,0,0,0,0,0,119,0,0,0,0,0,0,0,0,0,0
IT,Italy,country,Europe and Central Asia,41.87194,12.56738,KG,Kyrgyz Rep.,country,Europe and Central Asia,41.20438,74.766098,5064.29814458202,2001,116,1,0,0,0,0,0,0,4,0,0,0,1,107,0,3,0,0,0,0,0,0,0,0
KZ,Kazakhstan,country,Europe and Central Asia,48.019573,66.923684,KG,Kyrgyz Rep.,country,Europe and Central Asia,41.20438,74.766098,979.6552303062,2001,115876,90214,10,5014,0,11,6,68,539,101,0,792,86,766,2973,4798,0,0,187,10311,0,0,0,0
LV,Latvia,country,Europe and Central Asia,56.879635,24.603189,KG,Kyrgyz Rep.,country,Europe and Central Asia,41.20438,74.766098,3941.40140129312,2001,200,0,0,0,0,0,0,0,0,0,0,0,0,0,0,0,0,200,0,0,0,0,0,0
LT,Lithuania,country,Europe and Central Asia,55.169438,23.881275,KG,Kyrgyz Rep.,country,Europe and Central Asia,41.20438,74.766098,3976.90247549544,2001,568,0,0,500,0,0,0,2,18,0,0,0,0,0,48,0,0,0,0,0,0,0,0,0
LU,Luxembourg,country,Europe and Central Asia,49.815273,6.129583,KG,Kyrgyz Rep.,country,Europe and Central Asia,41.20438,74.766098,5248.47401585302,2001,0,0,0,0,0,0,0,0,0,0,0,0,0,0,0,0,0,0,0,0,0,0,0,0
MW,Malawi,country,Sub-Saharan Africa,-13.254308,34.301525,KG,Kyrgyz Rep.,country,Europe and Central Asia,41.20438,74.766098,7351.36632206561,2001,123,0,0,0,0,0,0,0,0,0,0,0,66,57,0,0,0,0,0,0,0,0,0,0
MY,Malaysia,country,East Asia and Pacific,4.210484,101.975766,KG,Kyrgyz Rep.,country,Europe and Central Asia,41.20438,74.766098,4931.68766111627,2001,5,0,0,0,0,0,0,0,0,0,0,0,0,2,3,0,0,0,0,0,0,0,0,0
MX,Mexico,country,Latin America and the Caribbean,23.634501,-102.552784,KG,Kyrgyz Rep.,country,Europe and Central Asia,41.20438,74.766098,12814.3613891096,2001,1,0,0,0,0,0,0,0,0,0,0,0,0,0,0,1,0,0,0,0,0,0,0,0
MA,Morocco,country,Middle East and North Africa,31.791702,-7.09262,KG,Kyrgyz Rep.,country,Europe and Central Asia,41.20438,74.766098,7129.84745427709,2001,16,0,0,0,0,0,0,0,12,0,0,0,4,0,0,0,0,0,0,0,0,0,0,0
NL,Netherlands,country,Europe and Central Asia,52.132633,5.291266,KG,Kyrgyz Rep.,country,Europe and Central Asia,41.20438,74.766098,5232.32623700706,2001,245,0,0,23,0,0,0,0,0,0,1,0,7,1,56,157,0,0,0,0,0,0,0,0
PK,Pakistan,country,South Asia,30.375321,69.345116,KG,Kyrgyz Rep.,country,Europe and Central Asia,41.20438,74.766098,1300.3546489322,2001,26,26,0,0,0,0,0,0,0,0,0,0,0,0,0,0,0,0,0,0,0,0,0,0
PH,Philippines,country,East Asia and Pacific,12.879721,121.774017,KG,Kyrgyz Rep.,country,Europe and Central Asia,41.20438,74.766098,5531.10898147665,2001,1,0,0,0,0,0,0,0,0,0,0,0,0,1,0,0,0,0,0,0,0,0,0,0
PL,Poland,country,Europe and Central Asia,51.919438,19.145136,KG,Kyrgyz Rep.,country,Europe and Central Asia,41.20438,74.766098,4306.81030487699,2001,3142,6,0,2726,0,0,0,0,0,0,0,0,5,13,382,1,0,9,0,0,0,0,0,0
KR,"Korea, Rep.",country,East Asia and Pacific,35.907757,127.766922,KG,Kyrgyz Rep.,country,Europe and Central Asia,41.20438,74.766098,4579.97308282654,2001,394,25,0,3,0,0,0,0,0,0,0,0,0,344,0,0,0,0,22,0,0,0,0,0
MD,Moldova,country,Europe and Central Asia,47.411631,28.369885,KG,Kyrgyz Rep.,country,Europe and Central Asia,41.20438,74.766098,3703.15449395914,2001,270,0,0,0,0,0,0,1,5,0,0,0,0,0,47,217,0,0,0,0,0,0,0,0
RU,Russian Federation,country,Europe and Central Asia,61.52401,105.318756,KG,Kyrgyz Rep.,country,Europe and Central Asia,41.20438,74.766098,3048.06401012004,2001,13528,1672,0,1001,42,22,433,146,592,1,7,68,1262,356,805,5879,0,112,1130,0,0,0,0,0
SG,Singapore,country,East Asia and Pacific,1.352083,103.819836,KG,Kyrgyz Rep.,country,Europe and Central Asia,41.20438,74.766098,5309.6059327693,2001,63,0,0,0,0,0,0,0,0,0,0,0,63,0,0,0,0,0,0,0,0,0,0,0
SK,Slovak Rep.,country,Europe and Central Asia,48.669026,19.699024,KG,Kyrgyz Rep.,country,Europe and Central Asia,41.20438,74.766098,4320.87917811966,2001,81,0,0,0,0,0,0,0,0,0,0,0,0,81,0,0,0,0,0,0,0,0,0,0
SI,Slovenia,country,Europe and Central Asia,46.151241,14.995463,KG,Kyrgyz Rep.,country,Europe and Central Asia,41.20438,74.766098,4729.19313597041,2001,2,1,0,0,0,0,0,0,1,0,0,0,0,0,0,0,0,0,0,0,0,0,0,0
ZA,S. Africa,country,Sub-Saharan Africa,-30.559482,22.937506,KG,Kyrgyz Rep.,country,Europe and Central Asia,41.20438,74.766098,9600.93595584375,2001,18,0,0,0,0,0,0,0,18,0,0,0,0,0,0,0,0,0,0,0,0,0,0,0
ES,Spain,country,Europe and Central Asia,40.463667,-3.74922,KG,Kyrgyz Rep.,country,Europe and Central Asia,41.20438,74.766098,6369.24516689102,2001,167,0,0,14,0,0,0,0,12,0,0,0,0,141,0,0,0,0,0,0,0,0,0,0
LK,Sri Lanka,country,South Asia,7.873054,80.771797,KG,Kyrgyz Rep.,country,Europe and Central Asia,41.20438,74.766098,3757.64104604215,2001,1972,0,0,0,0,0,0,0,0,0,0,0,1972,0,0,0,0,0,0,0,0,0,0,0
SE,Sweden,country,Europe and Central Asia,60.128161,18.643501,KG,Kyrgyz Rep.,country,Europe and Central Asia,41.20438,74.766098,4311.38600596317,2001,8,0,0,0,0,0,0,0,0,0,0,0,0,0,0,8,0,0,0,0,0,0,0,0
CH,Switzerland,country,Europe and Central Asia,46.818188,8.227512,KG,Kyrgyz Rep.,country,Europe and Central Asia,41.20438,74.766098,5202.90859175089,2001,24,0,0,0,0,0,0,0,0,0,0,0,1,2,0,21,0,0,0,0,0,0,0,0
TJ,Tajikistan,country,Europe and Central Asia,38.861034,71.276093,KG,Kyrgyz Rep.,country,Europe and Central Asia,41.20438,74.766098,395.583835374318,2001,489,0,0,0,0,0,0,20,244,0,0,0,0,1,0,209,0,0,0,0,15,0,0,0
TR,Turkey,country,Europe and Central Asia,38.963745,35.243322,KG,Kyrgyz Rep.,country,Europe and Central Asia,41.20438,74.766098,3346.42529719866,2001,1655,302,0,304,19,0,12,42,11,0,0,0,379,236,315,0,0,19,16,0,0,0,0,0
TM,Turkmenistan,country,Europe and Central Asia,38.969719,59.556278,KG,Kyrgyz Rep.,country,Europe and Central Asia,41.20438,74.766098,1317.23522384383,2001,73,0,0,0,0,0,0,0,0,73,0,0,0,0,0,0,0,0,0,0,0,0,0,0
UA,Ukraine,country,Europe and Central Asia,48.379433,31.16558,KG,Kyrgyz Rep.,country,Europe and Central Asia,41.20438,74.766098,3485.87895909157,2001,1266,207,0,305,0,0,0,0,0,0,0,0,530,5,129,34,0,0,56,0,0,0,0,0
AE,United Arab Emirates,country,Middle East and North Africa,23.424076,53.847818,KG,Kyrgyz Rep.,country,Europe and Central Asia,41.20438,74.766098,2776.56018974439,2001,87,13,0,0,0,22,0,0,0,0,0,0,29,19,2,0,0,0,2,0,0,0,0,0
GB,United Kingdom,country,Europe and Central Asia,55.378051,-3.435973,KG,Kyrgyz Rep.,country,Europe and Central Asia,41.20438,74.766098,5675.86439147661,2001,4410,0,0,4371,0,0,0,0,0,0,0,0,0,14,15,10,0,0,0,0,0,0,0,0
US,USA,country,North America,37.09024,-95.712891,KG,Kyrgyz Rep.,country,Europe and Central Asia,41.20438,74.766098,11267.9891011573,2001,1334,0,0,0,0,0,0,0,1,0,0,0,0,12,1,2,0,1318,0,0,0,0,0,0
UZ,Uzbekistan,country,Europe and Central Asia,41.377491,64.585262,KG,Kyrgyz Rep.,country,Europe and Central Asia,41.20438,74.766098,851.27358566864,2001,764,210,0,0,0,0,0,67,41,109,0,0,14,228,0,95,0,0,0,0,0,0,0,0
ZM,Zambia,country,Sub-Saharan Africa,-13.133897,27.849332,KG,Kyrgyz Rep.,country,Europe and Central Asia,41.20438,74.766098,7732.79300371397,2001,1,0,0,0,0,0,0,0,0,0,0,0,0,1,0,0,0,0,0,0,0,0,0,0
ZW,Zimbabwe,country,Sub-Saharan Africa,-19.015438,29.154857,KG,Kyrgyz Rep.,country,Europe and Central Asia,41.20438,74.766098,8189.12132737849,2001,6,0,0,0,0,0,0,0,0,0,0,0,0,6,0,0,0,0,0,0,0,0,0,0
AF,Afghanistan,country,South Asia,33.93911,67.709953,KG,Kyrgyz Rep.,country,Europe and Central Asia,41.20438,74.766098,1019.83807119267,2002,20,0,0,0,0,0,0,0,0,0,0,0,0,0,0,0,0,0,0,20,0,0,0,0
AR,Argentina,country,Latin America and the Caribbean,-38.416097,-63.616672,KG,Kyrgyz Rep.,country,Europe and Central Asia,41.20438,74.766098,16499.1795479395,2002,194,0,0,0,0,0,0,0,19,0,0,0,0,0,175,0,0,0,0,0,0,0,0,0
AM,Armenia,country,Europe and Central Asia,40.069099,45.038189,KG,Kyrgyz Rep.,country,Europe and Central Asia,41.20438,74.766098,2502.21567122156,2002,8,0,0,0,0,0,0,0,0,0,0,0,0,0,0,8,0,0,0,0,0,0,0,0
AU,Australia,country,East Asia and Pacific,-25.274398,133.775136,KG,Kyrgyz Rep.,country,Europe and Central Asia,41.20438,74.766098,9577.95383436393,2002,0,0,0,0,0,0,0,0,0,0,0,0,0,0,0,0,0,0,0,0,0,0,0,0
AT,Austria,country,Europe and Central Asia,47.516231,14.550072,KG,Kyrgyz Rep.,country,Europe and Central Asia,41.20438,74.766098,4722.25921652766,2002,170,0,0,170,0,0,0,0,0,0,0,0,0,0,0,0,0,0,0,0,0,0,0,0
BD,Bangladesh,country,South Asia,23.684994,90.356331,KG,Kyrgyz Rep.,country,Europe and Central Asia,41.20438,74.766098,2430.53657887284,2002,49,0,0,0,0,0,0,0,0,49,0,0,0,0,0,0,0,0,0,0,0,0,0,0
BY,Belarus,country,Europe and Central Asia,53.709807,27.953389,KG,Kyrgyz Rep.,country,Europe and Central Asia,41.20438,74.766098,3707.83252318164,2002,81,0,0,0,0,0,0,0,0,0,0,0,81,0,0,0,0,0,0,0,0,0,0,0
BE,Belgium,country,Europe and Central Asia,50.503887,4.469936,KG,Kyrgyz Rep.,country,Europe and Central Asia,41.20438,74.766098,5338.68825203297,2002,115,10,0,4,0,0,0,0,1,0,0,0,0,4,96,0,0,0,0,0,0,0,0,0
BR,Brazil,country,Latin America and the Caribbean,-14.235004,-51.92528,KG,Kyrgyz Rep.,country,Europe and Central Asia,41.20438,74.766098,14104.9642520286,2002,101,0,0,0,0,0,0,0,2,0,0,0,0,99,0,0,0,0,0,0,0,0,0,0
BG,Bulgaria,country,Europe and Central Asia,42.733883,25.48583,KG,Kyrgyz Rep.,country,Europe and Central Asia,41.20438,74.766098,4023.60981814916,2002,0,0,0,0,0,0,0,0,0,0,0,0,0,0,0,0,0,0,0,0,0,0,0,0
CA,Canada,country,North America,56.130366,-106.346771,KG,Kyrgyz Rep.,country,Europe and Central Asia,41.20438,74.766098,9201.74537147451,2002,39,6,0,0,0,0,0,3,0,0,0,0,0,0,0,0,0,28,2,0,0,0,0,0
CL,Chile,country,Latin America and the Caribbean,-35.675147,-71.542969,KG,Kyrgyz Rep.,country,Europe and Central Asia,41.20438,74.766098,17055.7004734971,2002,2,0,0,0,0,0,0,0,2,0,0,0,0,0,0,0,0,0,0,0,0,0,0,0
CN,China,country,East Asia and Pacific,35.86166,104.195397,KG,Kyrgyz Rep.,country,Europe and Central Asia,41.20438,74.766098,2617.35078545563,2002,9128,3099,1,32,0,0,0,145,3868,446,33,14,261,1002,133,47,32,0,47,0,0,0,0,0
CR,Costa Rica,country,Latin America and the Caribbean,9.748917,-83.753428,KG,Kyrgyz Rep.,country,Europe and Central Asia,41.20438,74.766098,13952.969550441,2002,0,0,0,0,0,0,0,0,0,0,0,0,0,0,0,0,0,0,0,0,0,0,0,0
CI,Ivory Coast,country,Sub-Saharan Africa,7.539989,-5.54708,KG,Kyrgyz Rep.,country,Europe and Central Asia,41.20438,74.766098,8656.64283479954,2002,1,0,0,0,0,0,1,0,0,0,0,0,0,0,0,0,0,0,0,0,0,0,0,0
CU,Cuba,country,Latin America and the Caribbean,21.521757,-77.781167,KG,Kyrgyz Rep.,country,Europe and Central Asia,41.20438,74.766098,12500.9878639621,2002,1,0,0,0,0,0,0,0,0,0,0,0,0,1,0,0,0,0,0,0,0,0,0,0
CY,Cyprus,country,Europe and Central Asia,35.126413,33.429859,KG,Kyrgyz Rep.,country,Europe and Central Asia,41.20438,74.766098,3645.43271454431,2002,2171,0,0,2171,0,0,0,0,0,0,0,0,0,0,0,0,0,0,0,0,0,0,0,0
CZ,Czech Republic,country,Europe and Central Asia,49.817492,15.472962,KG,Kyrgyz Rep.,country,Europe and Central Asia,41.20438,74.766098,4598.42272759781,2002,0,0,0,0,0,0,0,0,0,0,0,0,0,0,0,0,0,0,0,0,0,0,0,0
DK,Denmark,country,Europe and Central Asia,56.26392,9.501785,KG,Kyrgyz Rep.,country,Europe and Central Asia,41.20438,74.766098,4867.54543575004,2002,32,8,0,0,0,0,0,0,0,0,0,0,0,24,0,0,0,0,0,0,0,0,0,0
EC,Ecuador,country,Latin America and the Caribbean,-1.831239,-78.183406,KG,Kyrgyz Rep.,country,Europe and Central Asia,41.20438,74.766098,14882.4150424879,2002,582,0,0,0,0,0,0,0,582,0,0,0,0,0,0,0,0,0,0,0,0,0,0,0
FR,France,country,Europe and Central Asia,46.227638,2.213749,KG,Kyrgyz Rep.,country,Europe and Central Asia,41.20438,74.766098,5657.44704841201,2002,2175,0,0,768,0,0,0,0,2,0,0,0,0,0,0,1405,0,0,0,0,0,0,0,0
GE,Georgia,country,Europe and Central Asia,42.315407,43.356892,KG,Kyrgyz Rep.,country,Europe and Central Asia,41.20438,74.766098,2596.25735281228,2002,228,0,0,0,0,0,0,0,0,0,0,0,169,0,0,59,0,0,0,0,0,0,0,0
DE,Germany,country,Europe and Central Asia,51.165691,10.451526,KG,Kyrgyz Rep.,country,Europe and Central Asia,41.20438,74.766098,4913.78032354948,2002,1801,50,18,1314,0,0,0,0,0,32,0,0,23,117,0,145,0,78,24,0,0,0,0,0
GR,Greece,country,Europe and Central Asia,39.074208,21.824312,KG,Kyrgyz Rep.,country,Europe and Central Asia,41.20438,74.766098,4441.20661165864,2002,0,0,0,0,0,0,0,0,0,0,0,0,0,0,0,0,0,0,0,0,0,0,0,0
GT,Guatemala,country,Latin America and the Caribbean,15.783471,-90.230759,KG,Kyrgyz Rep.,country,Europe and Central Asia,41.20438,74.766098,13507.6671089538,2002,9942,0,0,9934,0,0,0,0,8,0,0,0,0,0,0,0,0,0,0,0,0,0,0,0
HT,Haiti,country,Latin America and the Caribbean,18.971187,-72.285215,KG,Kyrgyz Rep.,country,Europe and Central Asia,41.20438,74.766098,12524.9740813393,2002,0,0,0,0,0,0,0,0,0,0,0,0,0,0,0,0,0,0,0,0,0,0,0,0
HN,Honduras,country,Latin America and the Caribbean,15.199999,-86.241905,KG,Kyrgyz Rep.,country,Europe and Central Asia,41.20438,74.766098,13460.4869257234,2002,11,0,0,0,0,0,0,0,0,0,0,0,0,11,0,0,0,0,0,0,0,0,0,0
HU,Hungary,country,Europe and Central Asia,47.162494,19.503304,KG,Kyrgyz Rep.,country,Europe and Central Asia,41.20438,74.766098,4367.8392295881,2002,1247,27,0,0,0,0,0,258,17,0,0,0,0,0,661,284,0,0,0,0,0,0,0,0
IS,Iceland,country,Europe and Central Asia,64.963051,-19.020835,KG,Kyrgyz Rep.,country,Europe and Central Asia,41.20438,74.766098,6105.09769430876,2002,0,0,0,0,0,0,0,0,0,0,0,0,0,0,0,0,0,0,0,0,0,0,0,0
IN,India,country,South Asia,20.593684,78.96288,KG,Kyrgyz Rep.,country,Europe and Central Asia,41.20438,74.766098,2328.34888884646,2002,293,18,0,0,0,0,0,0,0,0,0,0,275,0,0,0,0,0,0,0,0,0,0,0
ID,Indonesia,country,East Asia and Pacific,-0.789275,113.921327,KG,Kyrgyz Rep.,country,Europe and Central Asia,41.20438,74.766098,6117.07231616174,2002,441,0,0,0,0,0,12,0,0,0,0,0,0,0,429,0,0,0,0,0,0,0,0,0
IR,Iran,country,Middle East and North Africa,32.427908,53.688046,KG,Kyrgyz Rep.,country,Europe and Central Asia,41.20438,74.766098,2109.5291635246,2002,3054,152,0,26,0,0,0,111,210,0,0,0,15,70,1494,0,0,0,0,0,976,0,0,0
IL,Israel,country,Middle East and North Africa,31.046051,34.851612,KG,Kyrgyz Rep.,country,Europe and Central Asia,41.20438,74.766098,3726.3060121638,2002,2,0,0,0,0,0,0,0,2,0,0,0,0,0,0,0,0,0,0,0,0,0,0,0
IT,Italy,country,Europe and Central Asia,41.87194,12.56738,KG,Kyrgyz Rep.,country,Europe and Central Asia,41.20438,74.766098,5064.29814458202,2002,43,0,0,2,0,0,0,1,1,0,0,0,11,28,0,0,0,0,0,0,0,0,0,0
KZ,Kazakhstan,country,Europe and Central Asia,48.019573,66.923684,KG,Kyrgyz Rep.,country,Europe and Central Asia,41.20438,74.766098,979.6552303062,2002,220431,176524,0,11896,0,18,0,55,511,13,3,11172,132,585,2454,7285,53,24,329,9430,0,0,0,0
KE,Kenya,country,Sub-Saharan Africa,-0.023559,37.906193,KG,Kyrgyz Rep.,country,Europe and Central Asia,41.20438,74.766098,5900.85598829556,2002,0,0,0,0,0,0,0,0,0,0,0,0,0,0,0,0,0,0,0,0,0,0,0,0
LV,Latvia,country,Europe and Central Asia,56.879635,24.603189,KG,Kyrgyz Rep.,country,Europe and Central Asia,41.20438,74.766098,3941.40140129312,2002,1779,0,0,1730,0,0,0,0,0,0,0,0,0,0,0,49,0,0,0,0,0,0,0,0
LT,Lithuania,country,Europe and Central Asia,55.169438,23.881275,KG,Kyrgyz Rep.,country,Europe and Central Asia,41.20438,74.766098,3976.90247549544,2002,34,0,0,0,0,0,0,0,34,0,0,0,0,0,0,0,0,0,0,0,0,0,0,0
MG,Madagascar,country,Sub-Saharan Africa,-18.766947,46.869107,KG,Kyrgyz Rep.,country,Europe and Central Asia,41.20438,74.766098,7270.6899487195,2002,0,0,0,0,0,0,0,0,0,0,0,0,0,0,0,0,0,0,0,0,0,0,0,0
MW,Malawi,country,Sub-Saharan Africa,-13.254308,34.301525,KG,Kyrgyz Rep.,country,Europe and Central Asia,41.20438,74.766098,7351.36632206561,2002,44,0,0,0,0,0,0,0,0,0,0,0,44,0,0,0,0,0,0,0,0,0,0,0
MY,Malaysia,country,East Asia and Pacific,4.210484,101.975766,KG,Kyrgyz Rep.,country,Europe and Central Asia,41.20438,74.766098,4931.68766111627,2002,51,0,0,0,0,0,0,0,0,0,0,0,47,0,4,0,0,0,0,0,0,0,0,0
MX,Mexico,country,Latin America and the Caribbean,23.634501,-102.552784,KG,Kyrgyz Rep.,country,Europe and Central Asia,41.20438,74.766098,12814.3613891096,2002,2,0,0,0,0,0,0,0,0,0,0,0,0,0,0,2,0,0,0,0,0,0,0,0
MN,Mongolia,country,East Asia and Pacific,46.862496,103.846656,KG,Kyrgyz Rep.,country,Europe and Central Asia,41.20438,74.766098,2395.80777449919,2002,29,0,0,0,0,0,0,0,0,0,0,0,0,0,0,29,0,0,0,0,0,0,0,0
MA,Morocco,country,Middle East and North Africa,31.791702,-7.09262,KG,Kyrgyz Rep.,country,Europe and Central Asia,41.20438,74.766098,7129.84745427709,2002,50,0,0,0,0,0,0,0,42,0,0,0,8,0,0,0,0,0,0,0,0,0,0,0
NL,Netherlands,country,Europe and Central Asia,52.132633,5.291266,KG,Kyrgyz Rep.,country,Europe and Central Asia,41.20438,74.766098,5232.32623700706,2002,328,0,35,40,0,0,0,0,0,0,0,0,5,2,200,46,0,0,0,0,0,0,0,0
NZ,New Zealand,country,East Asia and Pacific,-40.900557,174.885971,KG,Kyrgyz Rep.,country,Europe and Central Asia,41.20438,74.766098,13590.8692440269,2002,0,0,0,0,0,0,0,0,0,0,0,0,0,0,0,0,0,0,0,0,0,0,0,0
PK,Pakistan,country,South Asia,30.375321,69.345116,KG,Kyrgyz Rep.,country,Europe and Central Asia,41.20438,74.766098,1300.3546489322,2002,54,13,0,0,0,0,0,0,41,0,0,0,0,0,0,0,0,0,0,0,0,0,0,0
PH,Philippines,country,East Asia and Pacific,12.879721,121.774017,KG,Kyrgyz Rep.,country,Europe and Central Asia,41.20438,74.766098,5531.10898147665,2002,0,0,0,0,0,0,0,0,0,0,0,0,0,0,0,0,0,0,0,0,0,0,0,0
PL,Poland,country,Europe and Central Asia,51.919438,19.145136,KG,Kyrgyz Rep.,country,Europe and Central Asia,41.20438,74.766098,4306.81030487699,2002,2166,0,0,2156,0,0,0,0,0,0,0,0,10,0,0,0,0,0,0,0,0,0,0,0
KR,"Korea, Rep.",country,East Asia and Pacific,35.907757,127.766922,KG,Kyrgyz Rep.,country,Europe and Central Asia,41.20438,74.766098,4579.97308282654,2002,462,7,0,0,0,0,2,0,0,0,0,0,0,440,0,13,0,0,0,0,0,0,0,0
MD,Moldova,country,Europe and Central Asia,47.411631,28.369885,KG,Kyrgyz Rep.,country,Europe and Central Asia,41.20438,74.766098,3703.15449395914,2002,519,0,0,0,0,0,52,35,42,0,0,0,0,0,0,390,0,0,0,0,0,0,0,0
RU,Russian Federation,country,Europe and Central Asia,61.52401,105.318756,KG,Kyrgyz Rep.,country,Europe and Central Asia,41.20438,74.766098,3048.06401012004,2002,28071,1559,3,13793,6,3,3,87,753,23,11,108,1805,558,537,7882,0,129,811,0,0,0,0,0
SG,Singapore,country,East Asia and Pacific,1.352083,103.819836,KG,Kyrgyz Rep.,country,Europe and Central Asia,41.20438,74.766098,5309.6059327693,2002,99,0,0,0,0,0,0,0,0,0,0,0,99,0,0,0,0,0,0,0,0,0,0,0
SK,Slovak Rep.,country,Europe and Central Asia,48.669026,19.699024,KG,Kyrgyz Rep.,country,Europe and Central Asia,41.20438,74.766098,4320.87917811966,2002,92,0,0,0,0,0,0,0,0,0,0,0,0,92,0,0,0,0,0,0,0,0,0,0
SI,Slovenia,country,Europe and Central Asia,46.151241,14.995463,KG,Kyrgyz Rep.,country,Europe and Central Asia,41.20438,74.766098,4729.19313597041,2002,0,0,0,0,0,0,0,0,0,0,0,0,0,0,0,0,0,0,0,0,0,0,0,0
ZA,S. Africa,country,Sub-Saharan Africa,-30.559482,22.937506,KG,Kyrgyz Rep.,country,Europe and Central Asia,41.20438,74.766098,9600.93595584375,2002,13,0,0,0,0,0,0,0,13,0,0,0,0,0,0,0,0,0,0,0,0,0,0,0
ES,Spain,country,Europe and Central Asia,40.463667,-3.74922,KG,Kyrgyz Rep.,country,Europe and Central Asia,41.20438,74.766098,6369.24516689102,2002,232,0,0,7,0,0,0,0,72,0,0,0,0,153,0,0,0,0,0,0,0,0,0,0
LK,Sri Lanka,country,South Asia,7.873054,80.771797,KG,Kyrgyz Rep.,country,Europe and Central Asia,41.20438,74.766098,3757.64104604215,2002,1920,0,0,0,0,0,0,0,0,0,0,0,1920,0,0,0,0,0,0,0,0,0,0,0
SE,Sweden,country,Europe and Central Asia,60.128161,18.643501,KG,Kyrgyz Rep.,country,Europe and Central Asia,41.20438,74.766098,4311.38600596317,2002,263,0,0,252,0,0,0,0,0,0,0,0,0,10,0,1,0,0,0,0,0,0,0,0
CH,Switzerland,country,Europe and Central Asia,46.818188,8.227512,KG,Kyrgyz Rep.,country,Europe and Central Asia,41.20438,74.766098,5202.90859175089,2002,104,0,0,0,0,0,0,50,0,0,0,0,34,7,0,13,0,0,0,0,0,0,0,0
TJ,Tajikistan,country,Europe and Central Asia,38.861034,71.276093,KG,Kyrgyz Rep.,country,Europe and Central Asia,41.20438,74.766098,395.583835374318,2002,254,0,0,0,0,0,0,6,220,0,0,0,0,0,0,3,0,0,0,1,24,0,0,0
MK,Macedonia,country,Europe and Central Asia,41.608635,21.745275,KG,Kyrgyz Rep.,country,Europe and Central Asia,41.20438,74.766098,4354.91927691055,2002,0,0,0,0,0,0,0,0,0,0,0,0,0,0,0,0,0,0,0,0,0,0,0,0
TR,Turkey,country,Europe and Central Asia,38.963745,35.243322,KG,Kyrgyz Rep.,country,Europe and Central Asia,41.20438,74.766098,3346.42529719866,2002,3112,536,0,611,41,0,3,11,45,0,1,0,468,766,618,0,0,0,11,1,0,0,0,0
UA,Ukraine,country,Europe and Central Asia,48.379433,31.16558,KG,Kyrgyz Rep.,country,Europe and Central Asia,41.20438,74.766098,3485.87895909157,2002,4756,375,0,2895,0,0,0,0,0,0,0,0,856,0,295,51,0,0,284,0,0,0,0,0
AE,United Arab Emirates,country,Middle East and North Africa,23.424076,53.847818,KG,Kyrgyz Rep.,country,Europe and Central Asia,41.20438,74.766098,2776.56018974439,2002,282,0,0,0,0,0,0,0,0,0,0,0,67,0,215,0,0,0,0,0,0,0,0,0
GB,United Kingdom,country,Europe and Central Asia,55.378051,-3.435973,KG,Kyrgyz Rep.,country,Europe and Central Asia,41.20438,74.766098,5675.86439147661,2002,1,0,0,0,0,0,0,0,0,0,0,0,0,0,0,1,0,0,0,0,0,0,0,0
US,USA,country,North America,37.09024,-95.712891,KG,Kyrgyz Rep.,country,Europe and Central Asia,41.20438,74.766098,11267.9891011573,2002,9984,7006,0,2,0,0,0,40,60,0,0,0,0,28,800,259,0,1789,0,0,0,0,0,0
UZ,Uzbekistan,country,Europe and Central Asia,41.377491,64.585262,KG,Kyrgyz Rep.,country,Europe and Central Asia,41.20438,74.766098,851.27358566864,2002,449,85,0,5,0,0,0,107,58,56,0,0,2,22,1,109,0,4,0,0,0,0,0,0
VN,Vietnam,country,East Asia and Pacific,14.058324,108.277199,KG,Kyrgyz Rep.,country,Europe and Central Asia,41.20438,74.766098,4428.02840079114,2002,30,0,0,0,0,0,0,0,0,0,0,0,30,0,0,0,0,0,0,0,0,0,0,0
ZW,Zimbabwe,country,Sub-Saharan Africa,-19.015438,29.154857,KG,Kyrgyz Rep.,country,Europe and Central Asia,41.20438,74.766098,8189.12132737849,2002,0,0,0,0,0,0,0,0,0,0,0,0,0,0,0,0,0,0,0,0,0,0,0,0
AR,Argentina,country,Latin America and the Caribbean,-38.416097,-63.616672,KG,Kyrgyz Rep.,country,Europe and Central Asia,41.20438,74.766098,16499.1795479395,2003,41,0,0,0,0,0,0,0,41,0,0,0,0,0,0,0,0,0,0,0,0,0,0,0
AU,Australia,country,East Asia and Pacific,-25.274398,133.775136,KG,Kyrgyz Rep.,country,Europe and Central Asia,41.20438,74.766098,9577.95383436393,2003,0,0,0,0,0,0,0,0,0,0,0,0,0,0,0,0,0,0,0,0,0,0,0,0
AT,Austria,country,Europe and Central Asia,47.516231,14.550072,KG,Kyrgyz Rep.,country,Europe and Central Asia,41.20438,74.766098,4722.25921652766,2003,19,14,0,0,0,0,0,0,0,0,0,3,0,0,0,2,0,0,0,0,0,0,0,0
AZ,Azerbaijan,country,Europe and Central Asia,40.143105,47.576927,KG,Kyrgyz Rep.,country,Europe and Central Asia,41.20438,74.766098,2289.22478548816,2003,27,0,0,0,0,0,0,0,26,0,0,0,0,0,0,0,0,0,1,0,0,0,0,0
BD,Bangladesh,country,South Asia,23.684994,90.356331,KG,Kyrgyz Rep.,country,Europe and Central Asia,41.20438,74.766098,2430.53657887284,2003,100,0,0,0,0,0,0,0,0,100,0,0,0,0,0,0,0,0,0,0,0,0,0,0
BY,Belarus,country,Europe and Central Asia,53.709807,27.953389,KG,Kyrgyz Rep.,country,Europe and Central Asia,41.20438,74.766098,3707.83252318164,2003,564,31,0,512,0,0,0,0,0,0,0,0,20,0,0,1,0,0,0,0,0,0,0,0
BE,Belgium,country,Europe and Central Asia,50.503887,4.469936,KG,Kyrgyz Rep.,country,Europe and Central Asia,41.20438,74.766098,5338.68825203297,2003,10,4,0,6,0,0,0,0,0,0,0,0,0,0,0,0,0,0,0,0,0,0,0,0
BR,Brazil,country,Latin America and the Caribbean,-14.235004,-51.92528,KG,Kyrgyz Rep.,country,Europe and Central Asia,41.20438,74.766098,14104.9642520286,2003,232,0,0,0,0,0,0,0,5,0,0,0,22,99,0,0,0,106,0,0,0,0,0,0
BG,Bulgaria,country,Europe and Central Asia,42.733883,25.48583,KG,Kyrgyz Rep.,country,Europe and Central Asia,41.20438,74.766098,4023.60981814916,2003,20,20,0,0,0,0,0,0,0,0,0,0,0,0,0,0,0,0,0,0,0,0,0,0
CA,Canada,country,North America,56.130366,-106.346771,KG,Kyrgyz Rep.,country,Europe and Central Asia,41.20438,74.766098,9201.74537147451,2003,21,0,0,0,0,0,0,0,3,0,0,0,0,0,0,0,0,18,0,0,0,0,0,0
CL,Chile,country,Latin America and the Caribbean,-35.675147,-71.542969,KG,Kyrgyz Rep.,country,Europe and Central Asia,41.20438,74.766098,17055.7004734971,2003,9,0,0,0,0,0,0,0,8,0,0,0,0,1,0,0,0,0,0,0,0,0,0,0
CN,China,country,East Asia and Pacific,35.86166,104.195397,KG,Kyrgyz Rep.,country,Europe and Central Asia,41.20438,74.766098,2617.35078545563,2003,13206,6886,0,242,0,0,0,99,4008,477,4,1,428,905,9,0,32,0,93,20,34,0,0,0
CR,Costa Rica,country,Latin America and the Caribbean,9.748917,-83.753428,KG,Kyrgyz Rep.,country,Europe and Central Asia,41.20438,74.766098,13952.969550441,2003,285,0,0,0,0,0,0,0,285,0,0,0,0,0,0,0,0,0,0,0,0,0,0,0
CI,Ivory Coast,country,Sub-Saharan Africa,7.539989,-5.54708,KG,Kyrgyz Rep.,country,Europe and Central Asia,41.20438,74.766098,8656.64283479954,2003,2,0,0,0,0,0,0,0,2,0,0,0,0,0,0,0,0,0,0,0,0,0,0,0
CU,Cuba,country,Latin America and the Caribbean,21.521757,-77.781167,KG,Kyrgyz Rep.,country,Europe and Central Asia,41.20438,74.766098,12500.9878639621,2003,0,0,0,0,0,0,0,0,0,0,0,0,0,0,0,0,0,0,0,0,0,0,0,0
CZ,Czech Republic,country,Europe and Central Asia,49.817492,15.472962,KG,Kyrgyz Rep.,country,Europe and Central Asia,41.20438,74.766098,4598.42272759781,2003,101,100,0,0,0,0,0,1,0,0,0,0,0,0,0,0,0,0,0,0,0,0,0,0
DK,Denmark,country,Europe and Central Asia,56.26392,9.501785,KG,Kyrgyz Rep.,country,Europe and Central Asia,41.20438,74.766098,4867.54543575004,2003,578,0,0,500,0,0,0,0,0,0,0,0,0,78,0,0,0,0,0,0,0,0,0,0
EC,Ecuador,country,Latin America and the Caribbean,-1.831239,-78.183406,KG,Kyrgyz Rep.,country,Europe and Central Asia,41.20438,74.766098,14882.4150424879,2003,1073,0,0,0,0,0,0,0,1057,0,0,0,16,0,0,0,0,0,0,0,0,0,0,0
EG,Egypt,country,Middle East and North Africa,26.820553,30.802498,KG,Kyrgyz Rep.,country,Europe and Central Asia,41.20438,74.766098,4307.28941215807,2003,0,0,0,0,0,0,0,0,0,0,0,0,0,0,0,0,0,0,0,0,0,0,0,0
FI,Finland,country,Europe and Central Asia,61.92411,25.748151,KG,Kyrgyz Rep.,country,Europe and Central Asia,41.20438,74.766098,3959.13118265701,2003,25,1,0,0,0,0,0,1,0,0,0,0,23,0,0,0,0,0,0,0,0,0,0,0
FR,France,country,Europe and Central Asia,46.227638,2.213749,KG,Kyrgyz Rep.,country,Europe and Central Asia,41.20438,74.766098,5657.44704841201,2003,22,0,0,15,0,0,0,1,1,0,0,0,0,0,0,5,0,0,0,0,0,0,0,0
GE,Georgia,country,Europe and Central Asia,42.315407,43.356892,KG,Kyrgyz Rep.,country,Europe and Central Asia,41.20438,74.766098,2596.25735281228,2003,58,0,0,0,0,0,0,0,0,0,0,0,0,0,0,58,0,0,0,0,0,0,0,0
DE,Germany,country,Europe and Central Asia,51.165691,10.451526,KG,Kyrgyz Rep.,country,Europe and Central Asia,41.20438,74.766098,4913.78032354948,2003,1404,21,31,1038,0,0,0,3,4,0,0,0,22,168,0,96,0,21,0,0,0,0,0,0
GR,Greece,country,Europe and Central Asia,39.074208,21.824312,KG,Kyrgyz Rep.,country,Europe and Central Asia,41.20438,74.766098,4441.20661165864,2003,108,0,0,0,0,0,0,0,1,0,0,0,0,0,0,107,0,0,0,0,0,0,0,0
HU,Hungary,country,Europe and Central Asia,47.162494,19.503304,KG,Kyrgyz Rep.,country,Europe and Central Asia,41.20438,74.766098,4367.8392295881,2003,1218,36,0,0,0,0,0,595,2,0,0,0,0,0,458,126,0,1,0,0,0,0,0,0
IS,Iceland,country,Europe and Central Asia,64.963051,-19.020835,KG,Kyrgyz Rep.,country,Europe and Central Asia,41.20438,74.766098,6105.09769430876,2003,0,0,0,0,0,0,0,0,0,0,0,0,0,0,0,0,0,0,0,0,0,0,0,0
IN,India,country,South Asia,20.593684,78.96288,KG,Kyrgyz Rep.,country,Europe and Central Asia,41.20438,74.766098,2328.34888884646,2003,235,0,0,60,0,0,0,0,0,0,0,0,175,0,0,0,0,0,0,0,0,0,0,0
ID,Indonesia,country,East Asia and Pacific,-0.789275,113.921327,KG,Kyrgyz Rep.,country,Europe and Central Asia,41.20438,74.766098,6117.07231616174,2003,632,0,0,0,0,0,0,0,0,0,0,0,0,0,632,0,0,0,0,0,0,0,0,0
IR,Iran,country,Middle East and North Africa,32.427908,53.688046,KG,Kyrgyz Rep.,country,Europe and Central Asia,41.20438,74.766098,2109.5291635246,2003,2331,131,0,77,0,17,0,176,426,0,16,0,43,95,726,0,0,0,18,0,606,0,0,0
IE,Ireland,country,Europe and Central Asia,53.41291,-8.24389,KG,Kyrgyz Rep.,country,Europe and Central Asia,41.20438,74.766098,6044.84752079556,2003,0,0,0,0,0,0,0,0,0,0,0,0,0,0,0,0,0,0,0,0,0,0,0,0
IL,Israel,country,Middle East and North Africa,31.046051,34.851612,KG,Kyrgyz Rep.,country,Europe and Central Asia,41.20438,74.766098,3726.3060121638,2003,19,0,0,0,0,0,0,0,19,0,0,0,0,0,0,0,0,0,0,0,0,0,0,0
IT,Italy,country,Europe and Central Asia,41.87194,12.56738,KG,Kyrgyz Rep.,country,Europe and Central Asia,41.20438,74.766098,5064.29814458202,2003,230,14,0,3,0,0,0,4,11,0,0,0,17,171,8,2,0,0,0,0,0,0,0,0
KZ,Kazakhstan,country,Europe and Central Asia,48.019573,66.923684,KG,Kyrgyz Rep.,country,Europe and Central Asia,41.20438,74.766098,979.6552303062,2003,158504,102918,1,27349,0,0,7,112,767,200,0,1082,182,1479,5984,11514,0,74,375,6460,0,0,0,0
LV,Latvia,country,Europe and Central Asia,56.879635,24.603189,KG,Kyrgyz Rep.,country,Europe and Central Asia,41.20438,74.766098,3941.40140129312,2003,42,0,0,0,0,0,0,7,0,0,0,0,0,1,0,34,0,0,0,0,0,0,0,0
LT,Lithuania,country,Europe and Central Asia,55.169438,23.881275,KG,Kyrgyz Rep.,country,Europe and Central Asia,41.20438,74.766098,3976.90247549544,2003,8,0,0,0,0,0,0,0,8,0,0,0,0,0,0,0,0,0,0,0,0,0,0,0
MW,Malawi,country,Sub-Saharan Africa,-13.254308,34.301525,KG,Kyrgyz Rep.,country,Europe and Central Asia,41.20438,74.766098,7351.36632206561,2003,62,0,0,0,0,0,0,0,0,0,0,0,62,0,0,0,0,0,0,0,0,0,0,0
MY,Malaysia,country,East Asia and Pacific,4.210484,101.975766,KG,Kyrgyz Rep.,country,Europe and Central Asia,41.20438,74.766098,4931.68766111627,2003,251,2,0,0,0,0,0,0,0,0,0,0,102,0,147,0,0,0,0,0,0,0,0,0
MT,Malta,country,Middle East and North Africa,35.937496,14.375416,KG,Kyrgyz Rep.,country,Europe and Central Asia,41.20438,74.766098,5183.03355499409,2003,0,0,0,0,0,0,0,0,0,0,0,0,0,0,0,0,0,0,0,0,0,0,0,0
MX,Mexico,country,Latin America and the Caribbean,23.634501,-102.552784,KG,Kyrgyz Rep.,country,Europe and Central Asia,41.20438,74.766098,12814.3613891096,2003,1,0,0,0,0,0,0,0,0,0,0,0,0,0,0,1,0,0,0,0,0,0,0,0
MA,Morocco,country,Middle East and North Africa,31.791702,-7.09262,KG,Kyrgyz Rep.,country,Europe and Central Asia,41.20438,74.766098,7129.84745427709,2003,61,0,0,0,0,0,0,0,48,0,0,0,13,0,0,0,0,0,0,0,0,0,0,0
NL,Netherlands,country,Europe and Central Asia,52.132633,5.291266,KG,Kyrgyz Rep.,country,Europe and Central Asia,41.20438,74.766098,5232.32623700706,2003,288,14,236,5,0,0,0,0,0,0,0,0,4,6,1,22,0,0,0,0,0,0,0,0
NZ,New Zealand,country,East Asia and Pacific,-40.900557,174.885971,KG,Kyrgyz Rep.,country,Europe and Central Asia,41.20438,74.766098,13590.8692440269,2003,1,0,0,0,0,0,0,0,1,0,0,0,0,0,0,0,0,0,0,0,0,0,0,0
PK,Pakistan,country,South Asia,30.375321,69.345116,KG,Kyrgyz Rep.,country,Europe and Central Asia,41.20438,74.766098,1300.3546489322,2003,18,6,0,0,0,0,0,0,12,0,0,0,0,0,0,0,0,0,0,0,0,0,0,0
PE,Peru,country,Latin America and the Caribbean,-9.189967,-75.015152,KG,Kyrgyz Rep.,country,Europe and Central Asia,41.20438,74.766098,15398.8440737154,2003,1,0,0,0,0,0,0,0,1,0,0,0,0,0,0,0,0,0,0,0,0,0,0,0
PL,Poland,country,Europe and Central Asia,51.919438,19.145136,KG,Kyrgyz Rep.,country,Europe and Central Asia,41.20438,74.766098,4306.81030487699,2003,4387,13,1,4343,0,0,0,1,0,0,0,0,18,11,0,0,0,0,0,0,0,0,0,0
KR,"Korea, Rep.",country,East Asia and Pacific,35.907757,127.766922,KG,Kyrgyz Rep.,country,Europe and Central Asia,41.20438,74.766098,4579.97308282654,2003,867,5,0,0,0,0,4,2,0,0,0,0,12,843,0,0,0,0,1,0,0,0,0,0
MD,Moldova,country,Europe and Central Asia,47.411631,28.369885,KG,Kyrgyz Rep.,country,Europe and Central Asia,41.20438,74.766098,3703.15449395914,2003,965,1,0,0,0,0,0,179,22,0,0,0,0,0,0,763,0,0,0,0,0,0,0,0
RU,Russian Federation,country,Europe and Central Asia,61.52401,105.318756,KG,Kyrgyz Rep.,country,Europe and Central Asia,41.20438,74.766098,3048.06401012004,2003,29697,1739,1,7449,13,3,30,158,494,40,18,151,2238,1139,1185,13790,0,336,913,0,0,0,0,0
RS,Serbia,country,Europe and Central Asia,44.016521,21.005859,KG,Kyrgyz Rep.,country,Europe and Central Asia,41.20438,74.766098,4336.91923931682,2003,1,0,0,0,0,0,0,1,0,0,0,0,0,0,0,0,0,0,0,0,0,0,0,0
SG,Singapore,country,East Asia and Pacific,1.352083,103.819836,KG,Kyrgyz Rep.,country,Europe and Central Asia,41.20438,74.766098,5309.6059327693,2003,228,0,0,0,0,0,0,0,0,0,0,0,228,0,0,0,0,0,0,0,0,0,0,0
SK,Slovak Rep.,country,Europe and Central Asia,48.669026,19.699024,KG,Kyrgyz Rep.,country,Europe and Central Asia,41.20438,74.766098,4320.87917811966,2003,87,0,0,0,0,0,0,0,0,0,0,0,0,87,0,0,0,0,0,0,0,0,0,0
SI,Slovenia,country,Europe and Central Asia,46.151241,14.995463,KG,Kyrgyz Rep.,country,Europe and Central Asia,41.20438,74.766098,4729.19313597041,2003,3,2,0,0,0,0,0,0,1,0,0,0,0,0,0,0,0,0,0,0,0,0,0,0
ZA,S. Africa,country,Sub-Saharan Africa,-30.559482,22.937506,KG,Kyrgyz Rep.,country,Europe and Central Asia,41.20438,74.766098,9600.93595584375,2003,41,0,0,0,0,0,0,0,41,0,0,0,0,0,0,0,0,0,0,0,0,0,0,0
ES,Spain,country,Europe and Central Asia,40.463667,-3.74922,KG,Kyrgyz Rep.,country,Europe and Central Asia,41.20438,74.766098,6369.24516689102,2003,255,0,0,2,0,0,0,1,78,0,0,0,0,174,0,0,0,0,0,0,0,0,0,0
LK,Sri Lanka,country,South Asia,7.873054,80.771797,KG,Kyrgyz Rep.,country,Europe and Central Asia,41.20438,74.766098,3757.64104604215,2003,2711,0,0,0,0,0,0,0,0,0,0,0,2711,0,0,0,0,0,0,0,0,0,0,0
SE,Sweden,country,Europe and Central Asia,60.128161,18.643501,KG,Kyrgyz Rep.,country,Europe and Central Asia,41.20438,74.766098,4311.38600596317,2003,23,2,0,0,1,0,0,0,0,0,0,0,0,20,0,0,0,0,0,0,0,0,0,0
CH,Switzerland,country,Europe and Central Asia,46.818188,8.227512,KG,Kyrgyz Rep.,country,Europe and Central Asia,41.20438,74.766098,5202.90859175089,2003,22,3,0,9,0,0,0,0,0,0,0,0,4,3,0,3,0,0,0,0,0,0,0,0
TJ,Tajikistan,country,Europe and Central Asia,38.861034,71.276093,KG,Kyrgyz Rep.,country,Europe and Central Asia,41.20438,74.766098,395.583835374318,2003,594,0,0,0,0,0,0,38,196,223,0,0,0,109,0,0,0,0,0,13,15,0,0,0
TH,Thailand,country,East Asia and Pacific,15.870032,100.992541,KG,Kyrgyz Rep.,country,Europe and Central Asia,41.20438,74.766098,3781.57391236422,2003,0,0,0,0,0,0,0,0,0,0,0,0,0,0,0,0,0,0,0,0,0,0,0,0
MK,Macedonia,country,Europe and Central Asia,41.608635,21.745275,KG,Kyrgyz Rep.,country,Europe and Central Asia,41.20438,74.766098,4354.91927691055,2003,0,0,0,0,0,0,0,0,0,0,0,0,0,0,0,0,0,0,0,0,0,0,0,0
TR,Turkey,country,Europe and Central Asia,38.963745,35.243322,KG,Kyrgyz Rep.,country,Europe and Central Asia,41.20438,74.766098,3346.42529719866,2003,2928,871,0,318,5,1,7,18,124,0,1,0,563,215,757,48,0,0,0,0,0,0,0,0
UA,Ukraine,country,Europe and Central Asia,48.379433,31.16558,KG,Kyrgyz Rep.,country,Europe and Central Asia,41.20438,74.766098,3485.87895909157,2003,4836,620,0,979,0,0,0,28,254,0,0,0,1460,20,718,471,0,0,286,0,0,0,0,0
AE,United Arab Emirates,country,Middle East and North Africa,23.424076,53.847818,KG,Kyrgyz Rep.,country,Europe and Central Asia,41.20438,74.766098,2776.56018974439,2003,719,0,0,120,0,0,0,2,1,0,0,0,125,2,463,5,0,0,0,1,0,0,0,0
GB,United Kingdom,country,Europe and Central Asia,55.378051,-3.435973,KG,Kyrgyz Rep.,country,Europe and Central Asia,41.20438,74.766098,5675.86439147661,2003,48,0,0,0,0,0,0,0,0,5,0,0,0,0,0,1,0,0,0,0,42,0,0,0
US,USA,country,North America,37.09024,-95.712891,KG,Kyrgyz Rep.,country,Europe and Central Asia,41.20438,74.766098,11267.9891011573,2003,6501,780,45,0,0,0,0,63,0,0,0,0,0,78,260,0,0,5224,51,0,0,0,0,0
UZ,Uzbekistan,country,Europe and Central Asia,41.377491,64.585262,KG,Kyrgyz Rep.,country,Europe and Central Asia,41.20438,74.766098,851.27358566864,2003,1002,330,0,0,0,0,0,46,116,86,0,42,20,96,1,226,0,0,4,0,35,0,0,0
VN,Vietnam,country,East Asia and Pacific,14.058324,108.277199,KG,Kyrgyz Rep.,country,Europe and Central Asia,41.20438,74.766098,4428.02840079114,2003,28,0,0,0,0,0,0,0,0,0,0,0,28,0,0,0,0,0,0,0,0,0,0,0
AF,Afghanistan,country,South Asia,33.93911,67.709953,KG,Kyrgyz Rep.,country,Europe and Central Asia,41.20438,74.766098,1019.83807119267,2004,100,0,0,0,0,0,0,0,0,80,0,0,0,0,0,0,0,0,0,20,0,0,0,0
AR,Argentina,country,Latin America and the Caribbean,-38.416097,-63.616672,KG,Kyrgyz Rep.,country,Europe and Central Asia,41.20438,74.766098,16499.1795479395,2004,27,0,0,0,0,0,0,0,27,0,0,0,0,0,0,0,0,0,0,0,0,0,0,0
AM,Armenia,country,Europe and Central Asia,40.069099,45.038189,KG,Kyrgyz Rep.,country,Europe and Central Asia,41.20438,74.766098,2502.21567122156,2004,1,0,0,0,0,0,0,0,0,0,0,0,0,0,0,1,0,0,0,0,0,0,0,0
AU,Australia,country,East Asia and Pacific,-25.274398,133.775136,KG,Kyrgyz Rep.,country,Europe and Central Asia,41.20438,74.766098,9577.95383436393,2004,0,0,0,0,0,0,0,0,0,0,0,0,0,0,0,0,0,0,0,0,0,0,0,0
AT,Austria,country,Europe and Central Asia,47.516231,14.550072,KG,Kyrgyz Rep.,country,Europe and Central Asia,41.20438,74.766098,4722.25921652766,2004,8,0,0,0,0,0,0,0,0,0,0,0,0,0,0,8,0,0,0,0,0,0,0,0
AZ,Azerbaijan,country,Europe and Central Asia,40.143105,47.576927,KG,Kyrgyz Rep.,country,Europe and Central Asia,41.20438,74.766098,2289.22478548816,2004,28,0,0,0,0,0,0,0,0,0,0,0,0,0,0,27,0,0,1,0,0,0,0,0
BS,The Bahamas,country,Latin America and the Caribbean,25.03428,-77.39628,KG,Kyrgyz Rep.,country,Europe and Central Asia,41.20438,74.766098,12123.5169837665,2004,1,0,0,0,0,0,0,0,0,0,0,0,0,0,0,1,0,0,0,0,0,0,0,0
BD,Bangladesh,country,South Asia,23.684994,90.356331,KG,Kyrgyz Rep.,country,Europe and Central Asia,41.20438,74.766098,2430.53657887284,2004,162,0,0,0,0,0,0,0,0,162,0,0,0,0,0,0,0,0,0,0,0,0,0,0
BY,Belarus,country,Europe and Central Asia,53.709807,27.953389,KG,Kyrgyz Rep.,country,Europe and Central Asia,41.20438,74.766098,3707.83252318164,2004,25,0,0,0,0,0,0,0,0,0,0,0,4,0,0,21,0,0,0,0,0,0,0,0
BE,Belgium,country,Europe and Central Asia,50.503887,4.469936,KG,Kyrgyz Rep.,country,Europe and Central Asia,41.20438,74.766098,5338.68825203297,2004,57,8,0,11,0,0,0,0,3,0,0,0,1,32,1,1,0,0,0,0,0,0,0,0
BR,Brazil,country,Latin America and the Caribbean,-14.235004,-51.92528,KG,Kyrgyz Rep.,country,Europe and Central Asia,41.20438,74.766098,14104.9642520286,2004,10408,0,0,10001,0,0,0,1,43,0,0,0,64,173,0,0,0,126,0,0,0,0,0,0
BG,Bulgaria,country,Europe and Central Asia,42.733883,25.48583,KG,Kyrgyz Rep.,country,Europe and Central Asia,41.20438,74.766098,4023.60981814916,2004,13,0,0,0,0,0,0,0,0,0,0,0,0,0,0,13,0,0,0,0,0,0,0,0
CA,Canada,country,North America,56.130366,-106.346771,KG,Kyrgyz Rep.,country,Europe and Central Asia,41.20438,74.766098,9201.74537147451,2004,2,0,0,1,0,0,0,0,1,0,0,0,0,0,0,0,0,0,0,0,0,0,0,0
CL,Chile,country,Latin America and the Caribbean,-35.675147,-71.542969,KG,Kyrgyz Rep.,country,Europe and Central Asia,41.20438,74.766098,17055.7004734971,2004,8,0,0,0,0,0,0,0,7,0,0,0,0,1,0,0,0,0,0,0,0,0,0,0
HK,Hong Kong,country,East Asia and Pacific,22.396428,114.109497,KG,Kyrgyz Rep.,country,Europe and Central Asia,41.20438,74.766098,4220.39207126255,2004,1,0,0,0,0,0,0,0,1,0,0,0,0,0,0,0,0,0,0,0,0,0,0,0
CN,China,country,East Asia and Pacific,35.86166,104.195397,KG,Kyrgyz Rep.,country,Europe and Central Asia,41.20438,74.766098,2617.35078545563,2004,22701,1236,0,45,0,0,3,1094,17323,124,16,1046,368,1329,33,23,9,40,21,0,0,0,0,0
CO,Colombia,country,Latin America and the Caribbean,4.570868,-74.297333,KG,Kyrgyz Rep.,country,Europe and Central Asia,41.20438,74.766098,14049.9095943979,2004,91,0,0,0,0,0,0,0,91,0,0,0,0,0,0,0,0,0,0,0,0,0,0,0
CR,Costa Rica,country,Latin America and the Caribbean,9.748917,-83.753428,KG,Kyrgyz Rep.,country,Europe and Central Asia,41.20438,74.766098,13952.969550441,2004,75,0,0,0,0,0,0,0,75,0,0,0,0,0,0,0,0,0,0,0,0,0,0,0
CU,Cuba,country,Latin America and the Caribbean,21.521757,-77.781167,KG,Kyrgyz Rep.,country,Europe and Central Asia,41.20438,74.766098,12500.9878639621,2004,0,0,0,0,0,0,0,0,0,0,0,0,0,0,0,0,0,0,0,0,0,0,0,0
CZ,Czech Republic,country,Europe and Central Asia,49.817492,15.472962,KG,Kyrgyz Rep.,country,Europe and Central Asia,41.20438,74.766098,4598.42272759781,2004,20,16,0,0,0,0,4,0,0,0,0,0,0,0,0,0,0,0,0,0,0,0,0,0
DK,Denmark,country,Europe and Central Asia,56.26392,9.501785,KG,Kyrgyz Rep.,country,Europe and Central Asia,41.20438,74.766098,4867.54543575004,2004,508,0,2,500,0,0,0,0,1,0,0,0,0,5,0,0,0,0,0,0,0,0,0,0
EC,Ecuador,country,Latin America and the Caribbean,-1.831239,-78.183406,KG,Kyrgyz Rep.,country,Europe and Central Asia,41.20438,74.766098,14882.4150424879,2004,1605,0,0,0,0,0,0,0,1605,0,0,0,0,0,0,0,0,0,0,0,0,0,0,0
EG,Egypt,country,Middle East and North Africa,26.820553,30.802498,KG,Kyrgyz Rep.,country,Europe and Central Asia,41.20438,74.766098,4307.28941215807,2004,82,0,0,0,0,0,0,0,82,0,0,0,0,0,0,0,0,0,0,0,0,0,0,0
EE,Estonia,country,Europe and Central Asia,58.595272,25.013607,KG,Kyrgyz Rep.,country,Europe and Central Asia,41.20438,74.766098,3936.16340474864,2004,15,0,0,0,0,0,0,0,0,0,0,0,15,0,0,0,0,0,0,0,0,0,0,0
FI,Finland,country,Europe and Central Asia,61.92411,25.748151,KG,Kyrgyz Rep.,country,Europe and Central Asia,41.20438,74.766098,3959.13118265701,2004,15,0,0,0,0,0,0,0,0,0,0,12,0,0,0,0,0,0,3,0,0,0,0,0
FR,France,country,Europe and Central Asia,46.227638,2.213749,KG,Kyrgyz Rep.,country,Europe and Central Asia,41.20438,74.766098,5657.44704841201,2004,66,0,0,10,0,0,0,0,1,0,0,0,40,0,0,14,0,1,0,0,0,0,0,0
GE,Georgia,country,Europe and Central Asia,42.315407,43.356892,KG,Kyrgyz Rep.,country,Europe and Central Asia,41.20438,74.766098,2596.25735281228,2004,76,0,0,0,0,0,0,0,0,0,0,0,0,0,0,76,0,0,0,0,0,0,0,0
DE,Germany,country,Europe and Central Asia,51.165691,10.451526,KG,Kyrgyz Rep.,country,Europe and Central Asia,41.20438,74.766098,4913.78032354948,2004,893,5,17,516,0,0,0,0,28,0,0,0,50,218,0,58,0,0,1,0,0,0,0,0
GR,Greece,country,Europe and Central Asia,39.074208,21.824312,KG,Kyrgyz Rep.,country,Europe and Central Asia,41.20438,74.766098,4441.20661165864,2004,95,0,0,0,0,0,0,0,2,0,0,0,0,93,0,0,0,0,0,0,0,0,0,0
GT,Guatemala,country,Latin America and the Caribbean,15.783471,-90.230759,KG,Kyrgyz Rep.,country,Europe and Central Asia,41.20438,74.766098,13507.6671089538,2004,5,0,0,0,0,0,0,0,0,0,0,0,0,5,0,0,0,0,0,0,0,0,0,0
HU,Hungary,country,Europe and Central Asia,47.162494,19.503304,KG,Kyrgyz Rep.,country,Europe and Central Asia,41.20438,74.766098,4367.8392295881,2004,2161,31,0,1,0,0,0,784,0,0,0,0,0,0,1340,0,0,5,0,0,0,0,0,0
IN,India,country,South Asia,20.593684,78.96288,KG,Kyrgyz Rep.,country,Europe and Central Asia,41.20438,74.766098,2328.34888884646,2004,106,0,0,0,0,0,0,0,0,0,0,0,97,9,0,0,0,0,0,0,0,0,0,0
ID,Indonesia,country,East Asia and Pacific,-0.789275,113.921327,KG,Kyrgyz Rep.,country,Europe and Central Asia,41.20438,74.766098,6117.07231616174,2004,513,0,0,0,0,0,0,0,0,0,0,0,0,0,513,0,0,0,0,0,0,0,0,0
IR,Iran,country,Middle East and North Africa,32.427908,53.688046,KG,Kyrgyz Rep.,country,Europe and Central Asia,41.20438,74.766098,2109.5291635246,2004,2675,129,0,31,0,27,0,219,519,0,2,191,62,111,569,1,0,0,0,0,814,0,0,0
IE,Ireland,country,Europe and Central Asia,53.41291,-8.24389,KG,Kyrgyz Rep.,country,Europe and Central Asia,41.20438,74.766098,6044.84752079556,2004,1,0,0,0,0,0,0,0,0,0,0,0,0,0,0,1,0,0,0,0,0,0,0,0
IL,Israel,country,Middle East and North Africa,31.046051,34.851612,KG,Kyrgyz Rep.,country,Europe and Central Asia,41.20438,74.766098,3726.3060121638,2004,48,0,0,0,0,0,0,0,6,0,0,0,0,42,0,0,0,0,0,0,0,0,0,0
IT,Italy,country,Europe and Central Asia,41.87194,12.56738,KG,Kyrgyz Rep.,country,Europe and Central Asia,41.20438,74.766098,5064.29814458202,2004,345,30,0,4,0,0,1,0,9,0,0,1,17,244,0,33,0,6,0,0,0,0,0,0
JP,Japan,country,East Asia and Pacific,36.204824,138.252924,KG,Kyrgyz Rep.,country,Europe and Central Asia,41.20438,74.766098,5420.32235754361,2004,0,0,0,0,0,0,0,0,0,0,0,0,0,0,0,0,0,0,0,0,0,0,0,0
KZ,Kazakhstan,country,Europe and Central Asia,48.019573,66.923684,KG,Kyrgyz Rep.,country,Europe and Central Asia,41.20438,74.766098,979.6552303062,2004,162197,84205,0,41028,0,3,187,139,1063,871,0,1524,278,2750,8602,14211,0,3,226,7013,94,0,0,0
LV,Latvia,country,Europe and Central Asia,56.879635,24.603189,KG,Kyrgyz Rep.,country,Europe and Central Asia,41.20438,74.766098,3941.40140129312,2004,2000,0,0,1997,0,0,0,3,0,0,0,0,0,0,0,0,0,0,0,0,0,0,0,0
LT,Lithuania,country,Europe and Central Asia,55.169438,23.881275,KG,Kyrgyz Rep.,country,Europe and Central Asia,41.20438,74.766098,3976.90247549544,2004,94,0,0,0,0,0,0,0,94,0,0,0,0,0,0,0,0,0,0,0,0,0,0,0
MG,Madagascar,country,Sub-Saharan Africa,-18.766947,46.869107,KG,Kyrgyz Rep.,country,Europe and Central Asia,41.20438,74.766098,7270.6899487195,2004,0,0,0,0,0,0,0,0,0,0,0,0,0,0,0,0,0,0,0,0,0,0,0,0
MW,Malawi,country,Sub-Saharan Africa,-13.254308,34.301525,KG,Kyrgyz Rep.,country,Europe and Central Asia,41.20438,74.766098,7351.36632206561,2004,23,0,0,0,0,0,0,0,0,0,0,0,23,0,0,0,0,0,0,0,0,0,0,0
MY,Malaysia,country,East Asia and Pacific,4.210484,101.975766,KG,Kyrgyz Rep.,country,Europe and Central Asia,41.20438,74.766098,4931.68766111627,2004,776,0,0,0,0,0,0,1,0,0,0,0,32,0,743,0,0,0,0,0,0,0,0,0
MX,Mexico,country,Latin America and the Caribbean,23.634501,-102.552784,KG,Kyrgyz Rep.,country,Europe and Central Asia,41.20438,74.766098,12814.3613891096,2004,9,0,0,0,0,0,0,0,0,0,0,0,0,0,0,9,0,0,0,0,0,0,0,0
MA,Morocco,country,Middle East and North Africa,31.791702,-7.09262,KG,Kyrgyz Rep.,country,Europe and Central Asia,41.20438,74.766098,7129.84745427709,2004,21,0,0,0,0,0,0,0,19,0,0,0,2,0,0,0,0,0,0,0,0,0,0,0
NL,Netherlands,country,Europe and Central Asia,52.132633,5.291266,KG,Kyrgyz Rep.,country,Europe and Central Asia,41.20438,74.766098,5232.32623700706,2004,318,43,38,138,0,0,0,54,14,0,0,0,9,4,0,18,0,0,0,0,0,0,0,0
NZ,New Zealand,country,East Asia and Pacific,-40.900557,174.885971,KG,Kyrgyz Rep.,country,Europe and Central Asia,41.20438,74.766098,13590.8692440269,2004,1,0,0,0,0,0,0,0,1,0,0,0,0,0,0,0,0,0,0,0,0,0,0,0
PK,Pakistan,country,South Asia,30.375321,69.345116,KG,Kyrgyz Rep.,country,Europe and Central Asia,41.20438,74.766098,1300.3546489322,2004,118,5,0,0,0,0,0,0,113,0,0,0,0,0,0,0,0,0,0,0,0,0,0,0
PA,Panama,country,Latin America and the Caribbean,8.537981,-80.782127,KG,Kyrgyz Rep.,country,Europe and Central Asia,41.20438,74.766098,13961.1294519326,2004,73,0,0,0,0,0,0,0,73,0,0,0,0,0,0,0,0,0,0,0,0,0,0,0
PH,Philippines,country,East Asia and Pacific,12.879721,121.774017,KG,Kyrgyz Rep.,country,Europe and Central Asia,41.20438,74.766098,5531.10898147665,2004,27,0,0,0,0,0,0,0,0,0,0,0,0,0,0,0,0,0,27,0,0,0,0,0
PL,Poland,country,Europe and Central Asia,51.919438,19.145136,KG,Kyrgyz Rep.,country,Europe and Central Asia,41.20438,74.766098,4306.81030487699,2004,7054,1,1,6896,0,0,0,3,0,0,5,64,19,65,0,0,0,0,0,0,0,0,0,0
KR,"Korea, Rep.",country,East Asia and Pacific,35.907757,127.766922,KG,Kyrgyz Rep.,country,Europe and Central Asia,41.20438,74.766098,4579.97308282654,2004,2067,13,0,0,0,0,4,0,0,0,0,0,0,2034,0,16,0,0,0,0,0,0,0,0
MD,Moldova,country,Europe and Central Asia,47.411631,28.369885,KG,Kyrgyz Rep.,country,Europe and Central Asia,41.20438,74.766098,3703.15449395914,2004,1242,0,0,0,0,0,0,163,53,0,0,0,0,1,266,739,0,20,0,0,0,0,0,0
RU,Russian Federation,country,Europe and Central Asia,61.52401,105.318756,KG,Kyrgyz Rep.,country,Europe and Central Asia,41.20438,74.766098,3048.06401012004,2004,41298,2646,1,4169,0,0,18,170,468,26,37,258,2596,1974,1581,25879,0,344,1131,0,0,0,0,0
RS,Serbia,country,Europe and Central Asia,44.016521,21.005859,KG,Kyrgyz Rep.,country,Europe and Central Asia,41.20438,74.766098,4336.91923931682,2004,0,0,0,0,0,0,0,0,0,0,0,0,0,0,0,0,0,0,0,0,0,0,0,0
SG,Singapore,country,East Asia and Pacific,1.352083,103.819836,KG,Kyrgyz Rep.,country,Europe and Central Asia,41.20438,74.766098,5309.6059327693,2004,216,1,0,0,0,0,0,0,0,0,0,0,215,0,0,0,0,0,0,0,0,0,0,0
SK,Slovak Rep.,country,Europe and Central Asia,48.669026,19.699024,KG,Kyrgyz Rep.,country,Europe and Central Asia,41.20438,74.766098,4320.87917811966,2004,12,0,0,0,0,0,0,0,0,0,0,0,0,12,0,0,0,0,0,0,0,0,0,0
SI,Slovenia,country,Europe and Central Asia,46.151241,14.995463,KG,Kyrgyz Rep.,country,Europe and Central Asia,41.20438,74.766098,4729.19313597041,2004,0,0,0,0,0,0,0,0,0,0,0,0,0,0,0,0,0,0,0,0,0,0,0,0
ZA,S. Africa,country,Sub-Saharan Africa,-30.559482,22.937506,KG,Kyrgyz Rep.,country,Europe and Central Asia,41.20438,74.766098,9600.93595584375,2004,2,0,0,0,0,0,0,0,2,0,0,0,0,0,0,0,0,0,0,0,0,0,0,0
ES,Spain,country,Europe and Central Asia,40.463667,-3.74922,KG,Kyrgyz Rep.,country,Europe and Central Asia,41.20438,74.766098,6369.24516689102,2004,267,0,0,2,0,0,8,1,122,0,0,0,0,106,11,17,0,0,0,0,0,0,0,0
LK,Sri Lanka,country,South Asia,7.873054,80.771797,KG,Kyrgyz Rep.,country,Europe and Central Asia,41.20438,74.766098,3757.64104604215,2004,2912,0,0,0,0,0,0,0,0,0,0,0,2912,0,0,0,0,0,0,0,0,0,0,0
SE,Sweden,country,Europe and Central Asia,60.128161,18.643501,KG,Kyrgyz Rep.,country,Europe and Central Asia,41.20438,74.766098,4311.38600596317,2004,1826,0,0,1800,0,0,0,0,0,0,0,0,13,13,0,0,0,0,0,0,0,0,0,0
CH,Switzerland,country,Europe and Central Asia,46.818188,8.227512,KG,Kyrgyz Rep.,country,Europe and Central Asia,41.20438,74.766098,5202.90859175089,2004,115,0,0,5,0,0,0,0,0,0,0,0,92,16,0,2,0,0,0,0,0,0,0,0
TJ,Tajikistan,country,Europe and Central Asia,38.861034,71.276093,KG,Kyrgyz Rep.,country,Europe and Central Asia,41.20438,74.766098,395.583835374318,2004,446,0,0,0,0,0,0,12,21,43,0,0,0,18,0,0,0,0,0,323,29,0,0,0
TH,Thailand,country,East Asia and Pacific,15.870032,100.992541,KG,Kyrgyz Rep.,country,Europe and Central Asia,41.20438,74.766098,3781.57391236422,2004,44,0,0,0,0,0,0,30,0,0,0,0,14,0,0,0,0,0,0,0,0,0,0,0
TR,Turkey,country,Europe and Central Asia,38.963745,35.243322,KG,Kyrgyz Rep.,country,Europe and Central Asia,41.20438,74.766098,3346.42529719866,2004,4692,1574,0,591,9,0,24,196,205,0,0,0,1054,542,454,39,0,0,4,0,0,0,0,0
TM,Turkmenistan,country,Europe and Central Asia,38.969719,59.556278,KG,Kyrgyz Rep.,country,Europe and Central Asia,41.20438,74.766098,1317.23522384383,2004,49,0,0,0,0,0,0,0,0,0,0,0,0,0,0,0,0,0,0,49,0,0,0,0
UA,Ukraine,country,Europe and Central Asia,48.379433,31.16558,KG,Kyrgyz Rep.,country,Europe and Central Asia,41.20438,74.766098,3485.87895909157,2004,11810,1181,0,4525,0,0,0,138,846,0,0,0,2844,81,693,972,0,0,530,0,0,0,0,0
AE,United Arab Emirates,country,Middle East and North Africa,23.424076,53.847818,KG,Kyrgyz Rep.,country,Europe and Central Asia,41.20438,74.766098,2776.56018974439,2004,666,0,0,0,0,0,0,52,0,0,0,0,25,12,562,7,0,0,0,8,0,0,0,0
GB,United Kingdom,country,Europe and Central Asia,55.378051,-3.435973,KG,Kyrgyz Rep.,country,Europe and Central Asia,41.20438,74.766098,5675.86439147661,2004,4,0,0,1,0,0,0,0,0,0,0,0,0,0,0,3,0,0,0,0,0,0,0,0
US,USA,country,North America,37.09024,-95.712891,KG,Kyrgyz Rep.,country,Europe and Central Asia,41.20438,74.766098,11267.9891011573,2004,13360,3227,62,0,0,0,0,40,1,0,0,0,0,82,2041,0,0,7902,5,0,0,0,0,0
UZ,Uzbekistan,country,Europe and Central Asia,41.377491,64.585262,KG,Kyrgyz Rep.,country,Europe and Central Asia,41.20438,74.766098,851.27358566864,2004,21623,20935,0,0,0,0,0,8,0,131,0,0,21,90,0,394,0,0,15,2,27,0,0,0
VN,Vietnam,country,East Asia and Pacific,14.058324,108.277199,KG,Kyrgyz Rep.,country,Europe and Central Asia,41.20438,74.766098,4428.02840079114,2004,149,0,0,0,0,0,0,0,0,0,0,0,149,0,0,0,0,0,0,0,0,0,0,0
AF,Afghanistan,country,South Asia,33.93911,67.709953,KG,Kyrgyz Rep.,country,Europe and Central Asia,41.20438,74.766098,1019.83807119267,2005,259,0,0,0,0,0,0,0,0,259,0,0,0,0,0,0,0,0,0,0,0,0,0,0
AR,Argentina,country,Latin America and the Caribbean,-38.416097,-63.616672,KG,Kyrgyz Rep.,country,Europe and Central Asia,41.20438,74.766098,16499.1795479395,2005,718,0,0,0,0,0,0,0,193,0,0,480,0,40,0,0,0,5,0,0,0,0,0,0
AM,Armenia,country,Europe and Central Asia,40.069099,45.038189,KG,Kyrgyz Rep.,country,Europe and Central Asia,41.20438,74.766098,2502.21567122156,2005,0,0,0,0,0,0,0,0,0,0,0,0,0,0,0,0,0,0,0,0,0,0,0,0
AU,Australia,country,East Asia and Pacific,-25.274398,133.775136,KG,Kyrgyz Rep.,country,Europe and Central Asia,41.20438,74.766098,9577.95383436393,2005,0,0,0,0,0,0,0,0,0,0,0,0,0,0,0,0,0,0,0,0,0,0,0,0
AT,Austria,country,Europe and Central Asia,47.516231,14.550072,KG,Kyrgyz Rep.,country,Europe and Central Asia,41.20438,74.766098,4722.25921652766,2005,36,29,0,1,0,0,0,0,0,0,0,0,0,1,0,5,0,0,0,0,0,0,0,0
AZ,Azerbaijan,country,Europe and Central Asia,40.143105,47.576927,KG,Kyrgyz Rep.,country,Europe and Central Asia,41.20438,74.766098,2289.22478548816,2005,60,0,0,0,0,0,0,0,0,0,0,0,0,0,60,0,0,0,0,0,0,0,0,0
BS,The Bahamas,country,Latin America and the Caribbean,25.03428,-77.39628,KG,Kyrgyz Rep.,country,Europe and Central Asia,41.20438,74.766098,12123.5169837665,2005,0,0,0,0,0,0,0,0,0,0,0,0,0,0,0,0,0,0,0,0,0,0,0,0
BY,Belarus,country,Europe and Central Asia,53.709807,27.953389,KG,Kyrgyz Rep.,country,Europe and Central Asia,41.20438,74.766098,3707.83252318164,2005,424,319,0,0,0,0,0,0,0,0,0,0,0,0,32,59,0,0,14,0,0,0,0,0
BE,Belgium,country,Europe and Central Asia,50.503887,4.469936,KG,Kyrgyz Rep.,country,Europe and Central Asia,41.20438,74.766098,5338.68825203297,2005,78,33,0,0,0,0,0,0,0,0,0,0,1,44,0,0,0,0,0,0,0,0,0,0
BR,Brazil,country,Latin America and the Caribbean,-14.235004,-51.92528,KG,Kyrgyz Rep.,country,Europe and Central Asia,41.20438,74.766098,14104.9642520286,2005,1021,0,0,1,0,0,0,0,0,0,0,0,112,285,0,0,0,623,0,0,0,0,0,0
BG,Bulgaria,country,Europe and Central Asia,42.733883,25.48583,KG,Kyrgyz Rep.,country,Europe and Central Asia,41.20438,74.766098,4023.60981814916,2005,50,0,0,0,0,0,0,0,0,0,0,0,0,0,50,0,0,0,0,0,0,0,0,0
CA,Canada,country,North America,56.130366,-106.346771,KG,Kyrgyz Rep.,country,Europe and Central Asia,41.20438,74.766098,9201.74537147451,2005,6,0,0,0,0,0,0,0,1,0,0,0,0,5,0,0,0,0,0,0,0,0,0,0
CL,Chile,country,Latin America and the Caribbean,-35.675147,-71.542969,KG,Kyrgyz Rep.,country,Europe and Central Asia,41.20438,74.766098,17055.7004734971,2005,18,0,0,0,0,0,0,0,18,0,0,0,0,0,0,0,0,0,0,0,0,0,0,0
CN,China,country,East Asia and Pacific,35.86166,104.195397,KG,Kyrgyz Rep.,country,Europe and Central Asia,41.20438,74.766098,2617.35078545563,2005,49005,4688,0,522,2,0,10,1031,39126,303,212,1,375,1572,233,0,11,888,42,0,0,0,0,0
CO,Colombia,country,Latin America and the Caribbean,4.570868,-74.297333,KG,Kyrgyz Rep.,country,Europe and Central Asia,41.20438,74.766098,14049.9095943979,2005,3,0,0,3,0,0,0,0,0,0,0,0,0,0,0,0,0,0,0,0,0,0,0,0
CR,Costa Rica,country,Latin America and the Caribbean,9.748917,-83.753428,KG,Kyrgyz Rep.,country,Europe and Central Asia,41.20438,74.766098,13952.969550441,2005,2,0,0,0,0,0,0,0,2,0,0,0,0,0,0,0,0,0,0,0,0,0,0,0
CU,Cuba,country,Latin America and the Caribbean,21.521757,-77.781167,KG,Kyrgyz Rep.,country,Europe and Central Asia,41.20438,74.766098,12500.9878639621,2005,18923,0,0,18923,0,0,0,0,0,0,0,0,0,0,0,0,0,0,0,0,0,0,0,0
CZ,Czech Republic,country,Europe and Central Asia,49.817492,15.472962,KG,Kyrgyz Rep.,country,Europe and Central Asia,41.20438,74.766098,4598.42272759781,2005,26,16,0,2,0,0,6,0,1,0,0,0,0,1,0,0,0,0,0,0,0,0,0,0
