sourceCode,sourceName,sourceGrouping,sourceRegion,sourceLat,sourceLong,destCode,destName,destGrouping,destRegion,destLat,destLong,distance,year,totalTons,cereals,roots,sugarCrops,pulses,nuts,oilCrops,vegetables,fruits,fibers,spices,fodderCrops,coffeeTea,tobaccoRubber,oilsFats,beverages,livestock,animalMeats,animalProducts,animalHides,nimalOther,pesticides,fertilizers,machinery
AF,Afghanistan,country,South Asia,33.93911,67.709953,NL,Netherlands,country,Europe and Central Asia,52.132633,5.291266,5279.45682081029,1986,269,0,0,0,0,0,0,0,98,171,0,0,0,0,0,0,0,0,0,0,0,0,0,0
AL,Albania,country,Europe and Central Asia,41.153332,20.168331,NL,Netherlands,country,Europe and Central Asia,52.132633,5.291266,1662.94804970163,1986,126,0,0,0,0,0,0,126,0,0,0,0,0,0,0,0,0,0,0,0,0,0,0,0
DZ,Algeria,country,Middle East and North Africa,28.033886,1.659626,NL,Netherlands,country,Europe and Central Asia,52.132633,5.291266,2699.60562180564,1986,172,0,0,0,0,0,0,0,106,0,0,0,0,0,20,41,0,0,3,2,0,0,0,0
AD,Andorra,country,Europe and Central Asia,42.546245,1.601554,NL,Netherlands,country,Europe and Central Asia,52.132633,5.291266,1102.47424631417,1986,42,0,0,0,0,0,0,0,0,0,0,0,0,0,0,0,0,0,42,0,0,0,0,0
AO,Angola,country,Sub-Saharan Africa,-11.202692,17.873887,NL,Netherlands,country,Europe and Central Asia,52.132633,5.291266,7153.26012887309,1986,285,0,0,0,0,0,0,0,0,0,0,0,265,20,0,0,0,0,0,0,0,0,0,0
AG,Antigua & Barbuda,country,Latin America and the Caribbean,17.060816,-61.796428,NL,Netherlands,country,Europe and Central Asia,52.132633,5.291266,6969.51561496829,1986,263,0,0,0,0,0,0,263,0,0,0,0,0,0,0,0,0,0,0,0,0,0,0,0
AR,Argentina,country,Latin America and the Caribbean,-38.416097,-63.616672,NL,Netherlands,country,Europe and Central Asia,52.132633,5.291266,12079.141599911,1986,1547850,27116,0,510,20709,14,410718,109,76222,419,7,931508,2750,2889,61379,41,0,13454,5,0,0,0,0,0
AU,Australia,country,East Asia and Pacific,-25.274398,133.775136,NL,Netherlands,country,Europe and Central Asia,52.132633,5.291266,14809.6240060143,1986,201211,1433,0,1,2850,3,3361,894,4889,710,0,9384,23,172043,2413,146,0,2006,572,483,0,0,0,0
AT,Austria,country,Europe and Central Asia,47.516231,14.550072,NL,Netherlands,country,Europe and Central Asia,52.132633,5.291266,839.291618013374,1986,40598,771,147,1427,369,6,2,1034,512,63,5,25836,14,5701,3941,45,0,530,63,97,35,0,0,0
BS,The Bahamas,country,Latin America and the Caribbean,25.03428,-77.39628,NL,Netherlands,country,Europe and Central Asia,52.132633,5.291266,7360.27731343498,1986,735,0,0,0,0,0,0,0,0,0,0,0,0,0,0,735,0,0,0,0,0,0,0,0
BH,Bahrain,country,Middle East and North Africa,25.930414,50.637772,NL,Netherlands,country,Europe and Central Asia,52.132633,5.291266,4769.58515039393,1986,72,3,13,1,0,0,0,0,0,0,0,0,0,0,0,0,0,2,53,0,0,0,0,0
BD,Bangladesh,country,South Asia,23.684994,90.356331,NL,Netherlands,country,Europe and Central Asia,52.132633,5.291266,7632.39230045145,1986,2103,0,0,0,0,0,0,0,0,1834,0,0,119,37,0,0,0,113,0,0,0,0,0,0
BB,Barbados,country,Latin America and the Caribbean,13.193887,-59.543198,NL,Netherlands,country,Europe and Central Asia,52.132633,5.291266,7153.16360523428,1986,44,0,3,0,0,0,0,4,0,0,14,0,0,17,0,4,0,0,2,0,0,0,0,0
BE,Belgium,country,Europe and Central Asia,50.503887,4.469936,NL,Netherlands,country,Europe and Central Asia,52.132633,5.291266,190.099464170486,1986,3129176,1114164,429670,125068,556,1081,3066,26436,49224,1467,1343,589127,5409,108341,112955,176399,6630,69971,299298,14443,1158,0,0,0
BZ,Belize,country,Latin America and the Caribbean,17.189877,-88.49765,NL,Netherlands,country,Europe and Central Asia,52.132633,5.291266,8769.87266567711,1986,7,0,0,0,0,0,0,0,6,0,0,0,0,1,0,0,0,0,0,0,0,0,0,0
BJ,Benin,country,Sub-Saharan Africa,9.30769,2.315834,NL,Netherlands,country,Europe and Central Asia,52.132633,5.291266,4774.9082272955,1986,4254,0,0,0,0,0,820,0,0,0,0,250,3184,0,0,0,0,0,0,0,0,0,0,0
BM,Bermuda,country,North America,32.321384,-64.75737,NL,Netherlands,country,Europe and Central Asia,52.132633,5.291266,5921.69264374945,1986,4,0,0,0,0,0,0,0,0,0,0,0,0,0,0,4,0,0,0,0,0,0,0,0
BO,Bolivia,country,Latin America and the Caribbean,-16.290154,-63.588653,NL,Netherlands,country,Europe and Central Asia,52.132633,5.291266,10077.035745454,1986,191,0,0,0,0,0,0,0,0,0,0,0,191,0,0,0,0,0,0,0,0,0,0,0
BW,Botswana,country,Sub-Saharan Africa,-22.328474,24.684866,NL,Netherlands,country,Europe and Central Asia,52.132633,5.291266,8501.31391137111,1986,1967,0,0,0,0,0,0,0,0,0,0,0,0,0,0,0,0,1967,0,0,0,0,0,0
BR,Brazil,country,Latin America and the Caribbean,-14.235004,-51.92528,NL,Netherlands,country,Europe and Central Asia,52.132633,5.291266,9199.82378426808,1986,1536771,6450,560,85137,3974,722,199226,2071,164741,60,1004,1014718,25760,15980,8112,35,0,8171,50,0,0,0,0,0
BN,Brunei Darussalam,country,,4.535277,114.727669,NL,Netherlands,country,Europe and Central Asia,52.132633,5.291266,10922.3526361993,1986,0,0,0,0,0,0,0,0,0,0,0,0,0,0,0,0,0,0,0,0,0,0,0,0
BG,Bulgaria,country,Europe and Central Asia,42.733883,25.48583,NL,Netherlands,country,Europe and Central Asia,52.132633,5.291266,1835.89390091094,1986,4728,0,0,680,4,37,45,1439,1908,10,0,190,1,209,0,126,0,79,0,0,0,0,0,0
BF,Burkina Faso,country,Sub-Saharan Africa,12.238333,-1.561593,NL,Netherlands,country,Europe and Central Asia,52.132633,5.291266,4483.46337679662,1986,369,0,0,0,0,0,0,174,191,0,0,0,4,0,0,0,0,0,0,0,0,0,0,0
BI,Burundi,country,Sub-Saharan Africa,-3.373056,29.918886,NL,Netherlands,country,Europe and Central Asia,52.132633,5.291266,6600.94270771684,1986,1187,46,0,0,0,0,0,0,0,0,0,0,1140,0,0,0,0,0,1,0,0,0,0,0
CM,Cameroon,country,Sub-Saharan Africa,7.369722,12.354722,NL,Netherlands,country,Europe and Central Asia,52.132633,5.291266,5024.69498467425,1986,88438,0,0,0,0,0,0,6,167,0,0,4572,74456,383,8848,0,0,0,6,0,0,0,0,0
CA,Canada,country,North America,56.130366,-106.346771,NL,Netherlands,country,Europe and Central Asia,52.132633,5.291266,6460.97044969052,1986,181948,47808,0,168,34109,30,55776,85,1483,0,2,14291,46,2360,21991,112,12,2215,0,1472,0,0,0,0
CF,Central African Rep.,country,Sub-Saharan Africa,6.611111,20.939444,NL,Netherlands,country,Europe and Central Asia,52.132633,5.291266,5266.43794215381,1986,769,0,0,25,0,0,9,0,0,0,0,0,729,6,0,0,0,0,0,0,0,0,0,0
CL,Chile,country,Latin America and the Caribbean,-35.675147,-71.542969,NL,Netherlands,country,Europe and Central Asia,52.132633,5.291266,12277.7125187572,1986,106515,3,0,0,849,0,0,1255,103910,38,0,0,0,19,0,4,0,97,20,320,0,0,0,0
HK,Hong Kong,country,East Asia and Pacific,22.396428,114.109497,NL,Netherlands,country,Europe and Central Asia,52.132633,5.291266,9266.1960756805,1986,2485,566,0,16,3,5,12,370,642,0,11,0,75,754,1,20,0,4,6,0,0,0,0,0
MO,"Macao SAR, China",country,East Asia and Pacific,22.198745,113.543873,NL,Netherlands,country,Europe and Central Asia,52.132633,5.291266,9249.87767304284,1986,1,0,0,0,0,0,0,0,0,0,0,0,0,1,0,0,0,0,0,0,0,0,0,0
CN,China,country,East Asia and Pacific,35.86166,104.195397,NL,Netherlands,country,Europe and Central Asia,52.132633,5.291266,7494.7853167023,1986,166745,2994,23430,1269,9389,51,27355,7916,1620,89,430,75786,2182,7820,6282,61,0,28,43,0,0,0,0,0
TW,Taiwan,country,East Asia and Pacific,23.69781,120.960515,NL,Netherlands,country,Europe and Central Asia,52.132633,5.291266,9547.580136744,1986,7629,262,0,15,4,0,0,5232,457,18,74,0,11,400,232,29,0,23,872,0,0,0,0,0
CO,Colombia,country,Latin America and the Caribbean,4.570868,-74.297333,NL,Netherlands,country,Europe and Central Asia,52.132633,5.291266,8906.59625265782,1986,77201,0,0,18,0,0,38,43,32422,44,0,0,44036,600,0,0,0,0,0,0,0,0,0,0
KM,Comoros,country,Sub-Saharan Africa,-11.875001,43.872219,NL,Netherlands,country,Europe and Central Asia,52.132633,5.291266,8027.61704570925,1986,143,0,0,0,0,0,0,0,0,0,143,0,0,0,0,0,0,0,0,0,0,0,0,0
CG,"Congo, Rep.",country,Sub-Saharan Africa,-0.228021,15.827659,NL,Netherlands,country,Europe and Central Asia,52.132633,5.291266,5911.71061028531,1986,667,0,0,0,0,0,0,0,0,0,0,0,640,0,27,0,0,0,0,0,0,0,0,0
CR,Costa Rica,country,Latin America and the Caribbean,9.748917,-83.753428,NL,Netherlands,country,Europe and Central Asia,52.132633,5.291266,9098.63299061578,1986,20605,0,492,0,0,0,420,27,11810,0,128,0,1439,6288,0,1,0,0,0,0,0,0,0,0
CI,Ivory Coast,country,Sub-Saharan Africa,7.539989,-5.54708,NL,Netherlands,country,Europe and Central Asia,52.132633,5.291266,5061.89043335153,1986,166183,0,0,0,0,0,6037,5,17796,0,16,1511,127478,250,13090,0,0,0,0,0,0,0,0,0
CU,Cuba,country,Latin America and the Caribbean,21.521757,-77.781167,NL,Netherlands,country,Europe and Central Asia,52.132633,5.291266,7680.26012994792,1986,17289,6,0,1326,0,0,0,9,13899,133,0,0,173,1736,0,7,0,0,0,0,0,0,0,0
CY,Cyprus,country,Europe and Central Asia,35.126413,33.429859,NL,Netherlands,country,Europe and Central Asia,52.132633,5.291266,2921.22701048965,1986,22184,0,151,0,0,0,0,8,21334,0,11,585,0,22,0,54,0,19,0,0,0,0,0,0
CZ,Czech Republic,country,Europe and Central Asia,49.817492,15.472962,NL,Netherlands,country,Europe and Central Asia,52.132633,5.291266,757.989030977363,1986,5600,0,0,35,622,0,20,194,1713,0,40,0,35,705,43,66,0,291,1795,41,0,0,0,0
CD,"Congo, Dem. Rep.",country,Sub-Saharan Africa,-4.038333,21.758664,NL,Netherlands,country,Europe and Central Asia,52.132633,5.291266,6443.87930415401,1986,7950,0,0,0,0,0,0,0,0,0,1,4047,795,94,3005,0,0,0,8,0,0,0,0,0
DK,Denmark,country,Europe and Central Asia,56.26392,9.501785,NL,Netherlands,country,Europe and Central Asia,52.132633,5.291266,535.199061695428,1986,172684,67004,110,2136,1,2,57746,86,248,17,0,14296,138,18924,4069,385,3,687,6816,19,0,0,0,0
DM,Dominica,country,Latin America and the Caribbean,15.414999,-61.370976,NL,Netherlands,country,Europe and Central Asia,52.132633,5.291266,7082.57846164332,1986,2,0,0,0,0,0,0,0,0,0,0,0,0,2,0,0,0,0,0,0,0,0,0,0
DO,Dominican Republic,country,Latin America and the Caribbean,18.735693,-70.162651,NL,Netherlands,country,Europe and Central Asia,52.132633,5.291266,7397.04097096439,1986,1668,0,0,0,0,0,1122,0,56,0,24,0,187,273,0,0,0,0,6,0,0,0,0,0
EC,Ecuador,country,Latin America and the Caribbean,-1.831239,-78.183406,NL,Netherlands,country,Europe and Central Asia,52.132633,5.291266,9734.86379118107,1986,23566,0,37,0,0,0,0,199,22205,0,0,0,884,4,237,0,0,0,0,0,0,0,0,0
EG,Egypt,country,Middle East and North Africa,26.820553,30.802498,NL,Netherlands,country,Europe and Central Asia,52.132633,5.291266,3531.6048959239,1986,13712,0,49,0,0,0,393,11912,288,0,2,0,0,874,0,27,0,0,167,0,0,0,0,0
SV,El Salvador,country,Latin America and the Caribbean,13.794185,-88.89653,NL,Netherlands,country,Europe and Central Asia,52.132633,5.291266,9092.61473080207,1986,2562,0,0,33,0,0,233,57,56,16,0,250,1269,646,0,0,0,2,0,0,0,0,0,0
GQ,Equatorial Guinea,country,Sub-Saharan Africa,1.650801,10.267895,NL,Netherlands,country,Europe and Central Asia,52.132633,5.291266,5638.71300202098,1986,1155,0,0,0,0,0,0,0,0,0,0,0,1155,0,0,0,0,0,0,0,0,0,0,0
ET,Ethiopia,country,Sub-Saharan Africa,9.145,40.489673,NL,Netherlands,country,Europe and Central Asia,52.132633,5.291266,5747.77550162016,1986,21508,0,0,11098,228,0,118,1224,11,0,1,2,7598,1104,0,0,0,0,124,0,0,0,0,0
FO,Faroe Islands,country,Europe and Central Asia,61.892635,-6.911806,NL,Netherlands,country,Europe and Central Asia,52.132633,5.291266,1309.67688145428,1986,23,0,0,0,0,0,0,0,0,0,0,0,0,0,23,0,0,0,0,0,0,0,0,0
FJ,Fiji,country,East Asia and Pacific,-16.578193,179.414413,NL,Netherlands,country,Europe and Central Asia,52.132633,5.291266,16045.8149605478,1986,50,0,0,0,0,0,0,0,50,0,0,0,0,0,0,0,0,0,0,0,0,0,0,0
FI,Finland,country,Europe and Central Asia,61.92411,25.748151,NL,Netherlands,country,Europe and Central Asia,52.132633,5.291266,1637.7442410538,1986,5535,951,43,73,0,7,0,213,169,0,37,0,265,62,1723,9,0,1,1914,68,0,0,0,0
FR,France,country,Europe and Central Asia,46.227638,2.213749,NL,Netherlands,country,Europe and Central Asia,52.132633,5.291266,694.275225072112,1986,2962090,2196921,20699,25317,1866,53,44516,3697,88656,646,269,329363,3907,32623,27506,19,754,12289,170041,3702,0,0,0,0
GF,French Guiana,country,Latin America and the Caribbean,3.933889,-53.125782,NL,Netherlands,country,Europe and Central Asia,52.132633,5.291266,7567.79208803929,1986,99,95,0,0,0,0,0,0,4,0,0,0,0,0,0,0,0,0,0,0,0,0,0,0
PF,French Polynesia,country,East Asia and Pacific,-17.679742,-149.406843,NL,Netherlands,country,Europe and Central Asia,52.132633,5.291266,15609.0170889144,1986,537,0,0,0,0,0,0,0,0,0,0,500,0,1,35,0,0,1,0,0,0,0,0,0
GA,Gabon,country,Sub-Saharan Africa,-0.803689,11.609444,NL,Netherlands,country,Europe and Central Asia,52.132633,5.291266,5922.59012584119,1986,1296,0,0,0,0,0,0,0,0,0,0,0,1296,0,0,0,0,0,0,0,0,0,0,0
GM,The Gambia,country,Sub-Saharan Africa,13.443182,-15.310139,NL,Netherlands,country,Europe and Central Asia,52.132633,5.291266,4682.8299023008,1986,26,0,0,0,0,0,26,0,0,0,0,0,0,0,0,0,0,0,0,0,0,0,0,0
GH,Ghana,country,Sub-Saharan Africa,7.946527,-1.023194,NL,Netherlands,country,Europe and Central Asia,52.132633,5.291266,4952.43453029495,1986,3175,5,17,0,0,0,114,0,78,0,0,0,2786,175,0,0,0,0,0,0,0,0,0,0
GI,Gibraltar,country,Europe and Central Asia,36.137741,-5.345374,NL,Netherlands,country,Europe and Central Asia,52.132633,5.291266,1968.11262787063,1986,113,0,26,0,0,0,0,2,10,0,0,37,8,1,0,0,0,1,28,0,0,0,0,0
GR,Greece,country,Europe and Central Asia,39.074208,21.824312,NL,Netherlands,country,Europe and Central Asia,52.132633,5.291266,1932.73806101011,1986,155253,23016,232,17,0,0,42107,12123,70683,324,5,83,8,3024,138,2631,0,442,420,0,0,0,0,0
GL,Greenland,country,Europe and Central Asia,71.706936,-42.604303,NL,Netherlands,country,Europe and Central Asia,52.132633,5.291266,3173.90045043524,1986,27,0,0,0,0,0,0,0,0,0,0,0,0,5,0,0,0,22,0,0,0,0,0,0
GD,Grenada,country,Latin America and the Caribbean,12.262776,-61.604171,NL,Netherlands,country,Europe and Central Asia,52.132633,5.291266,7372.78957887027,1986,491,0,0,0,0,0,0,0,0,0,437,0,54,0,0,0,0,0,0,0,0,0,0,0
GT,Guatemala,country,Latin America and the Caribbean,15.783471,-90.230759,NL,Netherlands,country,Europe and Central Asia,52.132633,5.291266,9007.49924080917,1986,10847,0,0,20,0,1,883,150,796,0,84,0,2819,6094,0,0,0,0,0,0,0,0,0,0
GN,Guinea,country,Sub-Saharan Africa,9.945587,-9.696645,NL,Netherlands,country,Europe and Central Asia,52.132633,5.291266,4888.42740265752,1986,9614,0,0,0,0,0,0,0,51,0,1,9254,308,0,0,0,0,0,0,0,0,0,0,0
GY,Guyana,country,Latin America and the Caribbean,4.860416,-58.93018,NL,Netherlands,country,Europe and Central Asia,52.132633,5.291266,7854.28663904211,1986,13440,13392,0,0,0,0,0,0,17,0,0,0,0,18,0,13,0,0,0,0,0,0,0,0
HT,Haiti,country,Latin America and the Caribbean,18.971187,-72.285215,NL,Netherlands,country,Europe and Central Asia,52.132633,5.291266,7522.06589738054,1986,1207,0,0,0,0,0,0,0,225,0,1,0,969,12,0,0,0,0,0,0,0,0,0,0
HN,Honduras,country,Latin America and the Caribbean,15.199999,-86.241905,NL,Netherlands,country,Europe and Central Asia,52.132633,5.291266,8792.1412930647,1986,31925,0,0,0,0,0,37,0,14306,0,2,0,1097,1366,15009,0,0,0,0,108,0,0,0,0
HU,Hungary,country,Europe and Central Asia,47.162494,19.503304,NL,Netherlands,country,Europe and Central Asia,52.132633,5.291266,1161.43710178692,1986,54109,2769,0,1085,5487,0,2624,5229,2652,1,231,7879,30,4547,19076,180,0,2206,109,4,0,0,0,0
IS,Iceland,country,Europe and Central Asia,64.963051,-19.020835,NL,Netherlands,country,Europe and Central Asia,52.132633,5.291266,1984.31748040656,1986,128,0,5,0,0,0,0,5,0,0,0,60,0,33,0,1,0,0,24,0,0,0,0,0
IN,India,country,South Asia,20.593684,78.96288,NL,Netherlands,country,Europe and Central Asia,52.132633,5.291266,7118.41160611993,1986,160027,250,0,0,0,1387,1347,222,1144,0,727,142453,7459,2654,2364,0,0,15,5,0,0,0,0,0
ID,Indonesia,country,East Asia and Pacific,-0.789275,113.921327,NL,Netherlands,country,Europe and Central Asia,52.132633,5.291266,11348.3157118067,1986,594098,1762,150038,131633,38,0,160,19,388,0,4821,128993,15217,13140,147568,19,0,301,0,1,0,0,0,0
IR,Iran,country,Middle East and North Africa,32.427908,53.688046,NL,Netherlands,country,Europe and Central Asia,52.132633,5.291266,4439.92349164564,1986,40438,0,0,39560,0,60,0,161,371,216,47,0,0,23,0,0,0,0,0,0,0,0,0,0
IQ,Iraq,country,Middle East and North Africa,33.223191,43.679291,NL,Netherlands,country,Europe and Central Asia,52.132633,5.291266,3716.01489657068,1986,871,0,0,0,0,0,0,0,836,0,0,0,0,0,0,35,0,0,0,0,0,0,0,0
IE,Ireland,country,Europe and Central Asia,53.41291,-8.24389,NL,Netherlands,country,Europe and Central Asia,52.132633,5.291266,921.16427694974,1986,114124,6747,54,3548,10,0,0,5709,285,15,0,1535,23,4248,5757,1393,0,4994,75974,3832,0,0,0,0
IL,Israel,country,Middle East and North Africa,31.046051,34.851612,NL,Netherlands,country,Europe and Central Asia,52.132633,5.291266,3357.92420509801,1986,79799,128,6060,0,1,6,0,6105,54158,9,10,690,3,12310,28,43,0,92,156,0,0,0,0,0
IT,Italy,country,Europe and Central Asia,41.87194,12.56738,NL,Netherlands,country,Europe and Central Asia,52.132633,5.291266,1267.24888463599,1986,331009,123566,13959,344,155,187,89,53090,67272,50,353,2347,1594,27612,13430,20100,7,2573,3934,354,0,0,0,0
JM,Jamaica,country,Latin America and the Caribbean,18.109581,-77.297508,NL,Netherlands,country,Europe and Central Asia,52.132633,5.291266,7936.89550568616,1986,1432,0,3,0,0,0,0,21,1029,0,47,0,50,155,0,127,0,0,0,0,0,0,0,0
JP,Japan,country,East Asia and Pacific,36.204824,138.252924,NL,Netherlands,country,Europe and Central Asia,52.132633,5.291266,9195.35225352267,1986,3979,990,2,40,3,0,1,25,1034,0,1,27,10,1646,97,88,0,0,0,15,0,0,0,0
JO,Jordan,country,Middle East and North Africa,30.585164,36.238414,NL,Netherlands,country,Europe and Central Asia,52.132633,5.291266,3479.04398919673,1986,1514,0,0,0,0,0,2,6,1438,0,0,0,47,2,0,0,0,0,19,0,0,0,0,0
KE,Kenya,country,Sub-Saharan Africa,-0.023559,37.906193,NL,Netherlands,country,Europe and Central Asia,52.132633,5.291266,6555.35341996734,1986,25515,1,0,0,1287,243,1006,387,6297,0,1,1477,10973,3843,0,0,0,0,0,0,0,0,0,0
KW,Kuwait,country,Middle East and North Africa,29.31166,47.481766,NL,Netherlands,country,Europe and Central Asia,52.132633,5.291266,4281.29675541009,1986,107,0,7,15,18,0,0,0,0,0,0,0,0,5,0,0,0,0,62,0,0,0,0,0
LB,Lebanon,country,Middle East and North Africa,33.854721,35.862285,NL,Netherlands,country,Europe and Central Asia,52.132633,5.291266,3174.31364895422,1986,160,1,0,2,0,0,0,1,0,0,0,0,0,15,0,139,0,0,2,0,0,0,0,0
LR,Liberia,country,Sub-Saharan Africa,6.428055,-9.429499,NL,Netherlands,country,Europe and Central Asia,52.132633,5.291266,5263.88092790403,1986,5051,0,0,0,0,0,0,0,0,0,0,331,4306,414,0,0,0,0,0,0,0,0,0,0
LY,Libya,country,Middle East and North Africa,26.3351,17.228331,NL,Netherlands,country,Europe and Central Asia,52.132633,5.291266,3041.46928732948,1986,3,0,0,0,0,0,0,0,0,0,0,0,0,3,0,0,0,0,0,0,0,0,0,0
MG,Madagascar,country,Sub-Saharan Africa,-18.766947,46.869107,NL,Netherlands,country,Europe and Central Asia,52.132633,5.291266,8859.24907976815,1986,1271,0,0,0,0,0,0,0,9,0,1015,0,236,3,0,0,0,0,8,0,0,0,0,0
MW,Malawi,country,Sub-Saharan Africa,-13.254308,34.301525,NL,Netherlands,country,Europe and Central Asia,52.132633,5.291266,7795.73578475551,1986,11367,0,0,0,80,0,57,0,0,0,14,0,718,10498,0,0,0,0,0,0,0,0,0,0
MY,Malaysia,country,East Asia and Pacific,4.210484,101.975766,NL,Netherlands,country,Europe and Central Asia,52.132633,5.291266,10103.573887016,1986,605337,84,35,49,0,0,762,4,1258,0,459,501063,12350,4667,84511,50,0,0,45,0,0,0,0,0
ML,Mali,country,Sub-Saharan Africa,17.570692,-3.996166,NL,Netherlands,country,Europe and Central Asia,52.132633,5.291266,3932.83821656903,1986,717,0,0,0,0,0,0,58,623,0,10,0,0,26,0,0,0,0,0,0,0,0,0,0
MT,Malta,country,Middle East and North Africa,35.937496,14.375416,NL,Netherlands,country,Europe and Central Asia,52.132633,5.291266,1940.29511645147,1986,2857,0,2578,0,33,0,0,2,197,0,0,0,0,47,0,0,0,0,0,0,0,0,0,0
MR,Mauritania,country,Sub-Saharan Africa,21.00789,-10.940835,NL,Netherlands,country,Europe and Central Asia,52.132633,5.291266,3737.10710204698,1986,32,0,0,0,0,0,0,0,32,0,0,0,0,0,0,0,0,0,0,0,0,0,0,0
MU,Mauritius,country,Sub-Saharan Africa,-20.348404,57.552152,NL,Netherlands,country,Europe and Central Asia,52.132633,5.291266,9522.32397113427,1986,3238,0,0,2953,0,0,0,0,4,0,1,0,279,1,0,0,0,0,0,0,0,0,0,0
MX,Mexico,country,Latin America and the Caribbean,23.634501,-102.552784,NL,Netherlands,country,Europe and Central Asia,52.132633,5.291266,9096.02925433637,1986,62944,0,0,54808,131,0,487,72,1508,171,18,1569,3031,1022,0,110,0,0,17,0,0,0,0,0
MN,Mongolia,country,East Asia and Pacific,46.862496,103.846656,NL,Netherlands,country,Europe and Central Asia,52.132633,5.291266,6578.37360656137,1986,340,0,0,0,0,0,0,0,0,328,0,0,0,0,0,0,0,12,0,0,0,0,0,0
MA,Morocco,country,Middle East and North Africa,31.791702,-7.09262,NL,Netherlands,country,Europe and Central Asia,52.132633,5.291266,2477.51887962001,1986,42147,20,135,3200,98,0,327,416,36545,8,1230,10,1,110,47,0,0,0,0,0,0,0,0,0
MZ,Mozambique,country,Sub-Saharan Africa,-18.665695,35.529562,NL,Netherlands,country,Europe and Central Asia,52.132633,5.291266,8408.65514392429,1986,4798,0,0,4646,0,46,43,0,39,0,1,0,23,0,0,0,0,0,0,0,0,0,0,0
MM,Myanmar,country,East Asia and Pacific,21.913965,95.956223,NL,Netherlands,country,Europe and Central Asia,52.132633,5.291266,8155.33610611348,1986,2517,0,0,0,2517,0,0,0,0,0,0,0,0,0,0,0,0,0,0,0,0,0,0,0
NP,Nepal,country,South Asia,28.394857,84.124008,NL,Netherlands,country,Europe and Central Asia,52.132633,5.291266,6825.56367989948,1986,171,0,0,0,0,0,171,0,0,0,0,0,0,0,0,0,0,0,0,0,0,0,0,0
NC,New Caledonia,country,East Asia and Pacific,-20.904305,165.618042,NL,Netherlands,country,Europe and Central Asia,52.132633,5.291266,16169.0299841747,1986,3,0,0,0,0,0,0,0,0,0,0,0,0,0,0,0,0,3,0,0,0,0,0,0
NZ,New Zealand,country,East Asia and Pacific,-40.900557,174.885971,NL,Netherlands,country,Europe and Central Asia,52.132633,5.291266,18557.9955703276,1986,26140,4,0,319,1388,0,1,537,11358,4331,0,103,0,536,1904,0,0,2389,1484,1786,0,0,0,0
NI,Nicaragua,country,Latin America and the Caribbean,12.865416,-85.207229,NL,Netherlands,country,Europe and Central Asia,52.132633,5.291266,8925.48831852571,1986,9002,0,0,18,0,0,44,65,5014,0,21,0,3839,0,0,1,0,0,0,0,0,0,0,0
NE,Niger,country,Sub-Saharan Africa,17.607789,8.081666,NL,Netherlands,country,Europe and Central Asia,52.132633,5.291266,3851.08799266713,1986,435,0,0,0,0,0,0,106,0,0,0,0,329,0,0,0,0,0,0,0,0,0,0,0
NG,Nigeria,country,Sub-Saharan Africa,9.081999,8.675277,NL,Netherlands,country,Europe and Central Asia,52.132633,5.291266,4802.241429822,1986,25786,13,0,0,0,0,100,0,7,31,4,8105,13662,41,3823,0,0,0,0,0,0,0,0,0
NO,Norway,country,Europe and Central Asia,60.472024,8.468946,NL,Netherlands,country,Europe and Central Asia,52.132633,5.291266,948.57355618311,1986,1517,34,49,0,407,0,0,21,15,5,0,245,6,156,309,175,0,0,94,1,0,0,0,0
PK,Pakistan,country,South Asia,30.375321,69.345116,NL,Netherlands,country,Europe and Central Asia,52.132633,5.291266,5664.40172062292,1986,215880,19,0,207627,0,0,0,0,18,173,59,4003,5,3975,0,0,0,1,0,0,0,0,0,0
PA,Panama,country,Latin America and the Caribbean,8.537981,-80.782127,NL,Netherlands,country,Europe and Central Asia,52.132633,5.291266,9001.78066275437,1986,24095,14,0,0,0,0,0,34,23974,0,46,0,8,19,0,0,0,0,0,0,0,0,0,0
PG,Papua New Guinea,country,East Asia and Pacific,-6.314993,143.95555,NL,Netherlands,country,Europe and Central Asia,52.132633,5.291266,13694.5617638202,1986,24847,0,0,0,0,0,3193,0,0,0,20,8516,1221,19,11823,0,0,15,40,0,0,0,0,0
PY,Paraguay,country,Latin America and the Caribbean,-23.442503,-58.443832,NL,Netherlands,country,Europe and Central Asia,52.132633,5.291266,10432.6314667259,1986,99089,0,0,0,0,0,48963,0,67,0,0,49021,118,149,728,0,0,43,0,0,0,0,0,0
PE,Peru,country,Latin America and the Caribbean,-9.189967,-75.015152,NL,Netherlands,country,Europe and Central Asia,52.132633,5.291266,10172.1555439901,1986,4754,0,0,0,18,0,0,867,3335,0,13,0,374,5,142,0,0,0,0,0,0,0,0,0
PH,Philippines,country,East Asia and Pacific,12.879721,121.774017,NL,Netherlands,country,Europe and Central Asia,52.132633,5.291266,10599.1424563548,1986,404674,5,9417,0,0,0,4910,11,8188,191,0,294921,162,930,85629,0,0,0,110,0,200,0,0,0
PL,Poland,country,Europe and Central Asia,51.919438,19.145136,NL,Netherlands,country,Europe and Central Asia,52.132633,5.291266,947.779312078124,1986,39578,23,497,209,7111,0,0,4119,283,626,45,9651,920,15430,334,34,0,277,19,0,0,0,0,0
PT,Portugal,country,Europe and Central Asia,39.399872,-8.224454,NL,Netherlands,country,Europe and Central Asia,52.132633,5.291266,1757.57205844983,1986,18722,22,0,0,4,0,10,6507,2970,83,0,84,0,1029,684,7275,0,0,54,0,0,0,0,0
QA,Qatar,country,Middle East and North Africa,25.354826,51.183884,NL,Netherlands,country,Europe and Central Asia,52.132633,5.291266,4853.89419546757,1986,1523,0,0,0,0,0,0,0,0,0,0,1470,0,0,16,18,0,0,19,0,0,0,0,0
KR,"Korea, Rep.",country,East Asia and Pacific,35.907757,127.766922,NL,Netherlands,country,Europe and Central Asia,52.132633,5.291266,8760.29648543808,1986,2239,0,0,5,0,2,0,0,293,0,0,10,0,1907,0,3,0,0,0,19,0,0,0,0
RE,Reunion,country,Sub-Saharan Africa,-21.115141,55.536384,NL,Netherlands,country,Europe and Central Asia,52.132633,5.291266,9496.40112322672,1986,22,0,0,0,0,0,0,0,0,0,0,0,10,10,0,2,0,0,0,0,0,0,0,0
RO,Romania,country,Europe and Central Asia,45.943161,24.96676,NL,Netherlands,country,Europe and Central Asia,52.132633,5.291266,1585.82472622901,1986,13921,1840,0,226,500,0,59,9,9892,0,0,0,0,1265,0,16,0,21,93,0,0,0,0,0
RW,Rwanda,country,Sub-Saharan Africa,-1.940278,29.873888,NL,Netherlands,country,Europe and Central Asia,52.132633,5.291266,6447.26592766404,1986,4813,0,0,0,0,0,0,4,29,0,2,0,4628,150,0,0,0,0,0,0,0,0,0,0
LC,St. Lucia,country,Latin America and the Caribbean,13.909444,-60.978893,NL,Netherlands,country,Europe and Central Asia,52.132633,5.291266,7186.90011754823,1986,24,0,0,0,0,0,3,3,6,0,3,0,6,3,0,0,0,0,0,0,0,0,0,0
WS,Samoa,country,East Asia and Pacific,-13.759029,-172.104629,NL,Netherlands,country,Europe and Central Asia,52.132633,5.291266,15759.4562879314,1986,1108,0,0,0,0,0,0,0,0,0,0,580,20,0,508,0,0,0,0,0,0,0,0,0
ST,Sao Tome and Principe,country,Sub-Saharan Africa,0.18636,6.613081,NL,Netherlands,country,Europe and Central Asia,52.132633,5.291266,5783.95560334635,1986,1036,0,0,0,0,0,0,0,0,0,0,0,1036,0,0,0,0,0,0,0,0,0,0,0
SA,Saudi Arabia,country,Middle East and North Africa,23.885942,45.079162,NL,Netherlands,country,Europe and Central Asia,52.132633,5.291266,4600.62505187096,1986,145,0,0,0,0,0,0,4,42,0,0,0,0,32,25,0,0,42,0,0,0,0,0,0
SN,Senegal,country,Sub-Saharan Africa,14.497401,-14.452362,NL,Netherlands,country,Europe and Central Asia,52.132633,5.291266,4542.00073170807,1986,13744,0,0,0,0,0,0,601,0,0,33,11241,0,0,1869,0,0,0,0,0,0,0,0,0
SC,Seychelles,country,Sub-Saharan Africa,-4.679574,55.491977,NL,Netherlands,country,Europe and Central Asia,52.132633,5.291266,7892.65917214529,1986,23,0,0,0,0,0,0,0,0,0,23,0,0,0,0,0,0,0,0,0,0,0,0,0
SL,Sierra Leone,country,Sub-Saharan Africa,8.460555,-11.779889,NL,Netherlands,country,Europe and Central Asia,52.132633,5.291266,5103.87578403076,1986,5439,0,0,0,0,0,0,91,90,0,0,1016,4080,162,0,0,0,0,0,0,0,0,0,0
SG,Singapore,country,East Asia and Pacific,1.352083,103.819836,NL,Netherlands,country,Europe and Central Asia,52.132633,5.291266,10480.8108764807,1986,4503,150,0,2,5,0,36,9,31,0,57,100,2900,931,47,110,0,22,101,2,0,0,0,0
SB,Solomon Islands,country,East Asia and Pacific,-9.64571,160.156194,NL,Netherlands,country,Europe and Central Asia,52.132633,5.291266,14789.2046540843,1986,1385,0,0,0,0,0,0,0,0,0,0,0,189,0,1196,0,0,0,0,0,0,0,0,0
SO,Somalia,country,Sub-Saharan Africa,5.152149,46.199616,NL,Netherlands,country,Europe and Central Asia,52.132633,5.291266,6433.87112125778,1986,0,0,0,0,0,0,0,0,0,0,0,0,0,0,0,0,0,0,0,0,0,0,0,0
ZA,S. Africa,country,Sub-Saharan Africa,-30.559482,22.937506,NL,Netherlands,country,Europe and Central Asia,52.132633,5.291266,9364.93674003665,1986,57226,747,36,20621,649,18,1904,1529,26714,60,38,705,339,2204,754,833,0,75,0,0,0,0,0,0
ES,Spain,country,Europe and Central Asia,40.463667,-3.74922,NL,Netherlands,country,Europe and Central Asia,52.132633,5.291266,1470.75431483959,1986,360865,8424,1178,243,0,93,788,86590,193897,184,1132,9069,641,7144,919,49820,0,484,174,85,0,0,0,0
LK,Sri Lanka,country,South Asia,7.873054,80.771797,NL,Netherlands,country,Europe and Central Asia,52.132633,5.291266,8337.33697598278,1986,30766,0,14,0,0,24,6460,5,552,0,106,16693,2276,675,3961,0,0,0,0,0,0,0,0,0
SD,Sudan,country,Sub-Saharan Africa,12.862807,30.217636,NL,Netherlands,country,Europe and Central Asia,52.132633,5.291266,4906.40724658617,1986,40969,203,0,20000,0,0,181,0,2,0,0,20569,0,14,0,0,0,0,0,0,0,0,0,0
SR,Suriname,country,Latin America and the Caribbean,3.919305,-56.027783,NL,Netherlands,country,Europe and Central Asia,52.132633,5.291266,7752.61835979374,1986,45302,43470,186,0,0,0,9,461,223,0,65,0,122,18,638,3,0,0,0,107,0,0,0,0
SZ,Swaziland,country,Sub-Saharan Africa,-26.522503,31.465866,NL,Netherlands,country,Europe and Central Asia,52.132633,5.291266,9120.34635052634,1986,1704,1,0,0,0,0,0,0,1452,0,0,0,0,119,0,0,0,132,0,0,0,0,0,0
SE,Sweden,country,Europe and Central Asia,60.128161,18.643501,NL,Netherlands,country,Europe and Central Asia,52.132633,5.291266,1211.49203967114,1986,6915,1939,7,850,0,0,15,24,22,0,0,23,0,507,3210,0,0,52,192,74,0,0,0,0
CH,Switzerland,country,Europe and Central Asia,46.818188,8.227512,NL,Netherlands,country,Europe and Central Asia,52.132633,5.291266,628.433831119222,1986,6057,98,0,169,133,0,18,52,30,15,0,683,39,1434,2688,5,0,43,475,175,0,0,0,0
SY,Syrian Arab Rep.,country,Middle East and North Africa,34.802075,38.996815,NL,Netherlands,country,Europe and Central Asia,52.132633,5.291266,3290.16564942916,1986,6,0,0,0,0,0,0,0,0,0,0,0,0,6,0,0,0,0,0,0,0,0,0,0
TH,Thailand,country,East Asia and Pacific,15.870032,100.992541,NL,Netherlands,country,Europe and Central Asia,52.132633,5.291266,9011.80438871334,1986,3680413,23764,3508924,115647,2710,1,12,761,6906,5,346,17039,112,3888,276,0,0,22,0,0,0,0,0,0
TG,Togo,country,Sub-Saharan Africa,8.619543,0.824782,NL,Netherlands,country,Europe and Central Asia,52.132633,5.291266,4860.90492803634,1986,8555,115,0,0,0,0,35,0,4,0,0,0,8382,19,0,0,0,0,0,0,0,0,0,0
TT,Trinidad and Tobago,country,Latin America and the Caribbean,10.691803,-61.222503,NL,Netherlands,country,Europe and Central Asia,52.132633,5.291266,7485.31082683629,1986,92,0,0,0,0,0,0,8,0,0,12,0,54,17,0,1,0,0,0,0,0,0,0,0
TN,Tunisia,country,Middle East and North Africa,33.886917,9.537499,NL,Netherlands,country,Europe and Central Asia,52.132633,5.291266,2059.40768527564,1986,3663,18,0,0,0,0,0,0,3496,0,0,0,0,29,0,0,0,0,120,0,0,0,0,0
TR,Turkey,country,Europe and Central Asia,38.963745,35.243322,NL,Netherlands,country,Europe and Central Asia,52.132633,5.291266,2727.37266399519,1986,41453,283,0,169,1105,5773,221,1996,25295,328,862,136,116,3435,1446,162,0,0,126,0,0,0,0,0
UG,Uganda,country,Sub-Saharan Africa,1.373333,32.290275,NL,Netherlands,country,Europe and Central Asia,52.132633,5.291266,6183.69916292949,1986,20018,0,0,0,0,0,0,0,1,0,30,0,19925,60,0,0,0,2,0,0,0,0,0,0
AE,United Arab Emirates,country,Middle East and North Africa,23.424076,53.847818,NL,Netherlands,country,Europe and Central Asia,52.132633,5.291266,5191.50956132163,1986,122,0,0,5,0,13,0,12,17,0,0,0,0,1,15,18,0,1,40,0,0,0,0,0
GB,United Kingdom,country,Europe and Central Asia,55.378051,-3.435973,NL,Netherlands,country,Europe and Central Asia,52.132633,5.291266,677.828800339671,1986,614879,333345,1177,7620,57906,124,231,8018,8428,922,25,15306,5189,23428,12125,429,126,11742,118168,10636,60,0,0,0
TZ,Tanzania,country,Sub-Saharan Africa,-6.369028,34.888822,NL,Netherlands,country,Europe and Central Asia,52.132633,5.291266,7092.46537743914,1986,16744,0,1874,0,8795,0,0,0,3,0,112,775,2286,2842,0,0,0,0,57,0,0,0,0,0
US,USA,country,North America,37.09024,-95.712891,NL,Netherlands,country,Europe and Central Asia,52.132633,5.291266,7514.49450150191,1986,6168793,243440,198,129029,49494,1927,2204564,2208,44489,1594,65,3357003,252,29605,86512,767,389,16386,314,946,0,0,0,0
VI,Virgin Islands (U.S.),country,Latin America and the Caribbean,18.335765,-64.896335,NL,Netherlands,country,Europe and Central Asia,52.132633,5.291266,7071.37028151225,1986,2,0,0,0,0,0,0,0,0,0,0,0,0,0,0,2,0,0,0,0,0,0,0,0
UY,Uruguay,country,Latin America and the Caribbean,-32.522779,-55.765835,NL,Netherlands,country,Europe and Central Asia,52.132633,5.291266,11133.9313933714,1986,54825,389,0,0,0,0,19346,0,28066,100,0,3885,0,130,39,0,0,2870,0,0,0,0,0,0
RU,Russian Federation,country,Europe and Central Asia,61.52401,105.318756,NL,Netherlands,country,Europe and Central Asia,52.132633,5.291266,5564.49176974562,1986,4358,0,0,141,0,91,0,94,358,163,0,124,331,727,930,156,0,17,0,1226,0,0,0,0
VU,Vanuatu,country,East Asia and Pacific,-15.376706,166.959158,NL,Netherlands,country,Europe and Central Asia,52.132633,5.291266,15635.6771677864,1986,68,0,0,0,0,0,0,0,0,0,0,0,68,0,0,0,0,0,0,0,0,0,0,0
VE,Venezuela,country,Latin America and the Caribbean,6.42375,-66.58973,NL,Netherlands,country,Europe and Central Asia,52.132633,5.291266,8221.81552033438,1986,722,0,0,0,0,0,0,8,382,0,0,0,331,1,0,0,0,0,0,0,0,0,0,0
VN,Vietnam,country,East Asia and Pacific,14.058324,108.277199,NL,Netherlands,country,Europe and Central Asia,52.132633,5.291266,9648.89462365205,1986,2312,0,0,0,0,0,1197,0,4,0,4,0,418,3,686,0,0,0,0,0,0,0,0,0
BA,Bosnia & Herzegovina,country,Europe and Central Asia,43.915886,17.679076,NL,Netherlands,country,Europe and Central Asia,52.132633,5.291266,1295.60200505191,1986,28962,71,17,10,107,0,721,6946,12047,0,270,3464,0,4010,359,608,0,287,45,0,0,0,0,0
ZM,Zambia,country,Sub-Saharan Africa,-13.133897,27.849332,NL,Netherlands,country,Europe and Central Asia,52.132633,5.291266,7583.09391857494,1986,404,0,0,0,0,0,0,5,0,0,0,0,71,317,0,0,0,11,0,0,0,0,0,0
ZW,Zimbabwe,country,Sub-Saharan Africa,-19.015438,29.154857,NL,Netherlands,country,Europe and Central Asia,52.132633,5.291266,8251.74623450365,1986,9521,18,0,0,72,0,0,16,128,0,0,0,758,8518,0,0,0,11,0,0,0,0,0,0
AF,Afghanistan,country,South Asia,33.93911,67.709953,NL,Netherlands,country,Europe and Central Asia,52.132633,5.291266,5279.45682081029,1987,406,0,0,0,0,6,0,0,88,286,0,0,0,26,0,0,0,0,0,0,0,0,0,0
AL,Albania,country,Europe and Central Asia,41.153332,20.168331,NL,Netherlands,country,Europe and Central Asia,52.132633,5.291266,1662.94804970163,1987,106,0,0,0,0,0,0,72,0,0,0,0,0,34,0,0,0,0,0,0,0,0,0,0
DZ,Algeria,country,Middle East and North Africa,28.033886,1.659626,NL,Netherlands,country,Europe and Central Asia,52.132633,5.291266,2699.60562180564,1987,130,0,0,0,0,0,1,0,38,0,0,0,0,0,69,22,0,0,0,0,0,0,0,0
AD,Andorra,country,Europe and Central Asia,42.546245,1.601554,NL,Netherlands,country,Europe and Central Asia,52.132633,5.291266,1102.47424631417,1987,4,0,0,0,0,0,0,0,0,0,0,0,0,0,0,0,0,0,4,0,0,0,0,0
AO,Angola,country,Sub-Saharan Africa,-11.202692,17.873887,NL,Netherlands,country,Europe and Central Asia,52.132633,5.291266,7153.26012887309,1987,68,0,0,0,0,0,0,1,9,0,0,0,58,0,0,0,0,0,0,0,0,0,0,0
AG,Antigua & Barbuda,country,Latin America and the Caribbean,17.060816,-61.796428,NL,Netherlands,country,Europe and Central Asia,52.132633,5.291266,6969.51561496829,1987,113,0,0,0,0,0,0,113,0,0,0,0,0,0,0,0,0,0,0,0,0,0,0,0
AR,Argentina,country,Latin America and the Caribbean,-38.416097,-63.616672,NL,Netherlands,country,Europe and Central Asia,52.132633,5.291266,12079.141599911,1987,1270479,17932,0,1779,28675,0,224065,983,105727,143,0,832884,4136,2513,37998,51,0,13592,0,1,0,0,0,0
AU,Australia,country,East Asia and Pacific,-25.274398,133.775136,NL,Netherlands,country,Europe and Central Asia,52.132633,5.291266,14809.6240060143,1987,371263,1004,27,12700,68570,3,3214,4697,8480,85,0,0,0,266451,212,706,0,2180,380,2554,0,0,0,0
AT,Austria,country,Europe and Central Asia,47.516231,14.550072,NL,Netherlands,country,Europe and Central Asia,52.132633,5.291266,839.291618013374,1987,50257,1041,15,1532,337,0,103,2633,282,113,119,33242,64,4887,4587,43,0,538,60,100,561,0,0,0
BS,The Bahamas,country,Latin America and the Caribbean,25.03428,-77.39628,NL,Netherlands,country,Europe and Central Asia,52.132633,5.291266,7360.27731343498,1987,791,0,0,0,0,0,0,0,0,0,0,0,0,0,0,791,0,0,0,0,0,0,0,0
BH,Bahrain,country,Middle East and North Africa,25.930414,50.637772,NL,Netherlands,country,Europe and Central Asia,52.132633,5.291266,4769.58515039393,1987,34,0,0,0,0,0,0,0,11,0,2,0,4,0,0,0,0,0,17,0,0,0,0,0
BD,Bangladesh,country,South Asia,23.684994,90.356331,NL,Netherlands,country,Europe and Central Asia,52.132633,5.291266,7632.39230045145,1987,1710,0,0,0,0,0,0,0,0,1139,15,0,59,115,0,0,0,382,0,0,0,0,0,0
BB,Barbados,country,Latin America and the Caribbean,13.193887,-59.543198,NL,Netherlands,country,Europe and Central Asia,52.132633,5.291266,7153.16360523428,1987,26,0,8,0,0,0,0,0,1,0,13,0,0,0,0,4,0,0,0,0,0,0,0,0
BE,Belgium,country,Europe and Central Asia,50.503887,4.469936,NL,Netherlands,country,Europe and Central Asia,52.132633,5.291266,190.099464170486,1987,4267412,1380069,407723,284844,37000,1311,39997,121640,136563,4210,1352,651120,29439,130813,138845,360870,9308,72745,450155,16374,2342,0,0,0
BZ,Belize,country,Latin America and the Caribbean,17.189877,-88.49765,NL,Netherlands,country,Europe and Central Asia,52.132633,5.291266,8769.87266567711,1987,16,0,0,0,0,0,0,0,16,0,0,0,0,0,0,0,0,0,0,0,0,0,0,0
BJ,Benin,country,Sub-Saharan Africa,9.30769,2.315834,NL,Netherlands,country,Europe and Central Asia,52.132633,5.291266,4774.9082272955,1987,11269,0,0,0,0,0,4716,0,0,0,2,4670,875,0,1006,0,0,0,0,0,0,0,0,0
BM,Bermuda,country,North America,32.321384,-64.75737,NL,Netherlands,country,Europe and Central Asia,52.132633,5.291266,5921.69264374945,1987,9,0,0,0,0,0,0,0,5,0,0,0,0,4,0,0,0,0,0,0,0,0,0,0
BO,Bolivia,country,Latin America and the Caribbean,-16.290154,-63.588653,NL,Netherlands,country,Europe and Central Asia,52.132633,5.291266,10077.035745454,1987,169,0,0,0,0,0,0,0,0,0,0,0,169,0,0,0,0,0,0,0,0,0,0,0
BW,Botswana,country,Sub-Saharan Africa,-22.328474,24.684866,NL,Netherlands,country,Europe and Central Asia,52.132633,5.291266,8501.31391137111,1987,1773,0,0,0,0,0,0,0,1,0,0,0,0,0,0,0,0,1772,0,0,0,0,0,0
BR,Brazil,country,Latin America and the Caribbean,-14.235004,-51.92528,NL,Netherlands,country,Europe and Central Asia,52.132633,5.291266,9199.82378426808,1987,2033501,4704,73,117297,7045,522,684827,2698,203400,101,1426,940448,36108,15170,13323,33,0,6325,1,0,0,0,0,0
BN,Brunei Darussalam,country,,4.535277,114.727669,NL,Netherlands,country,Europe and Central Asia,52.132633,5.291266,10922.3526361993,1987,4,0,0,0,0,0,0,0,4,0,0,0,0,0,0,0,0,0,0,0,0,0,0,0
BG,Bulgaria,country,Europe and Central Asia,42.733883,25.48583,NL,Netherlands,country,Europe and Central Asia,52.132633,5.291266,1835.89390091094,1987,5070,1,0,732,0,36,12,1768,1979,0,0,130,0,234,2,124,0,50,2,0,0,0,0,0
BF,Burkina Faso,country,Sub-Saharan Africa,12.238333,-1.561593,NL,Netherlands,country,Europe and Central Asia,52.132633,5.291266,4483.46337679662,1987,357,0,0,0,0,0,0,159,196,0,0,0,0,0,2,0,0,0,0,0,0,0,0,0
BI,Burundi,country,Sub-Saharan Africa,-3.373056,29.918886,NL,Netherlands,country,Europe and Central Asia,52.132633,5.291266,6600.94270771684,1987,3937,0,0,0,0,0,0,0,72,0,0,0,3757,92,0,0,0,16,0,0,0,0,0,0
CV,Cape Verde,country,Sub-Saharan Africa,16.002082,-24.013197,NL,Netherlands,country,Europe and Central Asia,52.132633,5.291266,4779.12241363511,1987,1,1,0,0,0,0,0,0,0,0,0,0,0,0,0,0,0,0,0,0,0,0,0,0
CM,Cameroon,country,Sub-Saharan Africa,7.369722,12.354722,NL,Netherlands,country,Europe and Central Asia,52.132633,5.291266,5024.69498467425,1987,105113,0,0,0,0,0,0,0,222,0,0,2050,88506,326,14003,0,0,0,6,0,0,0,0,0
CA,Canada,country,North America,56.130366,-106.346771,NL,Netherlands,country,Europe and Central Asia,52.132633,5.291266,6460.97044969052,1987,279040,15057,1109,237,95575,0,84669,62,2333,0,1,41070,16,2389,33748,151,12,2244,101,278,0,0,0,0
CF,Central African Rep.,country,Sub-Saharan Africa,6.611111,20.939444,NL,Netherlands,country,Europe and Central Asia,52.132633,5.291266,5266.43794215381,1987,122,0,0,0,0,0,0,0,0,0,0,0,57,65,0,0,0,0,0,0,0,0,0,0
CL,Chile,country,Latin America and the Caribbean,-35.675147,-71.542969,NL,Netherlands,country,Europe and Central Asia,52.132633,5.291266,12277.7125187572,1987,107047,11,0,0,528,1,0,3877,96973,12,0,4632,0,23,0,8,0,172,5,805,0,0,0,0
HK,Hong Kong,country,East Asia and Pacific,22.396428,114.109497,NL,Netherlands,country,Europe and Central Asia,52.132633,5.291266,9266.1960756805,1987,3136,519,5,14,114,18,39,392,695,0,12,0,83,1127,82,25,0,1,7,3,0,0,0,0
MO,"Macao SAR, China",country,East Asia and Pacific,22.198745,113.543873,NL,Netherlands,country,Europe and Central Asia,52.132633,5.291266,9249.87767304284,1987,5,0,0,0,0,0,0,0,0,0,5,0,0,0,0,0,0,0,0,0,0,0,0,0
CN,China,country,East Asia and Pacific,35.86166,104.195397,NL,Netherlands,country,Europe and Central Asia,52.132633,5.291266,7494.7853167023,1987,172629,2524,26046,691,19913,97,24571,8116,1970,1,396,74419,2526,7672,3250,57,0,0,90,290,0,0,0,0
TW,Taiwan,country,East Asia and Pacific,23.69781,120.960515,NL,Netherlands,country,Europe and Central Asia,52.132633,5.291266,9547.580136744,1987,5188,373,4,45,0,0,0,3780,515,8,24,4,17,386,0,27,0,0,5,0,0,0,0,0
CO,Colombia,country,Latin America and the Caribbean,4.570868,-74.297333,NL,Netherlands,country,Europe and Central Asia,52.132633,5.291266,8906.59625265782,1987,86100,12,0,39,0,0,31,27,40494,0,0,0,44967,530,0,0,0,0,0,0,0,0,0,0
KM,Comoros,country,Sub-Saharan Africa,-11.875001,43.872219,NL,Netherlands,country,Europe and Central Asia,52.132633,5.291266,8027.61704570925,1987,288,0,0,0,0,0,0,0,0,0,279,0,9,0,0,0,0,0,0,0,0,0,0,0
CG,"Congo, Rep.",country,Sub-Saharan Africa,-0.228021,15.827659,NL,Netherlands,country,Europe and Central Asia,52.132633,5.291266,5911.71061028531,1987,669,0,0,0,0,0,0,0,0,0,0,0,669,0,0,0,0,0,0,0,0,0,0,0
CR,Costa Rica,country,Latin America and the Caribbean,9.748917,-83.753428,NL,Netherlands,country,Europe and Central Asia,52.132633,5.291266,9098.63299061578,1987,27101,0,721,0,0,0,452,13,12634,0,157,0,5450,7674,0,0,0,0,0,0,0,0,0,0
CI,Ivory Coast,country,Sub-Saharan Africa,7.539989,-5.54708,NL,Netherlands,country,Europe and Central Asia,52.132633,5.291266,5061.89043335153,1987,165610,0,2,7433,0,0,4293,0,14638,30,1,481,125108,354,13250,0,0,0,20,0,0,0,0,0
CU,Cuba,country,Latin America and the Caribbean,21.521757,-77.781167,NL,Netherlands,country,Europe and Central Asia,52.132633,5.291266,7680.26012994792,1987,17629,1,0,815,0,0,0,0,15218,50,0,0,190,1325,0,7,0,23,0,0,0,0,0,0
CY,Cyprus,country,Europe and Central Asia,35.126413,33.429859,NL,Netherlands,country,Europe and Central Asia,52.132633,5.291266,2921.22701048965,1987,17920,0,0,0,0,0,0,0,14892,0,4,2926,0,45,27,26,0,0,0,0,0,0,0,0
CZ,Czech Republic,country,Europe and Central Asia,49.817492,15.472962,NL,Netherlands,country,Europe and Central Asia,52.132633,5.291266,757.989030977363,1987,6601,5,0,16,1053,0,0,495,2232,16,40,90,41,289,26,90,68,431,1777,0,0,0,0,0
KP,"Korea, Dem. Rep.",country,East Asia and Pacific,40.339852,127.510093,NL,Netherlands,country,Europe and Central Asia,52.132633,5.291266,8330.81722697167,1987,2,0,0,0,0,0,0,0,0,0,0,0,0,2,0,0,0,0,0,0,0,0,0,0
CD,"Congo, Dem. Rep.",country,Sub-Saharan Africa,-4.038333,21.758664,NL,Netherlands,country,Europe and Central Asia,52.132633,5.291266,6443.87930415401,1987,11237,0,0,0,0,0,0,0,0,0,0,3872,4520,279,2566,0,0,0,0,0,0,0,0,0
DK,Denmark,country,Europe and Central Asia,56.26392,9.501785,NL,Netherlands,country,Europe and Central Asia,52.132633,5.291266,535.199061695428,1987,227103,85196,147,1438,9686,3,58321,948,776,639,753,22926,1815,19498,4288,535,146,789,19182,163,0,0,0,0
DM,Dominica,country,Latin America and the Caribbean,15.414999,-61.370976,NL,Netherlands,country,Europe and Central Asia,52.132633,5.291266,7082.57846164332,1987,186,0,0,0,0,0,170,0,0,0,0,0,0,16,0,0,0,0,0,0,0,0,0,0
DO,Dominican Republic,country,Latin America and the Caribbean,18.735693,-70.162651,NL,Netherlands,country,Europe and Central Asia,52.132633,5.291266,7397.04097096439,1987,3485,0,1,0,0,0,2720,0,372,0,45,0,134,211,0,2,0,0,0,0,0,0,0,0
EC,Ecuador,country,Latin America and the Caribbean,-1.831239,-78.183406,NL,Netherlands,country,Europe and Central Asia,52.132633,5.291266,9734.86379118107,1987,20627,0,12,0,0,0,7,313,19369,0,6,0,821,99,0,0,0,0,0,0,0,0,0,0
EG,Egypt,country,Middle East and North Africa,26.820553,30.802498,NL,Netherlands,country,Europe and Central Asia,52.132633,5.291266,3531.6048959239,1987,18129,0,301,0,21,0,353,13872,3335,0,25,7,1,45,30,15,0,0,124,0,0,0,0,0
SV,El Salvador,country,Latin America and the Caribbean,13.794185,-88.89653,NL,Netherlands,country,Europe and Central Asia,52.132633,5.291266,9092.61473080207,1987,3232,0,0,0,0,0,85,39,3,0,0,0,1974,1131,0,0,0,0,0,0,0,0,0,0
GQ,Equatorial Guinea,country,Sub-Saharan Africa,1.650801,10.267895,NL,Netherlands,country,Europe and Central Asia,52.132633,5.291266,5638.71300202098,1987,914,0,0,0,0,0,0,0,0,0,1,0,912,1,0,0,0,0,0,0,0,0,0,0
ET,Ethiopia,country,Sub-Saharan Africa,9.145,40.489673,NL,Netherlands,country,Europe and Central Asia,52.132633,5.291266,5747.77550162016,1987,15798,0,0,10000,736,7,577,1392,0,0,2,1931,250,901,0,0,0,0,2,0,0,0,0,0
FK,Falkland Islands,country,,-51.796253,-59.523613,NL,Netherlands,country,Europe and Central Asia,52.132633,5.291266,13058.8529952815,1987,8,0,0,0,0,0,0,0,0,0,0,0,0,0,0,0,0,8,0,0,0,0,0,0
FO,Faroe Islands,country,Europe and Central Asia,61.892635,-6.911806,NL,Netherlands,country,Europe and Central Asia,52.132633,5.291266,1309.67688145428,1987,18,0,0,0,0,0,0,0,17,0,0,0,0,0,0,0,0,0,1,0,0,0,0,0
FJ,Fiji,country,East Asia and Pacific,-16.578193,179.414413,NL,Netherlands,country,Europe and Central Asia,52.132633,5.291266,16045.8149605478,1987,186,0,0,0,0,0,0,0,186,0,0,0,0,0,0,0,0,0,0,0,0,0,0,0
FI,Finland,country,Europe and Central Asia,61.92411,25.748151,NL,Netherlands,country,Europe and Central Asia,52.132633,5.291266,1637.7442410538,1987,7947,556,14,165,0,4,3,140,22,0,27,24,386,75,2989,12,0,21,3297,212,0,0,0,0
FR,France,country,Europe and Central Asia,46.227638,2.213749,NL,Netherlands,country,Europe and Central Asia,52.132633,5.291266,694.275225072112,1987,3927734,2207542,7735,110091,253613,371,484095,48080,117105,712,120,303353,12097,35040,32524,110218,541,13497,184112,7321,108,0,0,0
GF,French Guiana,country,Latin America and the Caribbean,3.933889,-53.125782,NL,Netherlands,country,Europe and Central Asia,52.132633,5.291266,7567.79208803929,1987,590,589,0,0,0,0,0,0,0,0,0,0,0,0,0,0,0,0,1,0,0,0,0,0
PF,French Polynesia,country,East Asia and Pacific,-17.679742,-149.406843,NL,Netherlands,country,Europe and Central Asia,52.132633,5.291266,15609.0170889144,1987,7,0,0,0,0,0,0,0,0,0,0,0,0,0,7,0,0,0,0,0,0,0,0,0
GA,Gabon,country,Sub-Saharan Africa,-0.803689,11.609444,NL,Netherlands,country,Europe and Central Asia,52.132633,5.291266,5922.59012584119,1987,2784,0,0,0,0,0,0,0,0,0,0,0,2784,0,0,0,0,0,0,0,0,0,0,0
GM,The Gambia,country,Sub-Saharan Africa,13.443182,-15.310139,NL,Netherlands,country,Europe and Central Asia,52.132633,5.291266,4682.8299023008,1987,1,0,0,0,0,0,0,1,0,0,0,0,0,0,0,0,0,0,0,0,0,0,0,0
GH,Ghana,country,Sub-Saharan Africa,7.946527,-1.023194,NL,Netherlands,country,Europe and Central Asia,52.132633,5.291266,4952.43453029495,1987,3031,0,3,0,0,0,12,2,153,0,0,285,2432,144,0,0,0,0,0,0,0,0,0,0
GI,Gibraltar,country,Europe and Central Asia,36.137741,-5.345374,NL,Netherlands,country,Europe and Central Asia,52.132633,5.291266,1968.11262787063,1987,86,0,0,0,18,0,0,0,22,0,0,38,0,1,0,1,0,0,6,0,0,0,0,0
GR,Greece,country,Europe and Central Asia,39.074208,21.824312,NL,Netherlands,country,Europe and Central Asia,52.132633,5.291266,1932.73806101011,1987,130095,21138,205,39,0,0,15310,12243,70835,723,59,22,6,3443,121,4811,0,723,417,0,0,0,0,0
GL,Greenland,country,Europe and Central Asia,71.706936,-42.604303,NL,Netherlands,country,Europe and Central Asia,52.132633,5.291266,3173.90045043524,1987,16,0,0,0,0,0,0,0,16,0,0,0,0,0,0,0,0,0,0,0,0,0,0,0
GD,Grenada,country,Latin America and the Caribbean,12.262776,-61.604171,NL,Netherlands,country,Europe and Central Asia,52.132633,5.291266,7372.78957887027,1987,403,0,0,0,0,0,0,5,0,0,398,0,0,0,0,0,0,0,0,0,0,0,0,0
GP,Guadeloupe,country,Latin America and the Caribbean,16.995971,-62.067641,NL,Netherlands,country,Europe and Central Asia,52.132633,5.291266,6993.46468732544,1987,42,0,0,0,0,0,23,0,0,0,0,0,0,2,0,0,0,0,0,17,0,0,0,0
GT,Guatemala,country,Latin America and the Caribbean,15.783471,-90.230759,NL,Netherlands,country,Europe and Central Asia,52.132633,5.291266,9007.49924080917,1987,13808,0,0,25,0,0,1026,203,315,20,86,0,4461,7672,0,0,0,0,0,0,0,0,0,0
GN,Guinea,country,Sub-Saharan Africa,9.945587,-9.696645,NL,Netherlands,country,Europe and Central Asia,52.132633,5.291266,4888.42740265752,1987,10769,0,0,0,0,0,0,0,0,0,0,9939,830,0,0,0,0,0,0,0,0,0,0,0
GW,Guinea-Bissau,country,Sub-Saharan Africa,11.803749,-15.180413,NL,Netherlands,country,Europe and Central Asia,52.132633,5.291266,4851.46336431433,1987,548,0,0,0,0,0,0,0,0,0,0,500,48,0,0,0,0,0,0,0,0,0,0,0
GY,Guyana,country,Latin America and the Caribbean,4.860416,-58.93018,NL,Netherlands,country,Europe and Central Asia,52.132633,5.291266,7854.28663904211,1987,19394,19349,2,0,0,0,0,15,0,0,0,0,0,0,0,28,0,0,0,0,0,0,0,0
HT,Haiti,country,Latin America and the Caribbean,18.971187,-72.285215,NL,Netherlands,country,Europe and Central Asia,52.132633,5.291266,7522.06589738054,1987,1254,0,0,0,0,0,0,0,263,0,0,0,962,24,0,0,0,0,5,0,0,0,0,0
HN,Honduras,country,Latin America and the Caribbean,15.199999,-86.241905,NL,Netherlands,country,Europe and Central Asia,52.132633,5.291266,8792.1412930647,1987,28073,1,0,0,0,0,5,0,13769,0,0,0,1230,2789,10064,0,0,0,0,215,0,0,0,0
HU,Hungary,country,Europe and Central Asia,47.162494,19.503304,NL,Netherlands,country,Europe and Central Asia,52.132633,5.291266,1161.43710178692,1987,56366,2241,0,1234,6138,19,4406,6332,2830,20,356,3796,268,4082,22206,156,0,1984,298,0,0,0,0,0
IS,Iceland,country,Europe and Central Asia,64.963051,-19.020835,NL,Netherlands,country,Europe and Central Asia,52.132633,5.291266,1984.31748040656,1987,244,0,0,0,5,0,0,91,2,20,0,0,0,56,30,0,0,1,39,0,0,0,0,0
IN,India,country,South Asia,20.593684,78.96288,NL,Netherlands,country,Europe and Central Asia,52.132633,5.291266,7118.41160611993,1987,21717,556,40,180,1,2032,123,227,1860,0,687,12970,981,1946,100,0,0,14,0,0,0,0,0,0
ID,Indonesia,country,East Asia and Pacific,-0.789275,113.921327,NL,Netherlands,country,Europe and Central Asia,52.132633,5.291266,11348.3157118067,1987,569066,1908,275174,59873,4,22,4385,43,853,0,4894,97859,15461,12738,95594,22,0,235,0,1,0,0,0,0
IR,Iran,country,Middle East and North Africa,32.427908,53.688046,NL,Netherlands,country,Europe and Central Asia,52.132633,5.291266,4439.92349164564,1987,2561,0,0,0,0,222,0,92,1308,173,59,0,593,114,0,0,0,0,0,0,0,0,0,0
IQ,Iraq,country,Middle East and North Africa,33.223191,43.679291,NL,Netherlands,country,Europe and Central Asia,52.132633,5.291266,3716.01489657068,1987,42,0,0,0,0,0,0,0,42,0,0,0,0,0,0,0,0,0,0,0,0,0,0,0
IE,Ireland,country,Europe and Central Asia,53.41291,-8.24389,NL,Netherlands,country,Europe and Central Asia,52.132633,5.291266,921.16427694974,1987,143313,8883,28,946,10,0,0,3641,75,0,0,5334,11,4259,5141,1831,0,2994,108238,1922,0,0,0,0
IL,Israel,country,Middle East and North Africa,31.046051,34.851612,NL,Netherlands,country,Europe and Central Asia,52.132633,5.291266,3357.92420509801,1987,84076,157,4944,35,0,7,13,5303,56850,10,6,1237,160,14665,335,47,0,12,295,0,0,0,0,0
IT,Italy,country,Europe and Central Asia,41.87194,12.56738,NL,Netherlands,country,Europe and Central Asia,52.132633,5.291266,1267.24888463599,1987,278310,55372,14015,5379,135,358,12,68915,64913,294,37,3200,1546,27043,6920,18781,5,5364,5571,455,0,0,0,0
JM,Jamaica,country,Latin America and the Caribbean,18.109581,-77.297508,NL,Netherlands,country,Europe and Central Asia,52.132633,5.291266,7936.89550568616,1987,1524,0,2,0,0,0,0,18,1058,0,45,0,0,212,0,189,0,0,0,0,0,0,0,0
JP,Japan,country,East Asia and Pacific,36.204824,138.252924,NL,Netherlands,country,Europe and Central Asia,52.132633,5.291266,9195.35225352267,1987,5313,1070,2,18,6,0,16,36,974,36,4,1044,32,1749,11,93,0,0,209,13,0,0,0,0
JO,Jordan,country,Middle East and North Africa,30.585164,36.238414,NL,Netherlands,country,Europe and Central Asia,52.132633,5.291266,3479.04398919673,1987,2347,0,20,17,0,0,53,33,2223,0,0,0,0,1,0,0,0,0,0,0,0,0,0,0
KE,Kenya,country,Sub-Saharan Africa,-0.023559,37.906193,NL,Netherlands,country,Europe and Central Asia,52.132633,5.291266,6555.35341996734,1987,22847,4,1,0,437,348,769,508,5788,0,19,2210,8017,4723,0,0,0,0,23,0,0,0,0,0
KI,Kiribati,country,East Asia and Pacific,-3.370417,-168.734039,NL,Netherlands,country,Europe and Central Asia,52.132633,5.291266,14581.1451987996,1987,20,0,0,0,0,0,0,0,0,0,0,0,0,0,0,0,0,0,20,0,0,0,0,0
KW,Kuwait,country,Middle East and North Africa,29.31166,47.481766,NL,Netherlands,country,Europe and Central Asia,52.132633,5.291266,4281.29675541009,1987,55,5,0,0,0,0,0,0,17,0,0,0,3,1,0,0,0,9,20,0,0,0,0,0
LA,Lao PDR,country,East Asia and Pacific,19.85627,102.495496,NL,Netherlands,country,Europe and Central Asia,52.132633,5.291266,8762.19693848758,1987,78,0,0,0,0,0,0,0,0,0,0,0,78,0,0,0,0,0,0,0,0,0,0,0
LB,Lebanon,country,Middle East and North Africa,33.854721,35.862285,NL,Netherlands,country,Europe and Central Asia,52.132633,5.291266,3174.31364895422,1987,378,0,0,51,39,0,0,18,0,16,0,0,0,33,0,180,0,0,41,0,0,0,0,0
LR,Liberia,country,Sub-Saharan Africa,6.428055,-9.429499,NL,Netherlands,country,Europe and Central Asia,52.132633,5.291266,5263.88092790403,1987,6692,0,0,0,0,0,0,0,0,0,0,396,3427,538,2331,0,0,0,0,0,0,0,0,0
LY,Libya,country,Middle East and North Africa,26.3351,17.228331,NL,Netherlands,country,Europe and Central Asia,52.132633,5.291266,3041.46928732948,1987,20,0,0,0,0,0,0,0,0,0,0,0,0,0,0,0,0,0,20,0,0,0,0,0
MG,Madagascar,country,Sub-Saharan Africa,-18.766947,46.869107,NL,Netherlands,country,Europe and Central Asia,52.132633,5.291266,8859.24907976815,1987,1340,0,0,0,0,0,0,0,11,0,643,0,667,2,0,0,0,0,17,0,0,0,0,0
MW,Malawi,country,Sub-Saharan Africa,-13.254308,34.301525,NL,Netherlands,country,Europe and Central Asia,52.132633,5.291266,7795.73578475551,1987,13109,0,0,33,143,0,1,4,0,0,22,0,1049,11857,0,0,0,0,0,0,0,0,0,0
MY,Malaysia,country,East Asia and Pacific,4.210484,101.975766,NL,Netherlands,country,Europe and Central Asia,52.132633,5.291266,10103.573887016,1987,634508,55,54,2446,0,0,704,26,1088,0,443,442894,11285,4879,170411,83,0,12,128,0,0,0,0,0
ML,Mali,country,Sub-Saharan Africa,17.570692,-3.996166,NL,Netherlands,country,Europe and Central Asia,52.132633,5.291266,3932.83821656903,1987,322,0,0,0,0,0,0,0,321,0,1,0,0,0,0,0,0,0,0,0,0,0,0,0
MT,Malta,country,Middle East and North Africa,35.937496,14.375416,NL,Netherlands,country,Europe and Central Asia,52.132633,5.291266,1940.29511645147,1987,5955,0,5514,0,0,1,0,0,435,0,0,0,0,5,0,0,0,0,0,0,0,0,0,0
MR,Mauritania,country,Sub-Saharan Africa,21.00789,-10.940835,NL,Netherlands,country,Europe and Central Asia,52.132633,5.291266,3737.10710204698,1987,4,0,0,0,0,0,0,4,0,0,0,0,0,0,0,0,0,0,0,0,0,0,0,0
MU,Mauritius,country,Sub-Saharan Africa,-20.348404,57.552152,NL,Netherlands,country,Europe and Central Asia,52.132633,5.291266,9522.32397113427,1987,10952,0,0,10527,0,0,0,0,29,0,0,0,396,0,0,0,0,0,0,0,0,0,0,0
MX,Mexico,country,Latin America and the Caribbean,23.634501,-102.552784,NL,Netherlands,country,Europe and Central Asia,52.132633,5.291266,9096.02925433637,1987,45808,0,0,37854,225,0,247,13,1697,0,28,0,4456,1129,0,152,0,0,7,0,0,0,0,0
MN,Mongolia,country,East Asia and Pacific,46.862496,103.846656,NL,Netherlands,country,Europe and Central Asia,52.132633,5.291266,6578.37360656137,1987,182,0,0,0,0,0,0,0,0,182,0,0,0,0,0,0,0,0,0,0,0,0,0,0
MA,Morocco,country,Middle East and North Africa,31.791702,-7.09262,NL,Netherlands,country,Europe and Central Asia,52.132633,5.291266,2477.51887962001,1987,37780,0,498,0,88,0,265,927,34697,0,1074,0,0,226,0,0,0,0,5,0,0,0,0,0
MZ,Mozambique,country,Sub-Saharan Africa,-18.665695,35.529562,NL,Netherlands,country,Europe and Central Asia,52.132633,5.291266,8408.65514392429,1987,19152,0,0,18755,0,40,28,0,295,0,0,0,34,0,0,0,0,0,0,0,0,0,0,0
MM,Myanmar,country,East Asia and Pacific,21.913965,95.956223,NL,Netherlands,country,Europe and Central Asia,52.132633,5.291266,8155.33610611348,1987,3398,1650,0,0,1748,0,0,0,0,0,0,0,0,0,0,0,0,0,0,0,0,0,0,0
NP,Nepal,country,South Asia,28.394857,84.124008,NL,Netherlands,country,Europe and Central Asia,52.132633,5.291266,6825.56367989948,1987,51,0,0,0,0,0,50,0,0,0,0,0,1,0,0,0,0,0,0,0,0,0,0,0
NZ,New Zealand,country,East Asia and Pacific,-40.900557,174.885971,NL,Netherlands,country,Europe and Central Asia,52.132633,5.291266,18557.9955703276,1987,34343,3,0,71,1994,0,0,893,19444,3951,0,68,14,285,446,12,0,4249,1480,1433,0,0,0,0
NI,Nicaragua,country,Latin America and the Caribbean,12.865416,-85.207229,NL,Netherlands,country,Europe and Central Asia,52.132633,5.291266,8925.48831852571,1987,10590,0,0,124,0,0,98,374,7230,0,57,0,2685,20,0,2,0,0,0,0,0,0,0,0
NE,Niger,country,Sub-Saharan Africa,17.607789,8.081666,NL,Netherlands,country,Europe and Central Asia,52.132633,5.291266,3851.08799266713,1987,2034,0,0,0,0,0,0,2,0,0,0,0,2032,0,0,0,0,0,0,0,0,0,0,0
NG,Nigeria,country,Sub-Saharan Africa,9.081999,8.675277,NL,Netherlands,country,Europe and Central Asia,52.132633,5.291266,4802.241429822,1987,45395,0,140,0,0,0,26,0,142,0,93,28028,16938,28,0,0,0,0,0,0,0,0,0,0
NO,Norway,country,Europe and Central Asia,60.472024,8.468946,NL,Netherlands,country,Europe and Central Asia,52.132633,5.291266,948.57355618311,1987,1423,72,0,3,0,0,0,55,31,37,0,171,38,185,499,270,0,0,62,0,0,0,0,0
PK,Pakistan,country,South Asia,30.375321,69.345116,NL,Netherlands,country,Europe and Central Asia,52.132633,5.291266,5664.40172062292,1987,193723,0,0,188418,0,14,12,2,37,249,24,0,0,4967,0,0,0,0,0,0,0,0,0,0
PA,Panama,country,Latin America and the Caribbean,8.537981,-80.782127,NL,Netherlands,country,Europe and Central Asia,52.132633,5.291266,9001.78066275437,1987,23674,0,0,20,0,0,0,29,23480,0,6,0,101,21,0,0,0,0,0,17,0,0,0,0
PG,Papua New Guinea,country,East Asia and Pacific,-6.314993,143.95555,NL,Netherlands,country,Europe and Central Asia,52.132633,5.291266,13694.5617638202,1987,23148,500,0,0,0,0,0,24,0,0,17,7818,376,56,14357,0,0,0,0,0,0,0,0,0
PY,Paraguay,country,Latin America and the Caribbean,-23.442503,-58.443832,NL,Netherlands,country,Europe and Central Asia,52.132633,5.291266,10432.6314667259,1987,86868,0,0,0,0,0,64965,0,5,0,0,21552,6,147,95,0,0,98,0,0,0,0,0,0
PE,Peru,country,Latin America and the Caribbean,-9.189967,-75.015152,NL,Netherlands,country,Europe and Central Asia,52.132633,5.291266,10172.1555439901,1987,3483,0,0,0,20,0,0,1608,1389,0,5,0,438,10,0,13,0,0,0,0,0,0,0,0
PH,Philippines,country,East Asia and Pacific,12.879721,121.774017,NL,Netherlands,country,Europe and Central Asia,52.132633,5.291266,10599.1424563548,1987,477412,13,7439,1,0,0,4207,19,9813,56,0,349719,348,711,105086,0,0,0,0,0,0,0,0,0
PL,Poland,country,Europe and Central Asia,51.919438,19.145136,NL,Netherlands,country,Europe and Central Asia,52.132633,5.291266,947.779312078124,1987,138272,34,373,161,8279,13,82438,9108,6139,593,0,9199,2064,15172,4466,43,0,156,15,19,0,0,0,0
PT,Portugal,country,Europe and Central Asia,39.399872,-8.224454,NL,Netherlands,country,Europe and Central Asia,52.132633,5.291266,1757.57205844983,1987,21318,0,68,0,5,2,1746,7393,2395,73,0,0,3,1123,272,8113,0,32,43,50,0,0,0,0
QA,Qatar,country,Middle East and North Africa,25.354826,51.183884,NL,Netherlands,country,Europe and Central Asia,52.132633,5.291266,4853.89419546757,1987,88,0,0,0,0,0,0,0,0,0,7,0,0,5,75,0,0,1,0,0,0,0,0,0
KR,"Korea, Rep.",country,East Asia and Pacific,35.907757,127.766922,NL,Netherlands,country,Europe and Central Asia,52.132633,5.291266,8760.29648543808,1987,2928,22,0,0,0,0,0,0,974,34,0,6,0,1862,0,30,0,0,0,0,0,0,0,0
RE,Reunion,country,Sub-Saharan Africa,-21.115141,55.536384,NL,Netherlands,country,Europe and Central Asia,52.132633,5.291266,9496.40112322672,1987,46,0,0,46,0,0,0,0,0,0,0,0,0,0,0,0,0,0,0,0,0,0,0,0
RO,Romania,country,Europe and Central Asia,45.943161,24.96676,NL,Netherlands,country,Europe and Central Asia,52.132633,5.291266,1585.82472622901,1987,11630,1971,0,153,159,5,0,252,6432,26,37,39,1,1079,123,56,0,96,1201,0,0,0,0,0
RW,Rwanda,country,Sub-Saharan Africa,-1.940278,29.873888,NL,Netherlands,country,Europe and Central Asia,52.132633,5.291266,6447.26592766404,1987,4670,0,0,0,0,0,0,8,41,0,0,0,4435,186,0,0,0,0,0,0,0,0,0,0
LC,St. Lucia,country,Latin America and the Caribbean,13.909444,-60.978893,NL,Netherlands,country,Europe and Central Asia,52.132633,5.291266,7186.90011754823,1987,15,0,11,0,0,0,0,0,2,0,2,0,0,0,0,0,0,0,0,0,0,0,0,0
WS,Samoa,country,East Asia and Pacific,-13.759029,-172.104629,NL,Netherlands,country,Europe and Central Asia,52.132633,5.291266,15759.4562879314,1987,582,0,0,0,0,0,0,0,0,0,0,581,1,0,0,0,0,0,0,0,0,0,0,0
ST,Sao Tome and Principe,country,Sub-Saharan Africa,0.18636,6.613081,NL,Netherlands,country,Europe and Central Asia,52.132633,5.291266,5783.95560334635,1987,71,0,0,0,0,0,0,0,0,0,5,0,66,0,0,0,0,0,0,0,0,0,0,0
SA,Saudi Arabia,country,Middle East and North Africa,23.885942,45.079162,NL,Netherlands,country,Europe and Central Asia,52.132633,5.291266,4600.62505187096,1987,727,449,0,13,0,0,0,1,13,0,0,0,0,32,20,57,0,0,142,0,0,0,0,0
SN,Senegal,country,Sub-Saharan Africa,14.497401,-14.452362,NL,Netherlands,country,Europe and Central Asia,52.132633,5.291266,4542.00073170807,1987,10607,0,0,0,2,1,0,663,0,0,20,9292,0,3,608,0,0,0,18,0,0,0,0,0
SC,Seychelles,country,Sub-Saharan Africa,-4.679574,55.491977,NL,Netherlands,country,Europe and Central Asia,52.132633,5.291266,7892.65917214529,1987,6,0,0,0,0,0,0,0,0,0,6,0,0,0,0,0,0,0,0,0,0,0,0,0
SL,Sierra Leone,country,Sub-Saharan Africa,8.460555,-11.779889,NL,Netherlands,country,Europe and Central Asia,52.132633,5.291266,5103.87578403076,1987,3013,0,0,0,0,0,15,0,0,0,0,1016,1772,210,0,0,0,0,0,0,0,0,0,0
SG,Singapore,country,East Asia and Pacific,1.352083,103.819836,NL,Netherlands,country,Europe and Central Asia,52.132633,5.291266,10480.8108764807,1987,3316,113,0,4,42,0,73,3,56,11,39,1,1744,1086,11,73,0,45,12,3,0,0,0,0
SB,Solomon Islands,country,East Asia and Pacific,-9.64571,160.156194,NL,Netherlands,country,Europe and Central Asia,52.132633,5.291266,14789.2046540843,1987,80,0,0,0,21,0,0,0,0,0,0,0,59,0,0,0,0,0,0,0,0,0,0,0
SO,Somalia,country,Sub-Saharan Africa,5.152149,46.199616,NL,Netherlands,country,Europe and Central Asia,52.132633,5.291266,6433.87112125778,1987,3,0,0,0,0,0,0,0,0,0,0,0,0,3,0,0,0,0,0,0,0,0,0,0
ZA,S. Africa,country,Sub-Saharan Africa,-30.559482,22.937506,NL,Netherlands,country,Europe and Central Asia,52.132633,5.291266,9364.93674003665,1987,93311,1855,170,58412,1301,0,544,3171,24323,11,68,0,426,1866,391,648,0,122,0,3,0,0,0,0
ES,Spain,country,Europe and Central Asia,40.463667,-3.74922,NL,Netherlands,country,Europe and Central Asia,52.132633,5.291266,1470.75431483959,1987,498909,96405,3964,523,4,57,3680,103727,220197,150,969,458,617,10572,1029,48165,0,1065,7224,103,0,0,0,0
LK,Sri Lanka,country,South Asia,7.873054,80.771797,NL,Netherlands,country,Europe and Central Asia,52.132633,5.291266,8337.33697598278,1987,8935,20,1,0,0,1,5403,2,797,0,35,0,1994,682,0,0,0,0,0,0,0,0,0,0
SD,Sudan,country,Sub-Saharan Africa,12.862807,30.217636,NL,Netherlands,country,Europe and Central Asia,52.132633,5.291266,4906.40724658617,1987,154970,10430,0,90108,0,0,210,0,10,0,0,54145,0,15,0,0,0,0,52,0,0,0,0,0
SR,Suriname,country,Latin America and the Caribbean,3.919305,-56.027783,NL,Netherlands,country,Europe and Central Asia,52.132633,5.291266,7752.61835979374,1987,49220,47383,116,0,0,0,0,447,73,0,61,0,90,1,1012,1,0,0,0,36,0,0,0,0
SZ,Swaziland,country,Sub-Saharan Africa,-26.522503,31.465866,NL,Netherlands,country,Europe and Central Asia,52.132633,5.291266,9120.34635052634,1987,7418,0,0,4044,0,0,0,0,2912,0,1,0,0,461,0,0,0,0,0,0,0,0,0,0
SE,Sweden,country,Europe and Central Asia,60.128161,18.643501,NL,Netherlands,country,Europe and Central Asia,52.132633,5.291266,1211.49203967114,1987,13870,1868,180,742,23,1,6628,149,246,0,47,437,259,1231,1540,43,0,16,380,80,0,0,0,0
CH,Switzerland,country,Europe and Central Asia,46.818188,8.227512,NL,Netherlands,country,Europe and Central Asia,52.132633,5.291266,628.433831119222,1987,8992,109,64,157,133,0,0,397,142,524,0,1458,305,2850,2019,185,0,51,457,141,0,0,0,0
SY,Syrian Arab Rep.,country,Middle East and North Africa,34.802075,38.996815,NL,Netherlands,country,Europe and Central Asia,52.132633,5.291266,3290.16564942916,1987,30,0,0,0,0,0,0,0,4,4,0,0,0,7,0,0,0,0,15,0,0,0,0,0
TH,Thailand,country,East Asia and Pacific,15.870032,100.992541,NL,Netherlands,country,Europe and Central Asia,52.132633,5.291266,9011.80438871334,1987,3355680,16355,3276732,24001,1222,2,55,697,7936,16,271,24400,199,3707,0,1,0,86,0,0,0,0,0,0
TG,Togo,country,Sub-Saharan Africa,8.619543,0.824782,NL,Netherlands,country,Europe and Central Asia,52.132633,5.291266,4860.90492803634,1987,7737,0,0,0,0,0,0,0,21,0,0,1485,6226,5,0,0,0,0,0,0,0,0,0,0
TT,Trinidad and Tobago,country,Latin America and the Caribbean,10.691803,-61.222503,NL,Netherlands,country,Europe and Central Asia,52.132633,5.291266,7485.31082683629,1987,15050,0,0,14977,0,0,0,42,4,0,16,0,0,0,7,4,0,0,0,0,0,0,0,0
TN,Tunisia,country,Middle East and North Africa,33.886917,9.537499,NL,Netherlands,country,Europe and Central Asia,52.132633,5.291266,2059.40768527564,1987,3591,0,0,0,0,0,0,1,3507,0,15,0,0,42,0,0,0,0,26,0,0,0,0,0
TR,Turkey,country,Europe and Central Asia,38.963745,35.243322,NL,Netherlands,country,Europe and Central Asia,52.132633,5.291266,2727.37266399519,1987,62369,444,12,14814,1486,6362,202,4207,29666,316,330,22,35,4029,323,83,0,0,38,0,0,0,0,0
TV,Tuvalu,country,East Asia and Pacific,-7.109535,177.64933,NL,Netherlands,country,Europe and Central Asia,52.132633,5.291266,14976.9667641385,1987,3,0,0,0,0,0,0,0,3,0,0,0,0,0,0,0,0,0,0,0,0,0,0,0
UG,Uganda,country,Sub-Saharan Africa,1.373333,32.290275,NL,Netherlands,country,Europe and Central Asia,52.132633,5.291266,6183.69916292949,1987,21103,0,0,0,0,0,18,0,1,0,0,0,21084,0,0,0,0,0,0,0,0,0,0,0
AE,United Arab Emirates,country,Middle East and North Africa,23.424076,53.847818,NL,Netherlands,country,Europe and Central Asia,52.132633,5.291266,5191.50956132163,1987,134,0,0,7,0,0,0,3,28,0,0,0,0,0,26,33,0,0,37,0,0,0,0,0
GB,United Kingdom,country,Europe and Central Asia,55.378051,-3.435973,NL,Netherlands,country,Europe and Central Asia,52.132633,5.291266,677.828800339671,1987,803941,231511,2113,8165,219413,217,26443,9129,14171,2345,273,21579,6168,21779,8282,10553,172,17019,194676,10105,0,0,0,0
TZ,Tanzania,country,Sub-Saharan Africa,-6.369028,34.888822,NL,Netherlands,country,Europe and Central Asia,52.132633,5.291266,7092.46537743914,1987,37844,8333,3053,0,16732,0,1055,2,12,0,86,2528,3905,2138,0,0,0,0,0,0,0,0,0,0
US,USA,country,North America,37.09024,-95.712891,NL,Netherlands,country,Europe and Central Asia,52.132633,5.291266,7514.49450150191,1987,7201990,165663,810,250168,60952,2667,2753201,1807,62719,3332,145,3793152,378,36391,48960,1189,463,19385,291,780,0,0,0,0
VI,Virgin Islands (U.S.),country,Latin America and the Caribbean,18.335765,-64.896335,NL,Netherlands,country,Europe and Central Asia,52.132633,5.291266,7071.37028151225,1987,52,0,0,0,0,0,0,0,0,0,0,0,52,0,0,0,0,0,0,0,0,0,0,0
UY,Uruguay,country,Latin America and the Caribbean,-32.522779,-55.765835,NL,Netherlands,country,Europe and Central Asia,52.132633,5.291266,11133.9313933714,1987,36285,972,0,0,0,0,273,0,22399,97,0,10370,1,326,0,0,0,1844,0,3,0,0,0,0
RU,Russian Federation,country,Europe and Central Asia,61.52401,105.318756,NL,Netherlands,country,Europe and Central Asia,52.132633,5.291266,5564.49176974562,1987,3068,0,0,144,0,56,0,140,158,488,20,0,14,474,1160,178,0,0,38,198,0,0,0,0
VU,Vanuatu,country,East Asia and Pacific,-15.376706,166.959158,NL,Netherlands,country,Europe and Central Asia,52.132633,5.291266,15635.6771677864,1987,35,0,0,0,0,0,0,0,0,0,0,0,35,0,0,0,0,0,0,0,0,0,0,0
VE,Venezuela,country,Latin America and the Caribbean,6.42375,-66.58973,NL,Netherlands,country,Europe and Central Asia,52.132633,5.291266,8221.81552033438,1987,913,3,0,0,0,0,0,108,763,0,0,0,10,7,0,2,0,20,0,0,0,0,0,0
VN,Vietnam,country,East Asia and Pacific,14.058324,108.277199,NL,Netherlands,country,Europe and Central Asia,52.132633,5.291266,9648.89462365205,1987,1137,0,0,0,0,5,361,0,26,0,48,0,487,17,193,0,0,0,0,0,0,0,0,0
BA,Bosnia & Herzegovina,country,Europe and Central Asia,43.915886,17.679076,NL,Netherlands,country,Europe and Central Asia,52.132633,5.291266,1295.60200505191,1987,23442,301,0,0,39,0,811,7915,9725,0,212,302,40,3046,496,308,0,194,53,0,0,0,0,0
ZM,Zambia,country,Sub-Saharan Africa,-13.133897,27.849332,NL,Netherlands,country,Europe and Central Asia,52.132633,5.291266,7583.09391857494,1987,888,5,0,5,42,0,0,8,279,0,2,0,127,420,0,0,0,0,0,0,0,0,0,0
ZW,Zimbabwe,country,Sub-Saharan Africa,-19.015438,29.154857,NL,Netherlands,country,Europe and Central Asia,52.132633,5.291266,8251.74623450365,1987,3260,63,0,0,220,0,0,109,354,0,0,0,1482,829,0,3,0,200,0,0,0,0,0,0
AF,Afghanistan,country,South Asia,33.93911,67.709953,NL,Netherlands,country,Europe and Central Asia,52.132633,5.291266,5279.45682081029,1988,813,0,0,0,0,22,0,0,196,285,0,0,0,300,0,0,0,10,0,0,0,0,0,0
AL,Albania,country,Europe and Central Asia,41.153332,20.168331,NL,Netherlands,country,Europe and Central Asia,52.132633,5.291266,1662.94804970163,1988,59,0,0,0,0,0,0,39,0,0,0,0,0,20,0,0,0,0,0,0,0,0,0,0
DZ,Algeria,country,Middle East and North Africa,28.033886,1.659626,NL,Netherlands,country,Europe and Central Asia,52.132633,5.291266,2699.60562180564,1988,205,0,0,0,0,0,0,0,111,0,0,0,0,0,0,94,0,0,0,0,0,0,0,0
AD,Andorra,country,Europe and Central Asia,42.546245,1.601554,NL,Netherlands,country,Europe and Central Asia,52.132633,5.291266,1102.47424631417,1988,20,0,0,0,0,0,0,0,20,0,0,0,0,0,0,0,0,0,0,0,0,0,0,0
AO,Angola,country,Sub-Saharan Africa,-11.202692,17.873887,NL,Netherlands,country,Europe and Central Asia,52.132633,5.291266,7153.26012887309,1988,265,0,0,0,0,0,0,0,6,0,0,0,240,1,0,17,0,0,1,0,0,0,0,0
AG,Antigua & Barbuda,country,Latin America and the Caribbean,17.060816,-61.796428,NL,Netherlands,country,Europe and Central Asia,52.132633,5.291266,6969.51561496829,1988,92,0,0,0,0,0,0,89,3,0,0,0,0,0,0,0,0,0,0,0,0,0,0,0
AR,Argentina,country,Latin America and the Caribbean,-38.416097,-63.616672,NL,Netherlands,country,Europe and Central Asia,52.132633,5.291266,12079.141599911,1988,1523337,34777,1000,1181,32614,37,321729,857,120418,154,0,934937,5358,2867,51895,47,0,15446,0,20,0,0,0,0
AW,Aruba,country,Latin America and the Caribbean,12.52111,-69.968338,NL,Netherlands,country,Europe and Central Asia,52.132633,5.291266,7916.83219733317,1988,179,0,0,0,0,0,0,2,0,0,0,0,177,0,0,0,0,0,0,0,0,0,0,0
AU,Australia,country,East Asia and Pacific,-25.274398,133.775136,NL,Netherlands,country,Europe and Central Asia,52.132633,5.291266,14809.6240060143,1988,230087,3367,1075,49877,42987,0,218,2874,5304,69,37,962,0,116007,346,1101,0,3264,480,2119,0,0,0,0
AT,Austria,country,Europe and Central Asia,47.516231,14.550072,NL,Netherlands,country,Europe and Central Asia,52.132633,5.291266,839.291618013374,1988,44345,798,0,1027,301,0,691,3316,369,99,0,28125,21,3588,4134,52,0,631,580,503,110,0,0,0
BS,The Bahamas,country,Latin America and the Caribbean,25.03428,-77.39628,NL,Netherlands,country,Europe and Central Asia,52.132633,5.291266,7360.27731343498,1988,237,0,0,0,0,0,0,0,0,0,0,0,0,1,0,236,0,0,0,0,0,0,0,0
BH,Bahrain,country,Middle East and North Africa,25.930414,50.637772,NL,Netherlands,country,Europe and Central Asia,52.132633,5.291266,4769.58515039393,1988,1244,0,1194,0,26,0,23,0,0,0,0,0,0,0,0,1,0,0,0,0,0,0,0,0
BD,Bangladesh,country,South Asia,23.684994,90.356331,NL,Netherlands,country,Europe and Central Asia,52.132633,5.291266,7632.39230045145,1988,1198,0,0,0,0,0,0,0,0,858,0,0,27,14,0,0,0,299,0,0,0,0,0,0
BB,Barbados,country,Latin America and the Caribbean,13.193887,-59.543198,NL,Netherlands,country,Europe and Central Asia,52.132633,5.291266,7153.16360523428,1988,45,0,14,0,0,0,0,8,12,0,11,0,0,0,0,0,0,0,0,0,0,0,0,0
BE,Belgium,country,Europe and Central Asia,50.503887,4.469936,NL,Netherlands,country,Europe and Central Asia,52.132633,5.291266,190.099464170486,1988,5187869,1852673,410743,537955,78003,1254,18290,134060,177926,6421,936,717892,25562,122896,129570,388234,8860,89560,476629,15834,3431,0,0,0
BZ,Belize,country,Latin America and the Caribbean,17.189877,-88.49765,NL,Netherlands,country,Europe and Central Asia,52.132633,5.291266,8769.87266567711,1988,161,0,0,0,0,0,0,5,142,0,0,0,0,0,0,0,0,0,14,0,0,0,0,0
BJ,Benin,country,Sub-Saharan Africa,9.30769,2.315834,NL,Netherlands,country,Europe and Central Asia,52.132633,5.291266,4774.9082272955,1988,5014,0,0,0,0,0,600,0,0,0,0,4338,76,0,0,0,0,0,0,0,0,0,0,0
BM,Bermuda,country,North America,32.321384,-64.75737,NL,Netherlands,country,Europe and Central Asia,52.132633,5.291266,5921.69264374945,1988,0,0,0,0,0,0,0,0,0,0,0,0,0,0,0,0,0,0,0,0,0,0,0,0
BT,Bhutan,country,South Asia,27.514162,90.433601,NL,Netherlands,country,Europe and Central Asia,52.132633,5.291266,7318.73102854341,1988,0,0,0,0,0,0,0,0,0,0,0,0,0,0,0,0,0,0,0,0,0,0,0,0
BO,Bolivia,country,Latin America and the Caribbean,-16.290154,-63.588653,NL,Netherlands,country,Europe and Central Asia,52.132633,5.291266,10077.035745454,1988,8596,0,0,0,0,0,8128,0,0,0,0,0,468,0,0,0,0,0,0,0,0,0,0,0
BW,Botswana,country,Sub-Saharan Africa,-22.328474,24.684866,NL,Netherlands,country,Europe and Central Asia,52.132633,5.291266,8501.31391137111,1988,802,0,0,0,0,0,20,0,3,0,0,0,0,0,0,1,0,778,0,0,0,0,0,0
BR,Brazil,country,Latin America and the Caribbean,-14.235004,-51.92528,NL,Netherlands,country,Europe and Central Asia,52.132633,5.291266,9199.82378426808,1988,1940105,2069,647,42069,1845,541,691511,5926,182666,118,1220,917476,52940,13260,16959,72,0,10761,0,25,0,0,0,0
VG,British Virgin Islands,country,Latin America and the Caribbean,18.420695,-64.639968,NL,Netherlands,country,Europe and Central Asia,52.132633,5.291266,7046.67166409423,1988,1,0,0,0,0,0,0,0,0,0,0,0,0,0,0,1,0,0,0,0,0,0,0,0
BG,Bulgaria,country,Europe and Central Asia,42.733883,25.48583,NL,Netherlands,country,Europe and Central Asia,52.132633,5.291266,1835.89390091094,1988,5464,40,0,513,194,0,20,1525,1781,0,0,372,0,222,0,767,0,30,0,0,0,0,0,0
BF,Burkina Faso,country,Sub-Saharan Africa,12.238333,-1.561593,NL,Netherlands,country,Europe and Central Asia,52.132633,5.291266,4483.46337679662,1988,211,0,0,0,0,0,0,127,84,0,0,0,0,0,0,0,0,0,0,0,0,0,0,0
BI,Burundi,country,Sub-Saharan Africa,-3.373056,29.918886,NL,Netherlands,country,Europe and Central Asia,52.132633,5.291266,6600.94270771684,1988,3046,0,0,0,0,0,60,0,32,0,0,50,2755,149,0,0,0,0,0,0,0,0,0,0
CV,Cape Verde,country,Sub-Saharan Africa,16.002082,-24.013197,NL,Netherlands,country,Europe and Central Asia,52.132633,5.291266,4779.12241363511,1988,1,0,0,0,0,0,0,0,0,0,0,0,0,1,0,0,0,0,0,0,0,0,0,0
KH,Cambodia,country,East Asia and Pacific,12.565679,104.990963,NL,Netherlands,country,Europe and Central Asia,52.132633,5.291266,9566.77986798423,1988,1,0,0,0,0,0,0,0,0,0,0,0,1,0,0,0,0,0,0,0,0,0,0,0
CM,Cameroon,country,Sub-Saharan Africa,7.369722,12.354722,NL,Netherlands,country,Europe and Central Asia,52.132633,5.291266,5024.69498467425,1988,98082,0,0,0,0,0,40,0,94,0,0,2134,92410,178,3226,0,0,0,0,0,0,0,0,0
CA,Canada,country,North America,56.130366,-106.346771,NL,Netherlands,country,Europe and Central Asia,52.132633,5.291266,6460.97044969052,1988,242846,13849,727,365,84433,4,74662,292,5099,0,0,38698,60,2132,19537,204,13,1399,1129,256,0,0,0,0
KY,Cayman Islands,country,Latin America and the Caribbean,19.513469,-80.566956,NL,Netherlands,country,Europe and Central Asia,52.132633,5.291266,8038.70246691073,1988,6,0,0,0,0,0,0,0,6,0,0,0,0,0,0,0,0,0,0,0,0,0,0,0
CF,Central African Rep.,country,Sub-Saharan Africa,6.611111,20.939444,NL,Netherlands,country,Europe and Central Asia,52.132633,5.291266,5266.43794215381,1988,658,0,0,0,0,0,0,4,0,0,0,0,653,1,0,0,0,0,0,0,0,0,0,0
TD,Chad,country,Sub-Saharan Africa,15.454166,18.732207,NL,Netherlands,country,Europe and Central Asia,52.132633,5.291266,4253.04142481956,1988,28,0,0,0,0,0,0,0,24,0,0,0,0,4,0,0,0,0,0,0,0,0,0,0
CL,Chile,country,Latin America and the Caribbean,-35.675147,-71.542969,NL,Netherlands,country,Europe and Central Asia,52.132633,5.291266,12277.7125187572,1988,129027,784,0,0,1242,89,0,9174,116491,6,0,0,0,35,0,105,0,176,0,925,0,0,0,0
HK,Hong Kong,country,East Asia and Pacific,22.396428,114.109497,NL,Netherlands,country,Europe and Central Asia,52.132633,5.291266,9266.1960756805,1988,3694,227,13,12,89,14,508,943,576,0,5,200,45,669,73,99,0,93,45,83,0,0,0,0
CN,China,country,East Asia and Pacific,35.86166,104.195397,NL,Netherlands,country,Europe and Central Asia,52.132633,5.291266,7494.7853167023,1988,107085,2731,507,400,19813,285,18410,6872,4378,14,201,40139,2033,9528,701,108,0,72,5,888,0,0,0,0
TW,Taiwan,country,East Asia and Pacific,23.69781,120.960515,NL,Netherlands,country,Europe and Central Asia,52.132633,5.291266,9547.580136744,1988,4976,402,0,43,0,0,3,3552,415,0,0,33,15,456,0,55,0,0,2,0,0,0,0,0
CO,Colombia,country,Latin America and the Caribbean,4.570868,-74.297333,NL,Netherlands,country,Europe and Central Asia,52.132633,5.291266,8906.59625265782,1988,88612,1,48,59,0,0,0,167,58582,0,0,0,29132,622,0,1,0,0,0,0,0,0,0,0
KM,Comoros,country,Sub-Saharan Africa,-11.875001,43.872219,NL,Netherlands,country,Europe and Central Asia,52.132633,5.291266,8027.61704570925,1988,123,0,0,0,0,0,0,0,0,0,123,0,0,0,0,0,0,0,0,0,0,0,0,0
CG,"Congo, Rep.",country,Sub-Saharan Africa,-0.228021,15.827659,NL,Netherlands,country,Europe and Central Asia,52.132633,5.291266,5911.71061028531,1988,381,0,0,0,0,0,0,0,0,0,0,0,381,0,0,0,0,0,0,0,0,0,0,0
CR,Costa Rica,country,Latin America and the Caribbean,9.748917,-83.753428,NL,Netherlands,country,Europe and Central Asia,52.132633,5.291266,9098.63299061578,1988,30036,0,1105,0,0,0,394,12,13994,0,146,0,4851,9534,0,0,0,0,0,0,0,0,0,0
CI,Ivory Coast,country,Sub-Saharan Africa,7.539989,-5.54708,NL,Netherlands,country,Europe and Central Asia,52.132633,5.291266,5061.89043335153,1988,121613,0,0,0,0,0,2902,0,8440,0,0,465,103523,313,5970,0,0,0,0,0,0,0,0,0
CU,Cuba,country,Latin America and the Caribbean,21.521757,-77.781167,NL,Netherlands,country,Europe and Central Asia,52.132633,5.291266,7680.26012994792,1988,25132,0,542,1501,0,0,0,0,21959,0,0,0,270,832,0,28,0,0,0,0,0,0,0,0
CY,Cyprus,country,Europe and Central Asia,35.126413,33.429859,NL,Netherlands,country,Europe and Central Asia,52.132633,5.291266,2921.22701048965,1988,10236,7,80,0,257,0,0,18,7932,0,0,1756,4,80,0,74,0,0,28,0,0,0,0,0
CZ,Czech Republic,country,Europe and Central Asia,49.817492,15.472962,NL,Netherlands,country,Europe and Central Asia,52.132633,5.291266,757.989030977363,1988,6959,1242,21,15,536,0,9,329,1541,69,0,19,37,373,660,60,8,197,1835,16,0,0,0,0
KP,"Korea, Dem. Rep.",country,East Asia and Pacific,40.339852,127.510093,NL,Netherlands,country,Europe and Central Asia,52.132633,5.291266,8330.81722697167,1988,56,0,0,0,0,0,0,0,15,0,0,0,0,41,0,0,0,0,0,0,0,0,0,0
CD,"Congo, Dem. Rep.",country,Sub-Saharan Africa,-4.038333,21.758664,NL,Netherlands,country,Europe and Central Asia,52.132633,5.291266,6443.87930415401,1988,14628,0,0,0,0,0,0,0,0,0,0,9821,834,131,3763,0,0,79,0,0,0,0,0,0
DK,Denmark,country,Europe and Central Asia,56.26392,9.501785,NL,Netherlands,country,Europe and Central Asia,52.132633,5.291266,535.199061695428,1988,270662,94509,328,1675,22060,3,87197,1096,679,33,853,22697,178,19597,4005,700,323,1233,13769,25,25,0,0,0
DJ,Djibouti,country,Middle East and North Africa,11.825138,42.590275,NL,Netherlands,country,Europe and Central Asia,52.132633,5.291266,5591.56654924097,1988,11,0,0,0,0,0,0,0,3,0,0,0,0,0,0,8,0,0,0,0,0,0,0,0
DM,Dominica,country,Latin America and the Caribbean,15.414999,-61.370976,NL,Netherlands,country,Europe and Central Asia,52.132633,5.291266,7082.57846164332,1988,109,0,0,0,0,0,91,0,14,0,1,0,0,3,0,0,0,0,0,0,0,0,0,0
DO,Dominican Republic,country,Latin America and the Caribbean,18.735693,-70.162651,NL,Netherlands,country,Europe and Central Asia,52.132633,5.291266,7397.04097096439,1988,6214,0,4,0,0,0,5645,5,6,0,49,0,0,505,0,0,0,0,0,0,0,0,0,0
EC,Ecuador,country,Latin America and the Caribbean,-1.831239,-78.183406,NL,Netherlands,country,Europe and Central Asia,52.132633,5.291266,9734.86379118107,1988,22284,9,0,0,0,0,0,389,20915,0,2,5,720,172,20,5,0,21,26,0,0,0,0,0
EG,Egypt,country,Middle East and North Africa,26.820553,30.802498,NL,Netherlands,country,Europe and Central Asia,52.132633,5.291266,3531.6048959239,1988,39287,114,1918,19062,0,0,1092,12014,4431,0,3,0,0,114,44,13,0,0,482,0,0,0,0,0
SV,El Salvador,country,Latin America and the Caribbean,13.794185,-88.89653,NL,Netherlands,country,Europe and Central Asia,52.132633,5.291266,9092.61473080207,1988,3836,0,0,10,0,0,133,3,24,0,6,330,2333,997,0,0,0,0,0,0,0,0,0,0
GQ,Equatorial Guinea,country,Sub-Saharan Africa,1.650801,10.267895,NL,Netherlands,country,Europe and Central Asia,52.132633,5.291266,5638.71300202098,1988,2668,0,0,0,0,0,0,0,0,0,0,0,2668,0,0,0,0,0,0,0,0,0,0,0
ET,Ethiopia,country,Sub-Saharan Africa,9.145,40.489673,NL,Netherlands,country,Europe and Central Asia,52.132633,5.291266,5747.77550162016,1988,10305,0,0,0,844,0,385,1687,8,0,0,3992,2522,867,0,0,0,0,0,0,0,0,0,0
FK,Falkland Islands,country,,-51.796253,-59.523613,NL,Netherlands,country,Europe and Central Asia,52.132633,5.291266,13058.8529952815,1988,193,0,0,0,0,0,0,0,193,0,0,0,0,0,0,0,0,0,0,0,0,0,0,0
FO,Faroe Islands,country,Europe and Central Asia,61.892635,-6.911806,NL,Netherlands,country,Europe and Central Asia,52.132633,5.291266,1309.67688145428,1988,110,0,0,0,0,0,0,0,0,0,0,0,0,0,0,0,0,0,0,110,0,0,0,0
FJ,Fiji,country,East Asia and Pacific,-16.578193,179.414413,NL,Netherlands,country,Europe and Central Asia,52.132633,5.291266,16045.8149605478,1988,115,0,0,0,0,0,0,0,115,0,0,0,0,0,0,0,0,0,0,0,0,0,0,0
FI,Finland,country,Europe and Central Asia,61.92411,25.748151,NL,Netherlands,country,Europe and Central Asia,52.132633,5.291266,1637.7442410538,1988,7885,700,569,471,0,6,13,53,260,0,5,460,331,42,2510,15,0,0,2197,253,0,0,0,0
FR,France,country,Europe and Central Asia,46.227638,2.213749,NL,Netherlands,country,Europe and Central Asia,52.132633,5.291266,694.275225072112,1988,6042208,3191462,6813,978944,334597,501,497830,60649,123935,828,181,399586,13257,36903,31151,115851,896,16922,226737,5929,132,0,0,0
GF,French Guiana,country,Latin America and the Caribbean,3.933889,-53.125782,NL,Netherlands,country,Europe and Central Asia,52.132633,5.291266,7567.79208803929,1988,1839,1839,0,0,0,0,0,0,0,0,0,0,0,0,0,0,0,0,0,0,0,0,0,0
PF,French Polynesia,country,East Asia and Pacific,-17.679742,-149.406843,NL,Netherlands,country,Europe and Central Asia,52.132633,5.291266,15609.0170889144,1988,35,0,0,0,0,0,0,0,0,0,0,0,0,0,35,0,0,0,0,0,0,0,0,0
GA,Gabon,country,Sub-Saharan Africa,-0.803689,11.609444,NL,Netherlands,country,Europe and Central Asia,52.132633,5.291266,5922.59012584119,1988,2565,0,0,0,0,0,0,0,0,0,0,0,2565,0,0,0,0,0,0,0,0,0,0,0
GM,The Gambia,country,Sub-Saharan Africa,13.443182,-15.310139,NL,Netherlands,country,Europe and Central Asia,52.132633,5.291266,4682.8299023008,1988,4752,0,0,0,0,0,0,0,0,0,0,4752,0,0,0,0,0,0,0,0,0,0,0,0
GH,Ghana,country,Sub-Saharan Africa,7.946527,-1.023194,NL,Netherlands,country,Europe and Central Asia,52.132633,5.291266,4952.43453029495,1988,3824,0,1,0,0,0,0,1,160,0,0,790,2760,112,0,0,0,0,0,0,0,0,0,0
GR,Greece,country,Europe and Central Asia,39.074208,21.824312,NL,Netherlands,country,Europe and Central Asia,52.132633,5.291266,1932.73806101011,1988,117362,11381,60,24,421,243,312,14842,81780,393,32,156,18,1982,25,4327,0,890,344,0,132,0,0,0
GL,Greenland,country,Europe and Central Asia,71.706936,-42.604303,NL,Netherlands,country,Europe and Central Asia,52.132633,5.291266,3173.90045043524,1988,9,0,0,0,0,0,0,9,0,0,0,0,0,0,0,0,0,0,0,0,0,0,0,0
GD,Grenada,country,Latin America and the Caribbean,12.262776,-61.604171,NL,Netherlands,country,Europe and Central Asia,52.132633,5.291266,7372.78957887027,1988,388,0,0,0,0,0,0,0,0,0,388,0,0,0,0,0,0,0,0,0,0,0,0,0
GP,Guadeloupe,country,Latin America and the Caribbean,16.995971,-62.067641,NL,Netherlands,country,Europe and Central Asia,52.132633,5.291266,6993.46468732544,1988,2,0,0,0,0,0,0,0,0,0,0,0,0,2,0,0,0,0,0,0,0,0,0,0
GT,Guatemala,country,Latin America and the Caribbean,15.783471,-90.230759,NL,Netherlands,country,Europe and Central Asia,52.132633,5.291266,9007.49924080917,1988,91347,0,0,78605,0,0,419,226,299,0,85,0,5195,6518,0,0,0,0,0,0,0,0,0,0
GN,Guinea,country,Sub-Saharan Africa,9.945587,-9.696645,NL,Netherlands,country,Europe and Central Asia,52.132633,5.291266,4888.42740265752,1988,6492,0,0,0,0,0,0,0,32,0,0,5593,525,0,49,0,0,0,0,293,0,0,0,0
GW,Guinea-Bissau,country,Sub-Saharan Africa,11.803749,-15.180413,NL,Netherlands,country,Europe and Central Asia,52.132633,5.291266,4851.46336431433,1988,55,0,0,0,0,0,0,0,0,0,0,55,0,0,0,0,0,0,0,0,0,0,0,0
GY,Guyana,country,Latin America and the Caribbean,4.860416,-58.93018,NL,Netherlands,country,Europe and Central Asia,52.132633,5.291266,7854.28663904211,1988,15960,15934,0,0,0,0,3,2,0,0,0,0,0,5,0,16,0,0,0,0,0,0,0,0
HT,Haiti,country,Latin America and the Caribbean,18.971187,-72.285215,NL,Netherlands,country,Europe and Central Asia,52.132633,5.291266,7522.06589738054,1988,744,0,0,0,0,0,0,6,87,0,0,0,613,22,0,0,0,16,0,0,0,0,0,0
VA,Vatican City,country,Europe and Central Asia,41.902916,12.453389,NL,Netherlands,country,Europe and Central Asia,52.132633,5.291266,1260.37470565482,1988,18,0,0,0,0,0,0,0,18,0,0,0,0,0,0,0,0,0,0,0,0,0,0,0
HN,Honduras,country,Latin America and the Caribbean,15.199999,-86.241905,NL,Netherlands,country,Europe and Central Asia,52.132633,5.291266,8792.1412930647,1988,21143,0,0,0,0,0,0,71,15292,0,0,28,1047,2541,1890,0,0,0,0,274,0,0,0,0
HU,Hungary,country,Europe and Central Asia,47.162494,19.503304,NL,Netherlands,country,Europe and Central Asia,52.132633,5.291266,1161.43710178692,1988,67708,5490,0,638,6333,0,14804,11458,2125,0,542,118,92,4102,20071,59,0,1814,41,21,0,0,0,0
IS,Iceland,country,Europe and Central Asia,64.963051,-19.020835,NL,Netherlands,country,Europe and Central Asia,52.132633,5.291266,1984.31748040656,1988,1268,0,48,0,0,0,0,3,0,15,0,489,0,655,0,0,0,0,58,0,0,0,0,0
IN,India,country,South Asia,20.593684,78.96288,NL,Netherlands,country,Europe and Central Asia,52.132633,5.291266,7118.41160611993,1988,11945,658,0,16,0,1994,165,245,2175,73,730,3465,599,1822,0,0,0,0,3,0,0,0,0,0
ID,Indonesia,country,East Asia and Pacific,-0.789275,113.921327,NL,Netherlands,country,Europe and Central Asia,52.132633,5.291266,11348.3157118067,1988,669347,2307,285154,66163,0,60,84,65,1295,0,4947,98215,21744,11836,177110,43,0,323,0,1,0,0,0,0
IR,Iran,country,Middle East and North Africa,32.427908,53.688046,NL,Netherlands,country,Europe and Central Asia,52.132633,5.291266,4439.92349164564,1988,770,0,0,0,0,53,0,20,50,69,46,0,510,22,0,0,0,0,0,0,0,0,0,0
IQ,Iraq,country,Middle East and North Africa,33.223191,43.679291,NL,Netherlands,country,Europe and Central Asia,52.132633,5.291266,3716.01489657068,1988,95,0,0,0,0,0,0,0,80,0,0,0,0,15,0,0,0,0,0,0,0,0,0,0
IE,Ireland,country,Europe and Central Asia,53.41291,-8.24389,NL,Netherlands,country,Europe and Central Asia,52.132633,5.291266,921.16427694974,1988,227375,15244,2,957,76,0,3,2172,321,41,0,5202,14,1614,3089,2470,0,4196,186158,5816,0,0,0,0
IL,Israel,country,Middle East and North Africa,31.046051,34.851612,NL,Netherlands,country,Europe and Central Asia,52.132633,5.291266,3357.92420509801,1988,67929,10,3615,63,0,3,58,4884,43426,6,7,873,63,14450,43,72,0,49,307,0,0,0,0,0
IT,Italy,country,Europe and Central Asia,41.87194,12.56738,NL,Netherlands,country,Europe and Central Asia,52.132633,5.291266,1267.24888463599,1988,254863,29910,12194,7043,108,463,141,68111,66365,96,166,3950,1835,19413,8841,19901,6,6004,9446,876,0,0,0,0
JM,Jamaica,country,Latin America and the Caribbean,18.109581,-77.297508,NL,Netherlands,country,Europe and Central Asia,52.132633,5.291266,7936.89550568616,1988,2484,0,0,0,0,0,0,79,2005,0,45,0,7,152,0,196,0,0,0,0,0,0,0,0
JP,Japan,country,East Asia and Pacific,36.204824,138.252924,NL,Netherlands,country,Europe and Central Asia,52.132633,5.291266,9195.35225352267,1988,3877,1234,0,51,2,7,315,30,510,25,1,62,63,1287,6,131,0,1,142,10,0,0,0,0
JO,Jordan,country,Middle East and North Africa,30.585164,36.238414,NL,Netherlands,country,Europe and Central Asia,52.132633,5.291266,3479.04398919673,1988,649,9,1,0,0,0,71,93,0,0,0,475,0,0,0,0,0,0,0,0,0,0,0,0
KE,Kenya,country,Sub-Saharan Africa,-0.023559,37.906193,NL,Netherlands,country,Europe and Central Asia,52.132633,5.291266,6555.35341996734,1988,38758,4,0,20130,84,474,671,542,6266,0,0,108,5333,5117,0,0,0,0,0,29,0,0,0,0
KI,Kiribati,country,East Asia and Pacific,-3.370417,-168.734039,NL,Netherlands,country,Europe and Central Asia,52.132633,5.291266,14581.1451987996,1988,1,0,0,0,0,0,0,0,1,0,0,0,0,0,0,0,0,0,0,0,0,0,0,0
KW,Kuwait,country,Middle East and North Africa,29.31166,47.481766,NL,Netherlands,country,Europe and Central Asia,52.132633,5.291266,4281.29675541009,1988,26,5,0,0,0,0,0,0,0,0,0,0,1,0,20,0,0,0,0,0,0,0,0,0
LA,Lao PDR,country,East Asia and Pacific,19.85627,102.495496,NL,Netherlands,country,Europe and Central Asia,52.132633,5.291266,8762.19693848758,1988,20,0,0,0,0,0,0,0,0,0,0,0,20,0,0,0,0,0,0,0,0,0,0,0
LB,Lebanon,country,Middle East and North Africa,33.854721,35.862285,NL,Netherlands,country,Europe and Central Asia,52.132633,5.291266,3174.31364895422,1988,296,0,0,94,0,0,0,43,0,0,0,0,0,42,1,76,0,0,20,20,0,0,0,0
LS,Lesotho,country,Sub-Saharan Africa,-29.609988,28.233608,NL,Netherlands,country,Europe and Central Asia,52.132633,5.291266,9370.86451383506,1988,2,0,0,0,0,0,0,1,0,0,0,0,0,1,0,0,0,0,0,0,0,0,0,0
LR,Liberia,country,Sub-Saharan Africa,6.428055,-9.429499,NL,Netherlands,country,Europe and Central Asia,52.132633,5.291266,5263.88092790403,1988,6530,0,4,0,0,0,24,0,0,0,0,297,3801,806,1598,0,0,0,0,0,0,0,0,0
MG,Madagascar,country,Sub-Saharan Africa,-18.766947,46.869107,NL,Netherlands,country,Europe and Central Asia,52.132633,5.291266,8859.24907976815,1988,1398,0,0,0,0,0,0,0,12,0,569,0,804,13,0,0,0,0,0,0,0,0,0,0
MW,Malawi,country,Sub-Saharan Africa,-13.254308,34.301525,NL,Netherlands,country,Europe and Central Asia,52.132633,5.291266,7795.73578475551,1988,12989,0,0,0,0,13,1750,0,0,0,25,0,1774,9427,0,0,0,0,0,0,0,0,0,0
MY,Malaysia,country,East Asia and Pacific,4.210484,101.975766,NL,Netherlands,country,Europe and Central Asia,52.132633,5.291266,10103.573887016,1988,558916,49,29,98,0,1,591,4,1169,0,559,384182,41956,6063,124141,74,0,0,0,0,0,0,0,0
ML,Mali,country,Sub-Saharan Africa,17.570692,-3.996166,NL,Netherlands,country,Europe and Central Asia,52.132633,5.291266,3932.83821656903,1988,295,0,0,0,0,0,25,0,270,0,0,0,0,0,0,0,0,0,0,0,0,0,0,0
MT,Malta,country,Middle East and North Africa,35.937496,14.375416,NL,Netherlands,country,Europe and Central Asia,52.132633,5.291266,1940.29511645147,1988,2461,0,2228,0,0,0,0,1,185,0,0,0,0,37,0,4,0,0,6,0,0,0,0,0
MR,Mauritania,country,Sub-Saharan Africa,21.00789,-10.940835,NL,Netherlands,country,Europe and Central Asia,52.132633,5.291266,3737.10710204698,1988,19,0,0,0,0,0,0,0,0,0,0,0,0,9,0,0,0,0,0,10,0,0,0,0
MU,Mauritius,country,Sub-Saharan Africa,-20.348404,57.552152,NL,Netherlands,country,Europe and Central Asia,52.132633,5.291266,9522.32397113427,1988,52079,0,0,51957,0,0,0,0,42,0,0,0,79,1,0,0,0,0,0,0,0,0,0,0
MX,Mexico,country,Latin America and the Caribbean,23.634501,-102.552784,NL,Netherlands,country,Europe and Central Asia,52.132633,5.291266,9096.02925433637,1988,36692,0,0,26895,54,0,464,44,2312,0,27,4120,2185,467,0,119,0,5,0,0,0,0,0,0
MN,Mongolia,country,East Asia and Pacific,46.862496,103.846656,NL,Netherlands,country,Europe and Central Asia,52.132633,5.291266,6578.37360656137,1988,22,0,0,0,0,0,0,0,0,22,0,0,0,0,0,0,0,0,0,0,0,0,0,0
MA,Morocco,country,Middle East and North Africa,31.791702,-7.09262,NL,Netherlands,country,Europe and Central Asia,52.132633,5.291266,2477.51887962001,1988,56008,205,181,0,88,93,118,778,53103,19,1119,10,1,217,32,10,0,34,0,0,0,0,0,0
MZ,Mozambique,country,Sub-Saharan Africa,-18.665695,35.529562,NL,Netherlands,country,Europe and Central Asia,52.132633,5.291266,8408.65514392429,1988,13186,0,0,10870,1476,61,50,0,656,0,0,0,21,52,0,0,0,0,0,0,0,0,0,0
MM,Myanmar,country,East Asia and Pacific,21.913965,95.956223,NL,Netherlands,country,Europe and Central Asia,52.132633,5.291266,8155.33610611348,1988,850,850,0,0,0,0,0,0,0,0,0,0,0,0,0,0,0,0,0,0,0,0,0,0
NP,Nepal,country,South Asia,28.394857,84.124008,NL,Netherlands,country,Europe and Central Asia,52.132633,5.291266,6825.56367989948,1988,377,0,0,0,0,0,377,0,0,0,0,0,0,0,0,0,0,0,0,0,0,0,0,0
NC,New Caledonia,country,East Asia and Pacific,-20.904305,165.618042,NL,Netherlands,country,Europe and Central Asia,52.132633,5.291266,16169.0299841747,1988,0,0,0,0,0,0,0,0,0,0,0,0,0,0,0,0,0,0,0,0,0,0,0,0
NZ,New Zealand,country,East Asia and Pacific,-40.900557,174.885971,NL,Netherlands,country,Europe and Central Asia,52.132633,5.291266,18557.9955703276,1988,40557,4,0,130,6889,0,34,2962,21361,2780,0,70,33,435,459,1,0,3529,1368,502,0,0,0,0
NI,Nicaragua,country,Latin America and the Caribbean,12.865416,-85.207229,NL,Netherlands,country,Europe and Central Asia,52.132633,5.291266,8925.48831852571,1988,9409,0,0,56,0,0,322,75,5964,0,0,500,2481,0,0,2,0,9,0,0,0,0,0,0
NE,Niger,country,Sub-Saharan Africa,17.607789,8.081666,NL,Netherlands,country,Europe and Central Asia,52.132633,5.291266,3851.08799266713,1988,59,0,0,0,0,0,0,4,55,0,0,0,0,0,0,0,0,0,0,0,0,0,0,0
NG,Nigeria,country,Sub-Saharan Africa,9.081999,8.675277,NL,Netherlands,country,Europe and Central Asia,52.132633,5.291266,4802.241429822,1988,106082,39,24,0,0,0,2278,29,1,0,51,60204,41889,451,1116,0,0,0,0,0,0,0,0,0
NO,Norway,country,Europe and Central Asia,60.472024,8.468946,NL,Netherlands,country,Europe and Central Asia,52.132633,5.291266,948.57355618311,1988,2475,28,547,0,0,1,33,113,123,82,2,140,2,166,467,265,0,0,358,0,148,0,0,0
OM,Oman,country,Middle East and North Africa,21.512583,55.923255,NL,Netherlands,country,Europe and Central Asia,52.132633,5.291266,5491.22131202927,1988,280,0,250,0,0,0,0,0,0,0,0,0,0,0,0,0,0,0,30,0,0,0,0,0
PK,Pakistan,country,South Asia,30.375321,69.345116,NL,Netherlands,country,Europe and Central Asia,52.132633,5.291266,5664.40172062292,1988,285544,0,0,280586,0,0,0,0,40,88,55,0,4,4771,0,0,0,0,0,0,0,0,0,0
PA,Panama,country,Latin America and the Caribbean,8.537981,-80.782127,NL,Netherlands,country,Europe and Central Asia,52.132633,5.291266,9001.78066275437,1988,21571,0,0,0,0,0,0,24,21351,0,1,0,153,30,0,12,0,0,0,0,0,0,0,0
PG,Papua New Guinea,country,East Asia and Pacific,-6.314993,143.95555,NL,Netherlands,country,Europe and Central Asia,52.132633,5.291266,13694.5617638202,1988,19743,0,0,0,0,0,0,0,4,0,10,10574,1060,101,7978,0,0,16,0,0,0,0,0,0
PY,Paraguay,country,Latin America and the Caribbean,-23.442503,-58.443832,NL,Netherlands,country,Europe and Central Asia,52.132633,5.291266,10432.6314667259,1988,252993,0,0,0,0,0,232486,8,315,0,0,19790,5,105,190,0,0,94,0,0,0,0,0,0
PE,Peru,country,Latin America and the Caribbean,-9.189967,-75.015152,NL,Netherlands,country,Europe and Central Asia,52.132633,5.291266,10172.1555439901,1988,4005,0,0,0,40,0,16,2230,1395,0,0,0,229,71,0,0,0,24,0,0,0,0,0,0
PH,Philippines,country,East Asia and Pacific,12.879721,121.774017,NL,Netherlands,country,Europe and Central Asia,52.132633,5.291266,10599.1424563548,1988,454482,10,23982,0,0,0,6193,7,9101,33,0,319818,157,481,94672,28,0,0,0,0,0,0,0,0
PL,Poland,country,Europe and Central Asia,51.919438,19.145136,NL,Netherlands,country,Europe and Central Asia,52.132633,5.291266,947.779312078124,1988,228815,4191,0,6673,12151,0,144112,16619,8067,501,0,10189,1780,17675,6258,72,0,137,390,0,0,0,0,0
PT,Portugal,country,Europe and Central Asia,39.399872,-8.224454,NL,Netherlands,country,Europe and Central Asia,52.132633,5.291266,1757.57205844983,1988,28652,376,1059,30,160,72,0,6932,2638,61,5,2182,3,1388,82,8347,0,11,5298,8,0,0,0,0
QA,Qatar,country,Middle East and North Africa,25.354826,51.183884,NL,Netherlands,country,Europe and Central Asia,52.132633,5.291266,4853.89419546757,1988,5,0,0,0,0,0,0,0,5,0,0,0,0,0,0,0,0,0,0,0,0,0,0,0
KR,"Korea, Rep.",country,East Asia and Pacific,35.907757,127.766922,NL,Netherlands,country,Europe and Central Asia,52.132633,5.291266,8760.29648543808,1988,2775,6,0,19,0,0,167,21,551,0,0,251,0,1747,13,0,0,0,0,0,0,0,0,0
RE,Reunion,country,Sub-Saharan Africa,-21.115141,55.536384,NL,Netherlands,country,Europe and Central Asia,52.132633,5.291266,9496.40112322672,1988,427,0,0,399,0,0,0,0,1,0,0,0,25,2,0,0,0,0,0,0,0,0,0,0
RO,Romania,country,Europe and Central Asia,45.943161,24.96676,NL,Netherlands,country,Europe and Central Asia,52.132633,5.291266,1585.82472622901,1988,10794,98,0,606,23,0,0,151,3266,0,0,11,0,675,2977,69,0,459,2459,0,0,0,0,0
RW,Rwanda,country,Sub-Saharan Africa,-1.940278,29.873888,NL,Netherlands,country,Europe and Central Asia,52.132633,5.291266,6447.26592766404,1988,7232,0,0,0,0,0,0,5,0,0,0,0,6962,265,0,0,0,0,0,0,0,0,0,0
LC,St. Lucia,country,Latin America and the Caribbean,13.909444,-60.978893,NL,Netherlands,country,Europe and Central Asia,52.132633,5.291266,7186.90011754823,1988,27,0,0,0,0,0,0,0,0,0,0,0,0,27,0,0,0,0,0,0,0,0,0,0
WS,Samoa,country,East Asia and Pacific,-13.759029,-172.104629,NL,Netherlands,country,Europe and Central Asia,52.132633,5.291266,15759.4562879314,1988,586,0,0,0,0,0,0,0,0,0,0,586,0,0,0,0,0,0,0,0,0,0,0,0
ST,Sao Tome and Principe,country,Sub-Saharan Africa,0.18636,6.613081,NL,Netherlands,country,Europe and Central Asia,52.132633,5.291266,5783.95560334635,1988,849,0,0,0,0,0,0,0,0,0,0,0,849,0,0,0,0,0,0,0,0,0,0,0
SA,Saudi Arabia,country,Middle East and North Africa,23.885942,45.079162,NL,Netherlands,country,Europe and Central Asia,52.132633,5.291266,4600.62505187096,1988,213,0,0,0,0,0,0,25,1,0,0,0,44,61,0,62,0,4,16,0,0,0,0,0
SN,Senegal,country,Sub-Saharan Africa,14.497401,-14.452362,NL,Netherlands,country,Europe and Central Asia,52.132633,5.291266,4542.00073170807,1988,17599,0,0,0,0,3,41,571,0,0,3,15270,34,0,1677,0,0,0,0,0,0,0,0,0
SC,Seychelles,country,Sub-Saharan Africa,-4.679574,55.491977,NL,Netherlands,country,Europe and Central Asia,52.132633,5.291266,7892.65917214529,1988,46,0,0,0,0,0,0,0,0,0,0,0,0,10,0,0,0,0,36,0,0,0,0,0
SL,Sierra Leone,country,Sub-Saharan Africa,8.460555,-11.779889,NL,Netherlands,country,Europe and Central Asia,52.132633,5.291266,5103.87578403076,1988,2102,6,0,0,0,0,10,20,0,0,0,0,1873,193,0,0,0,0,0,0,0,0,0,0
SG,Singapore,country,East Asia and Pacific,1.352083,103.819836,NL,Netherlands,country,Europe and Central Asia,52.132633,5.291266,10480.8108764807,1988,2874,296,0,0,5,3,249,2,327,33,224,500,75,1120,2,35,2,1,0,2,0,0,0,0
SB,Solomon Islands,country,East Asia and Pacific,-9.64571,160.156194,NL,Netherlands,country,Europe and Central Asia,52.132633,5.291266,14789.2046540843,1988,751,0,0,0,0,0,0,0,0,0,0,0,29,0,722,0,0,0,0,0,0,0,0,0
SO,Somalia,country,Sub-Saharan Africa,5.152149,46.199616,NL,Netherlands,country,Europe and Central Asia,52.132633,5.291266,6433.87112125778,1988,17,0,0,0,0,0,0,0,9,0,0,0,8,0,0,0,0,0,0,0,0,0,0,0
ZA,S. Africa,country,Sub-Saharan Africa,-30.559482,22.937506,NL,Netherlands,country,Europe and Central Asia,52.132633,5.291266,9364.93674003665,1988,67908,13,137,25900,140,11,1090,2207,32682,30,18,0,1444,1719,1184,483,0,206,0,14,630,0,0,0
ES,Spain,country,Europe and Central Asia,40.463667,-3.74922,NL,Netherlands,country,Europe and Central Asia,52.132633,5.291266,1470.75431483959,1988,654307,133204,2095,371,10,740,1207,194106,217394,371,823,22482,410,14828,5682,45563,66,1099,13787,135,0,0,0,0
LK,Sri Lanka,country,South Asia,7.873054,80.771797,NL,Netherlands,country,Europe and Central Asia,52.132633,5.291266,8337.33697598278,1988,6052,0,0,0,0,8,3117,119,331,0,80,0,1726,671,0,0,0,0,0,0,0,0,0,0
SD,Sudan,country,Sub-Saharan Africa,12.862807,30.217636,NL,Netherlands,country,Europe and Central Asia,52.132633,5.291266,4906.40724658617,1988,175933,21669,0,46565,0,0,5461,1,8,0,0,102209,0,20,0,0,0,0,0,0,0,0,0,0
SR,Suriname,country,Latin America and the Caribbean,3.919305,-56.027783,NL,Netherlands,country,Europe and Central Asia,52.132633,5.291266,7752.61835979374,1988,36391,35409,169,0,0,0,0,664,93,0,7,0,0,10,0,3,0,0,0,36,0,0,0,0
