sourceCode,sourceName,sourceGrouping,sourceRegion,sourceLat,sourceLong,destCode,destName,destGrouping,destRegion,destLat,destLong,distance,year,totalTons,cereals,roots,sugarCrops,pulses,nuts,oilCrops,vegetables,fruits,fibers,spices,fodderCrops,coffeeTea,tobaccoRubber,oilsFats,beverages,livestock,animalMeats,animalProducts,animalHides,nimalOther,pesticides,fertilizers,machinery
AF,Afghanistan,country,South Asia,33.93911,67.709953,TN,Tunisia,country,Middle East and North Africa,33.886917,9.537499,5297.18078078113,1987,4,0,0,0,0,0,0,0,0,0,0,0,0,4,0,0,0,0,0,0,0,0,0,0
AR,Argentina,country,Latin America and the Caribbean,-38.416097,-63.616672,TN,Tunisia,country,Middle East and North Africa,33.886917,9.537499,11030.4445486828,1987,50706,0,0,0,0,0,0,0,0,10,0,50496,0,0,200,0,0,0,0,0,0,0,0,0
AU,Australia,country,East Asia and Pacific,-25.274398,133.775136,TN,Tunisia,country,Middle East and North Africa,33.886917,9.537499,14619.6246298909,1987,284,0,0,0,0,0,0,0,0,0,0,0,0,124,0,0,0,0,160,0,0,0,0,0
AT,Austria,country,Europe and Central Asia,47.516231,14.550072,TN,Tunisia,country,Middle East and North Africa,33.886917,9.537499,1574.19740366617,1987,1222,0,0,42,0,0,0,0,0,0,0,0,0,0,0,0,0,0,1180,0,0,0,0,0
BD,Bangladesh,country,South Asia,23.684994,90.356331,TN,Tunisia,country,Middle East and North Africa,33.886917,9.537499,7770.27887953464,1987,4113,0,0,0,0,0,0,0,0,4113,0,0,0,0,0,0,0,0,0,0,0,0,0,0
BE,Belgium,country,Europe and Central Asia,50.503887,4.469936,TN,Tunisia,country,Middle East and North Africa,33.886917,9.537499,1895.27900155401,1987,5584,400,0,1048,0,0,0,4,0,0,0,0,0,26,2923,0,33,0,1183,0,0,0,0,0
BJ,Benin,country,Sub-Saharan Africa,9.30769,2.315834,TN,Tunisia,country,Middle East and North Africa,33.886917,9.537499,2834.15329170303,1987,949,0,0,0,0,0,0,0,0,949,0,0,0,0,0,0,0,0,0,0,0,0,0,0
BR,Brazil,country,Latin America and the Caribbean,-14.235004,-51.92528,TN,Tunisia,country,Middle East and North Africa,33.886917,9.537499,8424.88710195643,1987,41486,0,0,25200,0,0,0,0,0,0,261,13454,425,2135,11,0,0,0,0,0,0,0,0,0
BG,Bulgaria,country,Europe and Central Asia,42.733883,25.48583,TN,Tunisia,country,Middle East and North Africa,33.886917,9.537499,1701.35210937442,1987,2044,0,0,0,0,0,0,0,0,100,0,0,0,550,0,0,0,1394,0,0,0,0,0,0
BF,Burkina Faso,country,Sub-Saharan Africa,12.238333,-1.561593,TN,Tunisia,country,Middle East and North Africa,33.886917,9.537499,2659.97307737399,1987,3495,0,0,0,0,0,0,0,0,3495,0,0,0,0,0,0,0,0,0,0,0,0,0,0
BI,Burundi,country,Sub-Saharan Africa,-3.373056,29.918886,TN,Tunisia,country,Middle East and North Africa,33.886917,9.537499,4667.10933452974,1987,12,0,0,0,0,0,0,0,0,0,0,0,0,0,0,0,0,0,0,12,0,0,0,0
CM,Cameroon,country,Sub-Saharan Africa,7.369722,12.354722,TN,Tunisia,country,Middle East and North Africa,33.886917,9.537499,2966.06360972233,1987,600,0,0,0,0,0,0,0,0,600,0,0,0,0,0,0,0,0,0,0,0,0,0,0
CA,Canada,country,North America,56.130366,-106.346771,TN,Tunisia,country,Middle East and North Africa,33.886917,9.537499,8334.7245599424,1987,25920,25450,0,0,0,0,0,0,0,0,0,0,0,0,470,0,0,0,0,0,0,0,0,0
TD,Chad,country,Sub-Saharan Africa,15.454166,18.732207,TN,Tunisia,country,Middle East and North Africa,33.886917,9.537499,2250.10104176002,1987,101,0,0,0,0,0,0,0,0,101,0,0,0,0,0,0,0,0,0,0,0,0,0,0
CN,China,country,East Asia and Pacific,35.86166,104.195397,TN,Tunisia,country,Middle East and North Africa,33.886917,9.537499,8261.76668770782,1987,11519,0,0,0,0,7,159,0,0,2614,601,0,8111,27,0,0,0,0,0,0,0,0,0,0
CO,Colombia,country,Latin America and the Caribbean,4.570868,-74.297333,TN,Tunisia,country,Middle East and North Africa,33.886917,9.537499,9165.9971807816,1987,256,0,0,0,0,0,0,0,0,0,0,0,256,0,0,0,0,0,0,0,0,0,0,0
CI,Ivory Coast,country,Sub-Saharan Africa,7.539989,-5.54708,TN,Tunisia,country,Middle East and North Africa,33.886917,9.537499,3317.31126279574,1987,1235,0,0,0,0,0,0,0,0,158,0,0,1077,0,0,0,0,0,0,0,0,0,0,0
CU,Cuba,country,Latin America and the Caribbean,21.521757,-77.781167,TN,Tunisia,country,Middle East and North Africa,33.886917,9.537499,8468.51620222795,1987,36000,0,0,36000,0,0,0,0,0,0,0,0,0,0,0,0,0,0,0,0,0,0,0,0
CZ,Czech Republic,country,Europe and Central Asia,49.817492,15.472962,TN,Tunisia,country,Middle East and North Africa,33.886917,9.537499,1838.93179593838,1987,3765,0,0,0,0,0,0,0,0,0,0,0,0,0,0,0,0,0,3765,0,0,0,0,0
CD,"Congo, Dem. Rep.",country,Sub-Saharan Africa,-4.038333,21.758664,TN,Tunisia,country,Middle East and North Africa,33.886917,9.537499,4412.91320322736,1987,2062,0,0,0,0,0,0,0,0,0,0,0,2062,0,0,0,0,0,0,0,0,0,0,0
DK,Denmark,country,Europe and Central Asia,56.26392,9.501785,TN,Tunisia,country,Middle East and North Africa,33.886917,9.537499,2490.9980799726,1987,3115,0,0,2650,0,0,0,0,0,0,0,0,8,2,0,0,0,0,455,0,0,0,0,0
DO,Dominican Republic,country,Latin America and the Caribbean,18.735693,-70.162651,TN,Tunisia,country,Middle East and North Africa,33.886917,9.537499,7943.54946799578,1987,290,0,0,0,0,0,0,0,0,0,0,0,0,290,0,0,0,0,0,0,0,0,0,0
EG,Egypt,country,Middle East and North Africa,26.820553,30.802498,TN,Tunisia,country,Middle East and North Africa,33.886917,9.537499,2183.65796795948,1987,55,0,0,0,0,0,0,0,0,0,35,0,0,20,0,0,0,0,0,0,0,0,0,0
FI,Finland,country,Europe and Central Asia,61.92411,25.748151,TN,Tunisia,country,Middle East and North Africa,33.886917,9.537499,3325.73311139903,1987,43,0,0,0,0,0,0,0,0,0,0,0,0,0,43,0,0,0,0,0,0,0,0,0
FR,France,country,Europe and Central Asia,46.227638,2.213749,TN,Tunisia,country,Middle East and North Africa,33.886917,9.537499,1507.21120605535,1987,608689,495201,7258,42137,7,4,64,10,21,54,3,0,14,730,55125,33,1509,3023,4775,230,0,0,0,0
GR,Greece,country,Europe and Central Asia,39.074208,21.824312,TN,Tunisia,country,Middle East and North Africa,33.886917,9.537499,1240.60166797747,1987,4315,0,0,0,0,0,0,0,0,2840,0,0,0,1475,0,0,0,0,0,0,0,0,0,0
HU,Hungary,country,Europe and Central Asia,47.162494,19.503304,TN,Tunisia,country,Middle East and North Africa,33.886917,9.537499,1698.27774296455,1987,6143,0,0,0,0,0,0,0,0,0,0,0,0,0,6143,0,0,0,0,0,0,0,0,0
IS,Iceland,country,Europe and Central Asia,64.963051,-19.020835,TN,Tunisia,country,Middle East and North Africa,33.886917,9.537499,3955.98985901993,1987,108,0,0,0,0,0,0,0,0,0,0,0,0,0,0,0,0,108,0,0,0,0,0,0
IN,India,country,South Asia,20.593684,78.96288,TN,Tunisia,country,Middle East and North Africa,33.886917,9.537499,6903.73442990139,1987,706,0,0,0,0,3,0,0,0,0,58,0,600,45,0,0,0,0,0,0,0,0,0,0
ID,Indonesia,country,East Asia and Pacific,-0.789275,113.921327,TN,Tunisia,country,Middle East and North Africa,33.886917,9.537499,11393.5381357283,1987,2080,0,0,0,0,0,0,0,0,0,29,0,700,1351,0,0,0,0,0,0,0,0,0,0
IR,Iran,country,Middle East and North Africa,32.427908,53.688046,TN,Tunisia,country,Middle East and North Africa,33.886917,9.537499,4085.82282612559,1987,71,0,0,0,0,0,0,0,37,0,0,0,0,34,0,0,0,0,0,0,0,0,0,0
IE,Ireland,country,Europe and Central Asia,53.41291,-8.24389,TN,Tunisia,country,Middle East and North Africa,33.886917,9.537499,2587.18440560557,1987,1444,0,0,10,0,0,0,0,0,0,0,0,0,240,0,0,0,0,1194,0,0,0,0,0
IT,Italy,country,Europe and Central Asia,41.87194,12.56738,TN,Tunisia,country,Middle East and North Africa,33.886917,9.537499,927.721332523831,1987,15696,318,0,77,0,26,2,0,46,4,0,0,24,437,14762,0,261,0,0,0,0,0,0,0
JP,Japan,country,East Asia and Pacific,36.204824,138.252924,TN,Tunisia,country,Middle East and North Africa,33.886917,9.537499,10591.1639660583,1987,18,0,0,0,0,0,0,0,0,18,0,0,0,0,0,0,0,0,0,0,0,0,0,0
KE,Kenya,country,Sub-Saharan Africa,-0.023559,37.906193,TN,Tunisia,country,Middle East and North Africa,33.886917,9.537499,4797.35510922585,1987,411,0,0,0,0,0,0,0,0,0,0,0,408,3,0,0,0,0,0,0,0,0,0,0
MG,Madagascar,country,Sub-Saharan Africa,-18.766947,46.869107,TN,Tunisia,country,Middle East and North Africa,33.886917,9.537499,7072.99793191474,1987,33,0,0,0,0,0,0,0,0,0,10,0,0,23,0,0,0,0,0,0,0,0,0,0
MY,Malaysia,country,East Asia and Pacific,4.210484,101.975766,TN,Tunisia,country,Middle East and North Africa,33.886917,9.537499,9982.30390255747,1987,2377,0,0,0,0,0,0,0,0,0,200,0,0,2177,0,0,0,0,0,0,0,0,0,0
ML,Mali,country,Sub-Saharan Africa,17.570692,-3.996166,TN,Tunisia,country,Middle East and North Africa,33.886917,9.537499,2262.33155677795,1987,3042,0,0,0,0,0,0,0,0,3042,0,0,0,0,0,0,0,0,0,0,0,0,0,0
MT,Malta,country,Middle East and North Africa,35.937496,14.375416,TN,Tunisia,country,Middle East and North Africa,33.886917,9.537499,497.046739244154,1987,4,0,0,0,0,0,0,0,0,0,0,0,0,4,0,0,0,0,0,0,0,0,0,0
MX,Mexico,country,Latin America and the Caribbean,23.634501,-102.552784,TN,Tunisia,country,Middle East and North Africa,33.886917,9.537499,10417.5064206546,1987,30,0,0,0,0,0,0,0,0,0,10,0,0,20,0,0,0,0,0,0,0,0,0,0
MA,Morocco,country,Middle East and North Africa,31.791702,-7.09262,TN,Tunisia,country,Middle East and North Africa,33.886917,9.537499,1571.01591812006,1987,770,4,0,0,26,0,100,0,6,0,3,0,0,631,0,0,0,0,0,0,0,0,0,0
NL,Netherlands,country,Europe and Central Asia,52.132633,5.291266,TN,Tunisia,country,Middle East and North Africa,33.886917,9.537499,2059.40768527564,1987,15799,0,6137,4033,13,0,0,0,3,0,0,0,38,163,4124,0,98,38,1250,0,0,0,0,0
NZ,New Zealand,country,East Asia and Pacific,-40.900557,174.885971,TN,Tunisia,country,Middle East and North Africa,33.886917,9.537499,18527.7043490347,1987,319,0,0,0,0,0,0,0,0,111,0,0,0,0,0,0,0,0,208,0,0,0,0,0
NO,Norway,country,Europe and Central Asia,60.472024,8.468946,TN,Tunisia,country,Middle East and North Africa,33.886917,9.537499,2960.45442651587,1987,444,0,0,0,0,0,0,0,0,0,0,0,0,0,0,0,0,444,0,0,0,0,0,0
PA,Panama,country,Latin America and the Caribbean,8.537981,-80.782127,TN,Tunisia,country,Middle East and North Africa,33.886917,9.537499,9519.48771606353,1987,2,0,0,0,0,0,0,0,0,0,0,0,0,2,0,0,0,0,0,0,0,0,0,0
PY,Paraguay,country,Latin America and the Caribbean,-23.442503,-58.443832,TN,Tunisia,country,Middle East and North Africa,33.886917,9.537499,9612.02353070271,1987,1988,0,0,0,0,0,0,0,0,0,0,0,1988,0,0,0,0,0,0,0,0,0,0,0
PH,Philippines,country,East Asia and Pacific,12.879721,121.774017,TN,Tunisia,country,Middle East and North Africa,33.886917,9.537499,11185.850544858,1987,305,0,0,0,0,0,0,0,0,0,0,0,0,302,3,0,0,0,0,0,0,0,0,0
PL,Poland,country,Europe and Central Asia,51.919438,19.145136,TN,Tunisia,country,Middle East and North Africa,33.886917,9.537499,2150.42326196346,1987,16890,0,0,12000,0,0,0,0,0,0,0,0,0,3,0,0,0,0,4887,0,0,0,0,0
PT,Portugal,country,Europe and Central Asia,39.399872,-8.224454,TN,Tunisia,country,Middle East and North Africa,33.886917,9.537499,1697.39617410593,1987,2888,0,0,0,0,0,0,0,0,0,0,0,0,0,2888,0,0,0,0,0,0,0,0,0
SA,Saudi Arabia,country,Middle East and North Africa,23.885942,45.079162,TN,Tunisia,country,Middle East and North Africa,33.886917,9.537499,3617.89834578891,1987,110,0,0,0,0,0,0,0,0,0,0,0,0,0,0,0,0,0,0,110,0,0,0,0
SN,Senegal,country,Sub-Saharan Africa,14.497401,-14.452362,TN,Tunisia,country,Middle East and North Africa,33.886917,9.537499,3238.28355944916,1987,1420,0,0,0,0,0,0,0,0,1420,0,0,0,0,0,0,0,0,0,0,0,0,0,0
SC,Seychelles,country,Sub-Saharan Africa,-4.679574,55.491977,TN,Tunisia,country,Middle East and North Africa,33.886917,9.537499,6457.97893456161,1987,203,0,0,0,0,0,0,0,0,0,203,0,0,0,0,0,0,0,0,0,0,0,0,0
SG,Singapore,country,East Asia and Pacific,1.352083,103.819836,TN,Tunisia,country,Middle East and North Africa,33.886917,9.537499,10330.2216969789,1987,10,0,0,0,0,0,0,0,0,0,0,0,0,10,0,0,0,0,0,0,0,0,0,0
ES,Spain,country,Europe and Central Asia,40.463667,-3.74922,TN,Tunisia,country,Middle East and North Africa,33.886917,9.537499,1385.07968041442,1987,57767,2267,0,18725,0,0,0,180,9,23,150,0,0,50,35851,0,15,0,512,0,0,0,0,0
LK,Sri Lanka,country,South Asia,7.873054,80.771797,TN,Tunisia,country,Middle East and North Africa,33.886917,9.537499,7799.89084259296,1987,1607,0,0,0,0,0,0,0,0,0,2,0,1526,79,0,0,0,0,0,0,0,0,0,0
SD,Sudan,country,Sub-Saharan Africa,12.862807,30.217636,TN,Tunisia,country,Middle East and North Africa,33.886917,9.537499,3139.48557980866,1987,4657,0,0,0,0,0,4475,0,0,0,0,0,0,182,0,0,0,0,0,0,0,0,0,0
SE,Sweden,country,Europe and Central Asia,60.128161,18.643501,TN,Tunisia,country,Middle East and North Africa,33.886917,9.537499,2995.4521574279,1987,8951,0,0,0,0,0,0,0,0,0,0,0,0,0,8951,0,0,0,0,0,0,0,0,0
CH,Switzerland,country,Europe and Central Asia,46.818188,8.227512,TN,Tunisia,country,Middle East and North Africa,33.886917,9.537499,1443.72811729577,1987,773,0,0,6,0,0,0,4,0,50,0,0,0,191,0,0,0,0,522,0,0,0,0,0
SY,Syrian Arab Rep.,country,Middle East and North Africa,34.802075,38.996815,TN,Tunisia,country,Middle East and North Africa,33.886917,9.537499,2699.86444513785,1987,501,0,0,0,0,0,0,0,0,501,0,0,0,0,0,0,0,0,0,0,0,0,0,0
TH,Thailand,country,East Asia and Pacific,15.870032,100.992541,TN,Tunisia,country,Middle East and North Africa,33.886917,9.537499,9173.14619832656,1987,7750,7750,0,0,0,0,0,0,0,0,0,0,0,0,0,0,0,0,0,0,0,0,0,0
TG,Togo,country,Sub-Saharan Africa,8.619543,0.824782,TN,Tunisia,country,Middle East and North Africa,33.886917,9.537499,2951.10957187245,1987,1000,0,0,0,0,0,0,0,0,1000,0,0,0,0,0,0,0,0,0,0,0,0,0,0
TR,Turkey,country,Europe and Central Asia,38.963745,35.243322,TN,Tunisia,country,Middle East and North Africa,33.886917,9.537499,2362.21464082084,1987,2513,0,0,0,34,14,128,0,44,1164,39,0,0,677,413,0,0,0,0,0,0,0,0,0
GB,United Kingdom,country,Europe and Central Asia,55.378051,-3.435973,TN,Tunisia,country,Middle East and North Africa,33.886917,9.537499,2593.92844029769,1987,12903,0,1,5234,0,0,0,0,0,13,0,0,0,9,0,99,33,7339,208,0,0,0,0,0
US,USA,country,North America,37.09024,-95.712891,TN,Tunisia,country,Middle East and North Africa,33.886917,9.537499,8980.5029084597,1987,94960,91549,0,1,2732,0,0,0,0,525,0,0,0,153,0,0,0,0,0,0,0,0,0,0
VN,Vietnam,country,East Asia and Pacific,14.058324,108.277199,TN,Tunisia,country,Middle East and North Africa,33.886917,9.537499,9935.34304809816,1987,54,0,0,0,0,0,54,0,0,0,0,0,0,0,0,0,0,0,0,0,0,0,0,0
BA,Bosnia & Herzegovina,country,Europe and Central Asia,43.915886,17.679076,TN,Tunisia,country,Middle East and North Africa,33.886917,9.537499,1319.00753296738,1987,1133,0,0,0,0,0,0,0,0,0,0,0,0,1133,0,0,0,0,0,0,0,0,0,0
ZW,Zimbabwe,country,Sub-Saharan Africa,-19.015438,29.154857,TN,Tunisia,country,Middle East and North Africa,33.886917,9.537499,6245.98626394509,1987,165,0,0,0,0,0,0,0,0,0,0,0,165,0,0,0,0,0,0,0,0,0,0,0
AF,Afghanistan,country,South Asia,33.93911,67.709953,TN,Tunisia,country,Middle East and North Africa,33.886917,9.537499,5297.18078078113,1988,26,0,0,0,0,0,0,0,0,0,13,0,0,13,0,0,0,0,0,0,0,0,0,0
DZ,Algeria,country,Middle East and North Africa,28.033886,1.659626,TN,Tunisia,country,Middle East and North Africa,33.886917,9.537499,994.379845895559,1988,12,0,0,0,0,0,0,0,0,0,0,10,0,2,0,0,0,0,0,0,0,0,0,0
AR,Argentina,country,Latin America and the Caribbean,-38.416097,-63.616672,TN,Tunisia,country,Middle East and North Africa,33.886917,9.537499,11030.4445486828,1988,79887,0,0,12000,1468,0,0,0,0,0,0,57966,0,19,5934,0,0,0,2500,0,0,0,0,0
AU,Australia,country,East Asia and Pacific,-25.274398,133.775136,TN,Tunisia,country,Middle East and North Africa,33.886917,9.537499,14619.6246298909,1988,24197,24095,0,0,0,0,0,0,0,0,0,0,0,74,0,0,0,0,0,28,0,0,0,0
AT,Austria,country,Europe and Central Asia,47.516231,14.550072,TN,Tunisia,country,Middle East and North Africa,33.886917,9.537499,1574.19740366617,1988,300,0,0,40,0,0,0,0,0,0,0,0,0,0,0,0,0,0,260,0,0,0,0,0
BD,Bangladesh,country,South Asia,23.684994,90.356331,TN,Tunisia,country,Middle East and North Africa,33.886917,9.537499,7770.27887953464,1988,1395,0,0,0,0,0,0,0,0,1395,0,0,0,0,0,0,0,0,0,0,0,0,0,0
BE,Belgium,country,Europe and Central Asia,50.503887,4.469936,TN,Tunisia,country,Middle East and North Africa,33.886917,9.537499,1895.27900155401,1988,21743,565,15109,122,0,0,0,0,0,18,0,201,20,54,2946,2,46,0,2706,0,0,0,0,0
BR,Brazil,country,Latin America and the Caribbean,-14.235004,-51.92528,TN,Tunisia,country,Middle East and North Africa,33.886917,9.537499,8424.88710195643,1988,39367,0,0,23855,0,0,0,0,0,0,171,13541,300,1500,0,0,0,0,0,0,0,0,0,0
BG,Bulgaria,country,Europe and Central Asia,42.733883,25.48583,TN,Tunisia,country,Middle East and North Africa,33.886917,9.537499,1701.35210937442,1988,1684,0,0,0,0,0,0,0,0,0,21,0,0,0,0,0,0,1663,0,0,0,0,0,0
BF,Burkina Faso,country,Sub-Saharan Africa,12.238333,-1.561593,TN,Tunisia,country,Middle East and North Africa,33.886917,9.537499,2659.97307737399,1988,2337,0,0,0,0,0,0,0,0,2337,0,0,0,0,0,0,0,0,0,0,0,0,0,0
CM,Cameroon,country,Sub-Saharan Africa,7.369722,12.354722,TN,Tunisia,country,Middle East and North Africa,33.886917,9.537499,2966.06360972233,1988,1366,0,0,0,0,0,0,0,0,1366,0,0,0,0,0,0,0,0,0,0,0,0,0,0
CA,Canada,country,North America,56.130366,-106.346771,TN,Tunisia,country,Middle East and North Africa,33.886917,9.537499,8334.7245599424,1988,49718,48903,0,0,768,0,0,0,0,0,0,0,0,0,47,0,0,0,0,0,0,0,0,0
TD,Chad,country,Sub-Saharan Africa,15.454166,18.732207,TN,Tunisia,country,Middle East and North Africa,33.886917,9.537499,2250.10104176002,1988,547,0,0,0,0,0,0,0,0,547,0,0,0,0,0,0,0,0,0,0,0,0,0,0
CL,Chile,country,Latin America and the Caribbean,-35.675147,-71.542969,TN,Tunisia,country,Middle East and North Africa,33.886917,9.537499,11437.4649137583,1988,0,0,0,0,0,0,0,0,0,0,0,0,0,0,0,0,0,0,0,0,0,0,0,0
HK,Hong Kong,country,East Asia and Pacific,22.396428,114.109497,TN,Tunisia,country,Middle East and North Africa,33.886917,9.537499,9895.45703479401,1988,18,0,0,0,0,0,0,0,15,0,0,0,0,0,0,0,0,3,0,0,0,0,0,0
CN,China,country,East Asia and Pacific,35.86166,104.195397,TN,Tunisia,country,Middle East and North Africa,33.886917,9.537499,8261.76668770782,1988,12821,0,0,0,0,30,62,0,59,0,423,0,12214,33,0,0,0,0,0,0,0,0,0,0
CO,Colombia,country,Latin America and the Caribbean,4.570868,-74.297333,TN,Tunisia,country,Middle East and North Africa,33.886917,9.537499,9165.9971807816,1988,1,0,0,0,0,0,0,0,0,0,0,0,1,0,0,0,0,0,0,0,0,0,0,0
CI,Ivory Coast,country,Sub-Saharan Africa,7.539989,-5.54708,TN,Tunisia,country,Middle East and North Africa,33.886917,9.537499,3317.31126279574,1988,3706,0,0,0,0,0,0,0,60,3115,0,0,531,0,0,0,0,0,0,0,0,0,0,0
CU,Cuba,country,Latin America and the Caribbean,21.521757,-77.781167,TN,Tunisia,country,Middle East and North Africa,33.886917,9.537499,8468.51620222795,1988,23607,0,0,23600,0,0,0,0,0,0,0,0,0,7,0,0,0,0,0,0,0,0,0,0
CY,Cyprus,country,Europe and Central Asia,35.126413,33.429859,TN,Tunisia,country,Middle East and North Africa,33.886917,9.537499,2190.8332549223,1988,21500,21500,0,0,0,0,0,0,0,0,0,0,0,0,0,0,0,0,0,0,0,0,0,0
CZ,Czech Republic,country,Europe and Central Asia,49.817492,15.472962,TN,Tunisia,country,Middle East and North Africa,33.886917,9.537499,1838.93179593838,1988,5012,0,0,0,0,0,0,0,0,0,0,0,0,0,0,0,0,0,5012,0,0,0,0,0
DK,Denmark,country,Europe and Central Asia,56.26392,9.501785,TN,Tunisia,country,Middle East and North Africa,33.886917,9.537499,2490.9980799726,1988,1045,4,0,585,0,0,0,0,0,0,0,0,9,29,0,0,0,0,418,0,0,0,0,0
DO,Dominican Republic,country,Latin America and the Caribbean,18.735693,-70.162651,TN,Tunisia,country,Middle East and North Africa,33.886917,9.537499,7943.54946799578,1988,11540,0,0,11400,0,0,0,0,0,0,0,0,0,140,0,0,0,0,0,0,0,0,0,0
EG,Egypt,country,Middle East and North Africa,26.820553,30.802498,TN,Tunisia,country,Middle East and North Africa,33.886917,9.537499,2183.65796795948,1988,6184,4000,0,0,0,0,0,0,0,2,2145,0,0,37,0,0,0,0,0,0,0,0,0,0
ET,Ethiopia,country,Sub-Saharan Africa,9.145,40.489673,TN,Tunisia,country,Middle East and North Africa,33.886917,9.537499,4193.96089770397,1988,244,0,0,0,0,0,0,0,0,0,0,0,0,244,0,0,0,0,0,0,0,0,0,0
FI,Finland,country,Europe and Central Asia,61.92411,25.748151,TN,Tunisia,country,Middle East and North Africa,33.886917,9.537499,3325.73311139903,1988,2029,0,0,2000,0,0,0,0,0,0,0,0,0,0,29,0,0,0,0,0,0,0,0,0
FR,France,country,Europe and Central Asia,46.227638,2.213749,TN,Tunisia,country,Middle East and North Africa,33.886917,9.537499,1507.21120605535,1988,309249,226821,12087,18694,15,11,40,50,86,41,11,745,97,802,33314,54,228,7523,8821,37,0,0,0,0
PF,French Polynesia,country,East Asia and Pacific,-17.679742,-149.406843,TN,Tunisia,country,Middle East and North Africa,33.886917,9.537499,17271.8055556082,1988,11,0,0,0,0,0,0,0,0,0,0,0,0,0,0,0,0,0,11,0,0,0,0,0
GR,Greece,country,Europe and Central Asia,39.074208,21.824312,TN,Tunisia,country,Middle East and North Africa,33.886917,9.537499,1240.60166797747,1988,147197,143740,0,0,0,0,2,0,3,2442,0,0,0,1010,0,0,0,0,0,0,0,0,0,0
HU,Hungary,country,Europe and Central Asia,47.162494,19.503304,TN,Tunisia,country,Middle East and North Africa,33.886917,9.537499,1698.27774296455,1988,12,0,0,0,0,0,0,0,0,0,12,0,0,0,0,0,0,0,0,0,0,0,0,0
IN,India,country,South Asia,20.593684,78.96288,TN,Tunisia,country,Middle East and North Africa,33.886917,9.537499,6903.73442990139,1988,2465,0,0,0,0,0,0,0,0,0,1056,0,1063,346,0,0,0,0,0,0,0,0,0,0
ID,Indonesia,country,East Asia and Pacific,-0.789275,113.921327,TN,Tunisia,country,Middle East and North Africa,33.886917,9.537499,11393.5381357283,1988,3907,0,0,0,0,0,0,0,0,0,37,0,3015,855,0,0,0,0,0,0,0,0,0,0
IR,Iran,country,Middle East and North Africa,32.427908,53.688046,TN,Tunisia,country,Middle East and North Africa,33.886917,9.537499,4085.82282612559,1988,136,0,0,0,0,4,0,0,0,0,47,0,0,85,0,0,0,0,0,0,0,0,0,0
IQ,Iraq,country,Middle East and North Africa,33.223191,43.679291,TN,Tunisia,country,Middle East and North Africa,33.886917,9.537499,3153.45599833287,1988,4,0,0,0,0,0,0,0,0,0,0,0,0,4,0,0,0,0,0,0,0,0,0,0
IE,Ireland,country,Europe and Central Asia,53.41291,-8.24389,TN,Tunisia,country,Middle East and North Africa,33.886917,9.537499,2587.18440560557,1988,1199,0,0,14,0,0,0,0,0,0,0,0,0,177,0,0,0,0,1008,0,0,0,0,0
IT,Italy,country,Europe and Central Asia,41.87194,12.56738,TN,Tunisia,country,Middle East and North Africa,33.886917,9.537499,927.721332523831,1988,147458,131107,0,723,0,39,0,0,1,3,0,79,118,717,14642,2,703,0,0,27,0,0,0,0
JP,Japan,country,East Asia and Pacific,36.204824,138.252924,TN,Tunisia,country,Middle East and North Africa,33.886917,9.537499,10591.1639660583,1988,44,0,0,0,0,0,0,0,0,0,0,0,0,44,0,0,0,0,0,0,0,0,0,0
KE,Kenya,country,Sub-Saharan Africa,-0.023559,37.906193,TN,Tunisia,country,Middle East and North Africa,33.886917,9.537499,4797.35510922585,1988,13,0,0,0,0,0,0,0,10,0,0,0,0,3,0,0,0,0,0,0,0,0,0,0
LB,Lebanon,country,Middle East and North Africa,33.854721,35.862285,TN,Tunisia,country,Middle East and North Africa,33.886917,9.537499,2426.4141998737,1988,13,0,0,0,0,0,0,0,0,0,0,0,0,13,0,0,0,0,0,0,0,0,0,0
LR,Liberia,country,Sub-Saharan Africa,6.428055,-9.429499,TN,Tunisia,country,Middle East and North Africa,33.886917,9.537499,3627.81424367069,1988,2,0,0,0,0,0,0,0,0,0,0,0,0,2,0,0,0,0,0,0,0,0,0,0
LY,Libya,country,Middle East and North Africa,26.3351,17.228331,TN,Tunisia,country,Middle East and North Africa,33.886917,9.537499,1119.55881677973,1988,297,0,0,0,4,0,0,86,0,182,0,0,0,0,0,0,0,0,0,25,0,0,0,0
MG,Madagascar,country,Sub-Saharan Africa,-18.766947,46.869107,TN,Tunisia,country,Middle East and North Africa,33.886917,9.537499,7072.99793191474,1988,519,0,0,0,0,0,0,0,0,0,494,0,0,25,0,0,0,0,0,0,0,0,0,0
MW,Malawi,country,Sub-Saharan Africa,-13.254308,34.301525,TN,Tunisia,country,Middle East and North Africa,33.886917,9.537499,5867.3417715319,1988,66,0,0,0,0,0,0,0,0,16,0,0,0,50,0,0,0,0,0,0,0,0,0,0
MY,Malaysia,country,East Asia and Pacific,4.210484,101.975766,TN,Tunisia,country,Middle East and North Africa,33.886917,9.537499,9982.30390255747,1988,4465,0,0,0,0,0,0,0,0,0,0,0,0,2959,1506,0,0,0,0,0,0,0,0,0
ML,Mali,country,Sub-Saharan Africa,17.570692,-3.996166,TN,Tunisia,country,Middle East and North Africa,33.886917,9.537499,2262.33155677795,1988,1570,0,0,0,0,0,0,0,0,1570,0,0,0,0,0,0,0,0,0,0,0,0,0,0
MT,Malta,country,Middle East and North Africa,35.937496,14.375416,TN,Tunisia,country,Middle East and North Africa,33.886917,9.537499,497.046739244154,1988,2,0,0,0,0,0,0,0,0,0,0,0,0,2,0,0,0,0,0,0,0,0,0,0
MX,Mexico,country,Latin America and the Caribbean,23.634501,-102.552784,TN,Tunisia,country,Middle East and North Africa,33.886917,9.537499,10417.5064206546,1988,118727,118727,0,0,0,0,0,0,0,0,0,0,0,0,0,0,0,0,0,0,0,0,0,0
MA,Morocco,country,Middle East and North Africa,31.791702,-7.09262,TN,Tunisia,country,Middle East and North Africa,33.886917,9.537499,1571.01591812006,1988,91996,85745,1803,0,2160,0,58,0,2,0,1567,0,0,661,0,0,0,0,0,0,0,0,0,0
NL,Netherlands,country,Europe and Central Asia,52.132633,5.291266,TN,Tunisia,country,Middle East and North Africa,33.886917,9.537499,2059.40768527564,1988,28872,0,17841,4086,17,0,0,0,0,0,0,97,178,295,349,48,159,69,5832,60,0,0,0,0
NZ,New Zealand,country,East Asia and Pacific,-40.900557,174.885971,TN,Tunisia,country,Middle East and North Africa,33.886917,9.537499,18527.7043490347,1988,1210,0,0,0,0,0,0,0,0,141,0,0,0,0,0,0,0,350,719,0,0,0,0,0
NO,Norway,country,Europe and Central Asia,60.472024,8.468946,TN,Tunisia,country,Middle East and North Africa,33.886917,9.537499,2960.45442651587,1988,340,0,0,0,0,0,0,0,0,0,0,5,0,0,0,0,0,335,0,0,0,0,0,0
PK,Pakistan,country,South Asia,30.375321,69.345116,TN,Tunisia,country,Middle East and North Africa,33.886917,9.537499,5571.62128195308,1988,23,0,0,0,0,0,0,0,0,11,0,0,0,12,0,0,0,0,0,0,0,0,0,0
PY,Paraguay,country,Latin America and the Caribbean,-23.442503,-58.443832,TN,Tunisia,country,Middle East and North Africa,33.886917,9.537499,9612.02353070271,1988,3237,0,0,0,0,0,0,0,0,0,0,0,3237,0,0,0,0,0,0,0,0,0,0,0
PH,Philippines,country,East Asia and Pacific,12.879721,121.774017,TN,Tunisia,country,Middle East and North Africa,33.886917,9.537499,11185.850544858,1988,140,0,0,0,0,0,0,0,0,0,0,0,0,131,9,0,0,0,0,0,0,0,0,0
PL,Poland,country,Europe and Central Asia,51.919438,19.145136,TN,Tunisia,country,Middle East and North Africa,33.886917,9.537499,2150.42326196346,1988,7212,0,0,45,0,0,0,0,0,0,0,0,0,0,1514,0,0,0,5653,0,0,0,0,0
PT,Portugal,country,Europe and Central Asia,39.399872,-8.224454,TN,Tunisia,country,Middle East and North Africa,33.886917,9.537499,1697.39617410593,1988,0,0,0,0,0,0,0,0,0,0,0,0,0,0,0,0,0,0,0,0,0,0,0,0
RO,Romania,country,Europe and Central Asia,45.943161,24.96676,TN,Tunisia,country,Middle East and North Africa,33.886917,9.537499,1874.15637976747,1988,35,0,0,0,0,0,0,0,0,35,0,0,0,0,0,0,0,0,0,0,0,0,0,0
SA,Saudi Arabia,country,Middle East and North Africa,23.885942,45.079162,TN,Tunisia,country,Middle East and North Africa,33.886917,9.537499,3617.89834578891,1988,0,0,0,0,0,0,0,0,0,0,0,0,0,0,0,0,0,0,0,0,0,0,0,0
SN,Senegal,country,Sub-Saharan Africa,14.497401,-14.452362,TN,Tunisia,country,Middle East and North Africa,33.886917,9.537499,3238.28355944916,1988,2417,0,0,0,0,0,0,0,0,2417,0,0,0,0,0,0,0,0,0,0,0,0,0,0
SC,Seychelles,country,Sub-Saharan Africa,-4.679574,55.491977,TN,Tunisia,country,Middle East and North Africa,33.886917,9.537499,6457.97893456161,1988,34,0,0,0,0,0,0,0,0,0,34,0,0,0,0,0,0,0,0,0,0,0,0,0
SL,Sierra Leone,country,Sub-Saharan Africa,8.460555,-11.779889,TN,Tunisia,country,Middle East and North Africa,33.886917,9.537499,3575.31570089023,1988,5,0,0,0,0,0,0,0,0,0,0,0,0,5,0,0,0,0,0,0,0,0,0,0
SG,Singapore,country,East Asia and Pacific,1.352083,103.819836,TN,Tunisia,country,Middle East and North Africa,33.886917,9.537499,10330.2216969789,1988,157,0,0,0,0,0,0,0,0,0,100,0,0,57,0,0,0,0,0,0,0,0,0,0
ES,Spain,country,Europe and Central Asia,40.463667,-3.74922,TN,Tunisia,country,Middle East and North Africa,33.886917,9.537499,1385.07968041442,1988,72834,57107,0,1067,0,2,0,653,0,40,0,0,0,212,10580,6,35,0,3167,0,0,0,0,0
LK,Sri Lanka,country,South Asia,7.873054,80.771797,TN,Tunisia,country,Middle East and North Africa,33.886917,9.537499,7799.89084259296,1988,749,0,0,0,0,0,0,0,0,0,0,0,700,49,0,0,0,0,0,0,0,0,0,0
SD,Sudan,country,Sub-Saharan Africa,12.862807,30.217636,TN,Tunisia,country,Middle East and North Africa,33.886917,9.537499,3139.48557980866,1988,3123,0,0,0,0,0,2675,0,0,98,0,0,0,350,0,0,0,0,0,0,0,0,0,0
SE,Sweden,country,Europe and Central Asia,60.128161,18.643501,TN,Tunisia,country,Middle East and North Africa,33.886917,9.537499,2995.4521574279,1988,4231,0,0,0,0,0,0,0,0,0,0,0,0,0,4231,0,0,0,0,0,0,0,0,0
CH,Switzerland,country,Europe and Central Asia,46.818188,8.227512,TN,Tunisia,country,Middle East and North Africa,33.886917,9.537499,1443.72811729577,1988,52824,51208,0,4,0,0,0,8,0,2,0,7,0,403,0,8,0,0,1184,0,0,0,0,0
SY,Syrian Arab Rep.,country,Middle East and North Africa,34.802075,38.996815,TN,Tunisia,country,Middle East and North Africa,33.886917,9.537499,2699.86444513785,1988,1806,0,0,0,0,0,0,0,0,1803,3,0,0,0,0,0,0,0,0,0,0,0,0,0
TH,Thailand,country,East Asia and Pacific,15.870032,100.992541,TN,Tunisia,country,Middle East and North Africa,33.886917,9.537499,9173.14619832656,1988,9368,9277,0,0,0,0,0,0,91,0,0,0,0,0,0,0,0,0,0,0,0,0,0,0
TG,Togo,country,Sub-Saharan Africa,8.619543,0.824782,TN,Tunisia,country,Middle East and North Africa,33.886917,9.537499,2951.10957187245,1988,1082,0,0,0,0,0,0,0,0,1082,0,0,0,0,0,0,0,0,0,0,0,0,0,0
TR,Turkey,country,Europe and Central Asia,38.963745,35.243322,TN,Tunisia,country,Middle East and North Africa,33.886917,9.537499,2362.21464082084,1988,155634,136123,0,0,2500,72,347,4120,10241,0,966,0,0,1265,0,0,0,0,0,0,0,0,0,0
AE,United Arab Emirates,country,Middle East and North Africa,23.424076,53.847818,TN,Tunisia,country,Middle East and North Africa,33.886917,9.537499,4446.14300731585,1988,0,0,0,0,0,0,0,0,0,0,0,0,0,0,0,0,0,0,0,0,0,0,0,0
GB,United Kingdom,country,Europe and Central Asia,55.378051,-3.435973,TN,Tunisia,country,Middle East and North Africa,33.886917,9.537499,2593.92844029769,1988,53870,48850,4,570,500,0,0,0,4,0,0,0,0,6,2846,214,55,623,253,0,0,0,0,0
US,USA,country,North America,37.09024,-95.712891,TN,Tunisia,country,Middle East and North Africa,33.886917,9.537499,8980.5029084597,1988,1076993,976049,0,0,1225,98,0,0,0,439,0,37488,0,219,61375,0,0,100,0,0,0,0,0,0
RU,Russian Federation,country,Europe and Central Asia,61.52401,105.318756,TN,Tunisia,country,Middle East and North Africa,33.886917,9.537499,7040.00891039954,1988,1084,0,0,0,0,0,0,2,0,1080,0,0,0,2,0,0,0,0,0,0,0,0,0,0
BA,Bosnia & Herzegovina,country,Europe and Central Asia,43.915886,17.679076,TN,Tunisia,country,Middle East and North Africa,33.886917,9.537499,1319.00753296738,1988,15100,11500,0,0,499,0,0,0,0,0,0,0,0,0,3101,0,0,0,0,0,0,0,0,0
AL,Albania,country,Europe and Central Asia,41.153332,20.168331,TN,Tunisia,country,Middle East and North Africa,33.886917,9.537499,1237.37486440421,1989,1500,0,0,0,0,0,0,0,0,0,0,0,0,0,1500,0,0,0,0,0,0,0,0,0
DZ,Algeria,country,Middle East and North Africa,28.033886,1.659626,TN,Tunisia,country,Middle East and North Africa,33.886917,9.537499,994.379845895559,1989,211,0,0,0,0,0,0,0,0,0,0,0,0,211,0,0,0,0,0,0,0,0,0,0
AR,Argentina,country,Latin America and the Caribbean,-38.416097,-63.616672,TN,Tunisia,country,Middle East and North Africa,33.886917,9.537499,11030.4445486828,1989,72273,0,0,0,0,0,104,0,0,0,0,72120,0,49,0,0,0,0,0,0,0,0,0,0
AU,Australia,country,East Asia and Pacific,-25.274398,133.775136,TN,Tunisia,country,Middle East and North Africa,33.886917,9.537499,14619.6246298909,1989,7219,6988,0,231,0,0,0,0,0,0,0,0,0,0,0,0,0,0,0,0,0,0,0,0
AT,Austria,country,Europe and Central Asia,47.516231,14.550072,TN,Tunisia,country,Middle East and North Africa,33.886917,9.537499,1574.19740366617,1989,138,0,0,61,0,0,0,0,0,0,0,0,0,0,2,0,0,0,75,0,0,0,0,0
BD,Bangladesh,country,South Asia,23.684994,90.356331,TN,Tunisia,country,Middle East and North Africa,33.886917,9.537499,7770.27887953464,1989,2627,0,0,0,0,0,0,0,0,2627,0,0,0,0,0,0,0,0,0,0,0,0,0,0
BE,Belgium,country,Europe and Central Asia,50.503887,4.469936,TN,Tunisia,country,Middle East and North Africa,33.886917,9.537499,1895.27900155401,1989,17929,0,2122,833,80,0,0,0,151,24,0,183,7,26,12158,3,9,0,2342,0,0,0,0,0
BJ,Benin,country,Sub-Saharan Africa,9.30769,2.315834,TN,Tunisia,country,Middle East and North Africa,33.886917,9.537499,2834.15329170303,1989,1850,0,0,0,0,0,0,0,0,1850,0,0,0,0,0,0,0,0,0,0,0,0,0,0
BM,Bermuda,country,North America,32.321384,-64.75737,TN,Tunisia,country,Middle East and North Africa,33.886917,9.537499,6767.20666255697,1989,21,0,0,0,0,0,0,0,0,0,0,0,0,0,0,21,0,0,0,0,0,0,0,0
BR,Brazil,country,Latin America and the Caribbean,-14.235004,-51.92528,TN,Tunisia,country,Middle East and North Africa,33.886917,9.537499,8424.88710195643,1989,55184,0,0,13570,0,2,0,2,0,0,113,38341,29,3127,0,0,0,0,0,0,0,0,0,0
BG,Bulgaria,country,Europe and Central Asia,42.733883,25.48583,TN,Tunisia,country,Middle East and North Africa,33.886917,9.537499,1701.35210937442,1989,66,0,0,0,0,0,0,0,0,0,0,0,0,0,0,0,0,66,0,0,0,0,0,0
BF,Burkina Faso,country,Sub-Saharan Africa,12.238333,-1.561593,TN,Tunisia,country,Middle East and North Africa,33.886917,9.537499,2659.97307737399,1989,2096,0,0,0,0,0,0,0,0,2096,0,0,0,0,0,0,0,0,0,0,0,0,0,0
BI,Burundi,country,Sub-Saharan Africa,-3.373056,29.918886,TN,Tunisia,country,Middle East and North Africa,33.886917,9.537499,4667.10933452974,1989,130,0,0,130,0,0,0,0,0,0,0,0,0,0,0,0,0,0,0,0,0,0,0,0
CM,Cameroon,country,Sub-Saharan Africa,7.369722,12.354722,TN,Tunisia,country,Middle East and North Africa,33.886917,9.537499,2966.06360972233,1989,2171,0,0,0,0,0,0,0,0,2171,0,0,0,0,0,0,0,0,0,0,0,0,0,0
CA,Canada,country,North America,56.130366,-106.346771,TN,Tunisia,country,Middle East and North Africa,33.886917,9.537499,8334.7245599424,1989,31067,29240,10,0,817,0,0,0,0,0,0,0,0,0,0,0,0,0,1000,0,0,0,0,0
CF,Central African Rep.,country,Sub-Saharan Africa,6.611111,20.939444,TN,Tunisia,country,Middle East and North Africa,33.886917,9.537499,3255.56628954414,1989,101,0,0,0,0,0,0,0,0,101,0,0,0,0,0,0,0,0,0,0,0,0,0,0
TD,Chad,country,Sub-Saharan Africa,15.454166,18.732207,TN,Tunisia,country,Middle East and North Africa,33.886917,9.537499,2250.10104176002,1989,544,0,0,0,0,0,0,0,0,544,0,0,0,0,0,0,0,0,0,0,0,0,0,0
HK,Hong Kong,country,East Asia and Pacific,22.396428,114.109497,TN,Tunisia,country,Middle East and North Africa,33.886917,9.537499,9895.45703479401,1989,0,0,0,0,0,0,0,0,0,0,0,0,0,0,0,0,0,0,0,0,0,0,0,0
CN,China,country,East Asia and Pacific,35.86166,104.195397,TN,Tunisia,country,Middle East and North Africa,33.886917,9.537499,8261.76668770782,1989,8752,0,0,8,0,1,48,13,40,4,731,0,7850,17,0,0,0,0,0,40,0,0,0,0
TW,Taiwan,country,East Asia and Pacific,23.69781,120.960515,TN,Tunisia,country,Middle East and North Africa,33.886917,9.537499,10360.4873621956,1989,5,0,0,0,0,0,0,0,0,0,0,0,0,5,0,0,0,0,0,0,0,0,0,0
CO,Colombia,country,Latin America and the Caribbean,4.570868,-74.297333,TN,Tunisia,country,Middle East and North Africa,33.886917,9.537499,9165.9971807816,1989,1,0,0,0,0,0,0,0,0,0,0,0,1,0,0,0,0,0,0,0,0,0,0,0
CI,Ivory Coast,country,Sub-Saharan Africa,7.539989,-5.54708,TN,Tunisia,country,Middle East and North Africa,33.886917,9.537499,3317.31126279574,1989,5334,0,0,0,0,0,0,0,0,3786,0,0,1528,5,15,0,0,0,0,0,0,0,0,0
CU,Cuba,country,Latin America and the Caribbean,21.521757,-77.781167,TN,Tunisia,country,Middle East and North Africa,33.886917,9.537499,8468.51620222795,1989,70560,0,0,70560,0,0,0,0,0,0,0,0,0,0,0,0,0,0,0,0,0,0,0,0
CZ,Czech Republic,country,Europe and Central Asia,49.817492,15.472962,TN,Tunisia,country,Middle East and North Africa,33.886917,9.537499,1838.93179593838,1989,7903,0,0,0,0,0,0,0,0,0,0,0,0,0,0,0,0,0,7903,0,0,0,0,0
CD,"Congo, Dem. Rep.",country,Sub-Saharan Africa,-4.038333,21.758664,TN,Tunisia,country,Middle East and North Africa,33.886917,9.537499,4412.91320322736,1989,1499,0,0,0,0,0,0,0,0,0,0,0,1499,0,0,0,0,0,0,0,0,0,0,0
DK,Denmark,country,Europe and Central Asia,56.26392,9.501785,TN,Tunisia,country,Middle East and North Africa,33.886917,9.537499,2490.9980799726,1989,16180,0,0,13802,0,0,0,0,0,0,0,0,0,14,0,0,0,2,2362,0,0,0,0,0
DO,Dominican Republic,country,Latin America and the Caribbean,18.735693,-70.162651,TN,Tunisia,country,Middle East and North Africa,33.886917,9.537499,7943.54946799578,1989,258,0,0,0,0,0,0,0,0,0,0,0,0,258,0,0,0,0,0,0,0,0,0,0
EG,Egypt,country,Middle East and North Africa,26.820553,30.802498,TN,Tunisia,country,Middle East and North Africa,33.886917,9.537499,2183.65796795948,1989,1168,0,0,85,497,0,0,7,0,0,505,0,0,74,0,0,0,0,0,0,0,0,0,0
GQ,Equatorial Guinea,country,Sub-Saharan Africa,1.650801,10.267895,TN,Tunisia,country,Middle East and North Africa,33.886917,9.537499,3589.31413144416,1989,22,0,0,0,0,0,0,0,0,22,0,0,0,0,0,0,0,0,0,0,0,0,0,0
ET,Ethiopia,country,Sub-Saharan Africa,9.145,40.489673,TN,Tunisia,country,Middle East and North Africa,33.886917,9.537499,4193.96089770397,1989,84,0,0,0,0,0,0,0,0,0,0,0,0,84,0,0,0,0,0,0,0,0,0,0
FI,Finland,country,Europe and Central Asia,61.92411,25.748151,TN,Tunisia,country,Middle East and North Africa,33.886917,9.537499,3325.73311139903,1989,15543,14000,0,0,0,0,0,0,0,0,0,0,0,0,43,0,0,0,1500,0,0,0,0,0
FR,France,country,Europe and Central Asia,46.227638,2.213749,TN,Tunisia,country,Middle East and North Africa,33.886917,9.537499,1507.21120605535,1989,618496,517314,2470,49885,14,32,23,33,2167,12,5,1134,55,1169,28431,178,300,11050,4493,31,0,0,0,0
GR,Greece,country,Europe and Central Asia,39.074208,21.824312,TN,Tunisia,country,Middle East and North Africa,33.886917,9.537499,1240.60166797747,1989,97829,87398,3918,0,0,0,4,0,25,4918,0,0,0,1566,0,0,0,0,0,0,0,0,0,0
GW,Guinea-Bissau,country,Sub-Saharan Africa,11.803749,-15.180413,TN,Tunisia,country,Middle East and North Africa,33.886917,9.537499,3512.0796374386,1989,768,0,0,0,0,0,0,0,0,768,0,0,0,0,0,0,0,0,0,0,0,0,0,0
IS,Iceland,country,Europe and Central Asia,64.963051,-19.020835,TN,Tunisia,country,Middle East and North Africa,33.886917,9.537499,3955.98985901993,1989,232,0,0,0,0,0,0,0,0,0,0,0,0,0,0,0,0,232,0,0,0,0,0,0
IN,India,country,South Asia,20.593684,78.96288,TN,Tunisia,country,Middle East and North Africa,33.886917,9.537499,6903.73442990139,1989,1517,0,0,0,0,0,0,0,0,0,394,0,1049,74,0,0,0,0,0,0,0,0,0,0
ID,Indonesia,country,East Asia and Pacific,-0.789275,113.921327,TN,Tunisia,country,Middle East and North Africa,33.886917,9.537499,11393.5381357283,1989,2428,0,0,0,0,0,0,0,0,0,88,0,500,458,1382,0,0,0,0,0,0,0,0,0
IR,Iran,country,Middle East and North Africa,32.427908,53.688046,TN,Tunisia,country,Middle East and North Africa,33.886917,9.537499,4085.82282612559,1989,180,0,0,0,0,28,13,0,5,0,0,0,0,134,0,0,0,0,0,0,0,0,0,0
IE,Ireland,country,Europe and Central Asia,53.41291,-8.24389,TN,Tunisia,country,Middle East and North Africa,33.886917,9.537499,2587.18440560557,1989,143,0,0,5,0,0,0,0,0,0,0,0,0,22,0,0,0,0,116,0,0,0,0,0
IT,Italy,country,Europe and Central Asia,41.87194,12.56738,TN,Tunisia,country,Middle East and North Africa,33.886917,9.537499,927.721332523831,1989,106061,90546,48,1416,0,219,175,1,45,9,0,41,3,648,12895,13,1833,0,0,2,0,0,0,0
KE,Kenya,country,Sub-Saharan Africa,-0.023559,37.906193,TN,Tunisia,country,Middle East and North Africa,33.886917,9.537499,4797.35510922585,1989,1106,0,0,0,0,0,0,0,6,0,0,0,1100,0,0,0,0,0,0,0,0,0,0,0
LB,Lebanon,country,Middle East and North Africa,33.854721,35.862285,TN,Tunisia,country,Middle East and North Africa,33.886917,9.537499,2426.4141998737,1989,0,0,0,0,0,0,0,0,0,0,0,0,0,0,0,0,0,0,0,0,0,0,0,0
LY,Libya,country,Middle East and North Africa,26.3351,17.228331,TN,Tunisia,country,Middle East and North Africa,33.886917,9.537499,1119.55881677973,1989,1211,75,0,0,0,0,0,63,0,206,159,0,0,0,0,0,0,0,0,708,0,0,0,0
MG,Madagascar,country,Sub-Saharan Africa,-18.766947,46.869107,TN,Tunisia,country,Middle East and North Africa,33.886917,9.537499,7072.99793191474,1989,245,0,0,0,0,0,0,0,0,0,230,0,0,15,0,0,0,0,0,0,0,0,0,0
MY,Malaysia,country,East Asia and Pacific,4.210484,101.975766,TN,Tunisia,country,Middle East and North Africa,33.886917,9.537499,9982.30390255747,1989,4359,0,0,0,0,0,39,0,4,0,85,0,347,2823,1061,0,11,0,0,0,0,0,0,0
ML,Mali,country,Sub-Saharan Africa,17.570692,-3.996166,TN,Tunisia,country,Middle East and North Africa,33.886917,9.537499,2262.33155677795,1989,4397,0,0,0,0,0,0,0,0,4397,0,0,0,0,0,0,0,0,0,0,0,0,0,0
MT,Malta,country,Middle East and North Africa,35.937496,14.375416,TN,Tunisia,country,Middle East and North Africa,33.886917,9.537499,497.046739244154,1989,2,0,0,0,0,0,0,0,0,0,0,0,0,2,0,0,0,0,0,0,0,0,0,0
MX,Mexico,country,Latin America and the Caribbean,23.634501,-102.552784,TN,Tunisia,country,Middle East and North Africa,33.886917,9.537499,10417.5064206546,1989,253475,253475,0,0,0,0,0,0,0,0,0,0,0,0,0,0,0,0,0,0,0,0,0,0
MA,Morocco,country,Middle East and North Africa,31.791702,-7.09262,TN,Tunisia,country,Middle East and North Africa,33.886917,9.537499,1571.01591812006,1989,4619,87,4,13,2737,0,49,138,17,0,1079,0,0,495,0,0,0,0,0,0,0,0,0,0
NL,Netherlands,country,Europe and Central Asia,52.132633,5.291266,TN,Tunisia,country,Middle East and North Africa,33.886917,9.537499,2059.40768527564,1989,39565,0,14118,790,41,0,0,56,0,0,0,0,227,336,19057,107,166,33,4800,0,0,0,0,0
NZ,New Zealand,country,East Asia and Pacific,-40.900557,174.885971,TN,Tunisia,country,Middle East and North Africa,33.886917,9.537499,18527.7043490347,1989,1443,0,0,0,0,0,0,0,0,55,0,0,0,0,0,0,0,556,832,0,0,0,0,0
NG,Nigeria,country,Sub-Saharan Africa,9.081999,8.675277,TN,Tunisia,country,Middle East and North Africa,33.886917,9.537499,2762.68160317041,1989,305,0,0,0,0,0,0,0,0,0,0,0,300,5,0,0,0,0,0,0,0,0,0,0
NO,Norway,country,Europe and Central Asia,60.472024,8.468946,TN,Tunisia,country,Middle East and North Africa,33.886917,9.537499,2960.45442651587,1989,21,0,0,0,0,0,0,0,0,0,0,3,0,0,0,0,0,18,0,0,0,0,0,0
PK,Pakistan,country,South Asia,30.375321,69.345116,TN,Tunisia,country,Middle East and North Africa,33.886917,9.537499,5571.62128195308,1989,85,0,0,0,0,0,0,0,0,85,0,0,0,0,0,0,0,0,0,0,0,0,0,0
PY,Paraguay,country,Latin America and the Caribbean,-23.442503,-58.443832,TN,Tunisia,country,Middle East and North Africa,33.886917,9.537499,9612.02353070271,1989,1899,0,0,0,0,0,0,0,0,0,0,0,1899,0,0,0,0,0,0,0,0,0,0,0
PH,Philippines,country,East Asia and Pacific,12.879721,121.774017,TN,Tunisia,country,Middle East and North Africa,33.886917,9.537499,11185.850544858,1989,513,0,0,0,0,0,0,0,0,0,0,0,0,274,239,0,0,0,0,0,0,0,0,0
PL,Poland,country,Europe and Central Asia,51.919438,19.145136,TN,Tunisia,country,Middle East and North Africa,33.886917,9.537499,2150.42326196346,1989,5575,0,0,0,0,0,0,0,0,0,0,0,0,0,1498,0,0,325,3752,0,0,0,0,0
PT,Portugal,country,Europe and Central Asia,39.399872,-8.224454,TN,Tunisia,country,Middle East and North Africa,33.886917,9.537499,1697.39617410593,1989,0,0,0,0,0,0,0,0,0,0,0,0,0,0,0,0,0,0,0,0,0,0,0,0
RO,Romania,country,Europe and Central Asia,45.943161,24.96676,TN,Tunisia,country,Middle East and North Africa,33.886917,9.537499,1874.15637976747,1989,11400,0,0,11400,0,0,0,0,0,0,0,0,0,0,0,0,0,0,0,0,0,0,0,0
SN,Senegal,country,Sub-Saharan Africa,14.497401,-14.452362,TN,Tunisia,country,Middle East and North Africa,33.886917,9.537499,3238.28355944916,1989,2787,0,0,0,0,0,0,0,0,2787,0,0,0,0,0,0,0,0,0,0,0,0,0,0
SL,Sierra Leone,country,Sub-Saharan Africa,8.460555,-11.779889,TN,Tunisia,country,Middle East and North Africa,33.886917,9.537499,3575.31570089023,1989,5,0,0,0,0,0,0,0,0,0,0,0,0,5,0,0,0,0,0,0,0,0,0,0
SG,Singapore,country,East Asia and Pacific,1.352083,103.819836,TN,Tunisia,country,Middle East and North Africa,33.886917,9.537499,10330.2216969789,1989,1187,0,0,0,0,0,0,0,0,0,137,0,0,3,1047,0,0,0,0,0,0,0,0,0
ES,Spain,country,Europe and Central Asia,40.463667,-3.74922,TN,Tunisia,country,Middle East and North Africa,33.886917,9.537499,1385.07968041442,1989,81910,33588,0,1063,0,2,0,7,2,20,0,16,0,364,46329,2,237,0,517,0,0,0,0,0
LK,Sri Lanka,country,South Asia,7.873054,80.771797,TN,Tunisia,country,Middle East and North Africa,33.886917,9.537499,7799.89084259296,1989,48,0,0,0,0,0,17,0,0,0,2,0,0,29,0,0,0,0,0,0,0,0,0,0
SD,Sudan,country,Sub-Saharan Africa,12.862807,30.217636,TN,Tunisia,country,Middle East and North Africa,33.886917,9.537499,3139.48557980866,1989,3310,0,0,0,0,0,3124,0,0,0,0,0,0,186,0,0,0,0,0,0,0,0,0,0
SE,Sweden,country,Europe and Central Asia,60.128161,18.643501,TN,Tunisia,country,Middle East and North Africa,33.886917,9.537499,2995.4521574279,1989,15885,4800,0,10333,0,0,0,0,0,0,0,0,0,0,752,0,0,0,0,0,0,0,0,0
CH,Switzerland,country,Europe and Central Asia,46.818188,8.227512,TN,Tunisia,country,Middle East and North Africa,33.886917,9.537499,1443.72811729577,1989,243,1,0,4,0,0,0,8,0,1,0,7,3,134,0,55,17,0,30,0,0,0,0,0
SY,Syrian Arab Rep.,country,Middle East and North Africa,34.802075,38.996815,TN,Tunisia,country,Middle East and North Africa,33.886917,9.537499,2699.86444513785,1989,1647,32,0,0,0,0,0,400,0,1088,127,0,0,0,0,0,0,0,0,0,0,0,0,0
TH,Thailand,country,East Asia and Pacific,15.870032,100.992541,TN,Tunisia,country,Middle East and North Africa,33.886917,9.537499,9173.14619832656,1989,3822,3133,0,0,0,0,0,0,61,0,118,0,500,10,0,0,0,0,0,0,0,0,0,0
TG,Togo,country,Sub-Saharan Africa,8.619543,0.824782,TN,Tunisia,country,Middle East and North Africa,33.886917,9.537499,2951.10957187245,1989,1002,0,0,0,0,0,0,0,0,1002,0,0,0,0,0,0,0,0,0,0,0,0,0,0
TR,Turkey,country,Europe and Central Asia,38.963745,35.243322,TN,Tunisia,country,Middle East and North Africa,33.886917,9.537499,2362.21464082084,1989,78228,60280,1715,0,5502,98,35,1540,3179,334,912,0,0,104,4529,0,0,0,0,0,0,0,0,0
GB,United Kingdom,country,Europe and Central Asia,55.378051,-3.435973,TN,Tunisia,country,Middle East and North Africa,33.886917,9.537499,2593.92844029769,1989,7268,4,0,6426,0,0,50,1,1,35,0,0,6,50,8,644,42,0,43,0,0,0,0,0
US,USA,country,North America,37.09024,-95.712891,TN,Tunisia,country,Middle East and North Africa,33.886917,9.537499,8980.5029084597,1989,590934,550591,0,0,0,470,0,0,47,57,0,9000,0,388,30342,11,0,25,3,0,0,0,0,0
RU,Russian Federation,country,Europe and Central Asia,61.52401,105.318756,TN,Tunisia,country,Middle East and North Africa,33.886917,9.537499,7040.00891039954,1989,2068,0,0,0,0,0,0,0,0,1961,0,0,0,2,0,5,0,0,100,0,0,0,0,0
VN,Vietnam,country,East Asia and Pacific,14.058324,108.277199,TN,Tunisia,country,Middle East and North Africa,33.886917,9.537499,9935.34304809816,1989,128,0,0,0,0,0,61,0,0,0,67,0,0,0,0,0,0,0,0,0,0,0,0,0
BA,Bosnia & Herzegovina,country,Europe and Central Asia,43.915886,17.679076,TN,Tunisia,country,Middle East and North Africa,33.886917,9.537499,1319.00753296738,1989,10761,10293,0,0,0,0,0,0,0,50,0,3,0,415,0,0,0,0,0,0,0,0,0,0
DZ,Algeria,country,Middle East and North Africa,28.033886,1.659626,TN,Tunisia,country,Middle East and North Africa,33.886917,9.537499,994.379845895559,1990,1049,0,0,0,0,0,0,0,0,0,0,0,0,1049,0,0,38,0,0,0,0,0,0,0
AR,Argentina,country,Latin America and the Caribbean,-38.416097,-63.616672,TN,Tunisia,country,Middle East and North Africa,33.886917,9.537499,11030.4445486828,1990,160305,52500,0,0,670,0,0,0,0,0,0,106937,0,50,148,0,0,0,0,0,0,0,0,0
AU,Australia,country,East Asia and Pacific,-25.274398,133.775136,TN,Tunisia,country,Middle East and North Africa,33.886917,9.537499,14619.6246298909,1990,171,0,0,0,0,0,0,0,0,0,0,0,0,96,0,0,0,21,0,54,0,0,0,0
AT,Austria,country,Europe and Central Asia,47.516231,14.550072,TN,Tunisia,country,Middle East and North Africa,33.886917,9.537499,1574.19740366617,1990,130,0,0,83,0,0,0,0,0,0,0,0,0,0,0,0,0,0,47,0,0,0,0,0
BD,Bangladesh,country,South Asia,23.684994,90.356331,TN,Tunisia,country,Middle East and North Africa,33.886917,9.537499,7770.27887953464,1990,1771,0,0,0,0,0,0,0,0,1771,0,0,0,0,0,0,0,0,0,0,0,0,0,0
BE,Belgium,country,Europe and Central Asia,50.503887,4.469936,TN,Tunisia,country,Middle East and North Africa,33.886917,9.537499,1895.27900155401,1990,38104,15607,7459,13126,60,8,0,0,0,0,0,0,0,42,470,7,27,0,1325,0,0,0,0,0
BJ,Benin,country,Sub-Saharan Africa,9.30769,2.315834,TN,Tunisia,country,Middle East and North Africa,33.886917,9.537499,2834.15329170303,1990,18,0,0,0,0,0,0,0,0,18,0,0,0,0,0,0,0,0,0,0,0,0,0,0
BM,Bermuda,country,North America,32.321384,-64.75737,TN,Tunisia,country,Middle East and North Africa,33.886917,9.537499,6767.20666255697,1990,23,0,0,0,0,0,0,0,0,0,0,0,0,0,0,23,0,0,0,0,0,0,0,0
BR,Brazil,country,Latin America and the Caribbean,-14.235004,-51.92528,TN,Tunisia,country,Middle East and North Africa,33.886917,9.537499,8424.88710195643,1990,25714,0,0,22800,0,0,0,0,1,0,308,0,1300,1305,0,0,0,0,0,0,0,0,0,0
BF,Burkina Faso,country,Sub-Saharan Africa,12.238333,-1.561593,TN,Tunisia,country,Middle East and North Africa,33.886917,9.537499,2659.97307737399,1990,4689,0,0,0,0,0,0,0,0,4689,0,0,0,0,0,0,0,0,0,0,0,0,0,0
CM,Cameroon,country,Sub-Saharan Africa,7.369722,12.354722,TN,Tunisia,country,Middle East and North Africa,33.886917,9.537499,2966.06360972233,1990,1866,0,0,0,0,0,0,0,0,1561,0,0,305,0,0,0,0,0,0,0,0,0,0,0
CA,Canada,country,North America,56.130366,-106.346771,TN,Tunisia,country,Middle East and North Africa,33.886917,9.537499,8334.7245599424,1990,21381,21347,0,0,0,0,0,0,0,0,0,0,0,0,0,34,0,0,0,0,0,0,0,0
CF,Central African Rep.,country,Sub-Saharan Africa,6.611111,20.939444,TN,Tunisia,country,Middle East and North Africa,33.886917,9.537499,3255.56628954414,1990,504,0,0,0,0,0,0,0,0,0,0,0,504,0,0,0,0,0,0,0,0,0,0,0
HK,Hong Kong,country,East Asia and Pacific,22.396428,114.109497,TN,Tunisia,country,Middle East and North Africa,33.886917,9.537499,9895.45703479401,1990,1,0,0,0,0,0,0,0,0,0,0,0,0,1,0,0,0,0,0,0,0,0,0,0
CN,China,country,East Asia and Pacific,35.86166,104.195397,TN,Tunisia,country,Middle East and North Africa,33.886917,9.537499,8261.76668770782,1990,10126,0,0,8,0,3,22,0,0,0,346,0,9698,49,0,0,0,0,0,0,0,0,0,0
TW,Taiwan,country,East Asia and Pacific,23.69781,120.960515,TN,Tunisia,country,Middle East and North Africa,33.886917,9.537499,10360.4873621956,1990,0,0,0,0,0,0,0,0,0,0,0,0,0,0,0,0,0,0,0,0,0,0,0,0
CI,Ivory Coast,country,Sub-Saharan Africa,7.539989,-5.54708,TN,Tunisia,country,Middle East and North Africa,33.886917,9.537499,3317.31126279574,1990,2240,0,0,0,0,0,1,0,0,1299,0,0,940,0,0,0,0,0,0,0,0,0,0,0
CU,Cuba,country,Latin America and the Caribbean,21.521757,-77.781167,TN,Tunisia,country,Middle East and North Africa,33.886917,9.537499,8468.51620222795,1990,49980,0,0,49980,0,0,0,0,0,0,0,0,0,0,0,0,0,0,0,0,0,0,0,0
CZ,Czech Republic,country,Europe and Central Asia,49.817492,15.472962,TN,Tunisia,country,Middle East and North Africa,33.886917,9.537499,1838.93179593838,1990,10567,0,0,0,0,0,0,0,0,0,0,0,0,0,0,0,0,0,10567,0,0,0,0,0
CD,"Congo, Dem. Rep.",country,Sub-Saharan Africa,-4.038333,21.758664,TN,Tunisia,country,Middle East and North Africa,33.886917,9.537499,4412.91320322736,1990,515,0,0,0,0,0,0,0,0,0,0,0,502,13,0,0,0,0,0,0,0,0,0,0
DK,Denmark,country,Europe and Central Asia,56.26392,9.501785,TN,Tunisia,country,Middle East and North Africa,33.886917,9.537499,2490.9980799726,1990,12415,0,0,12279,0,0,0,0,0,0,0,0,0,18,0,0,0,3,115,0,0,0,0,0
EC,Ecuador,country,Latin America and the Caribbean,-1.831239,-78.183406,TN,Tunisia,country,Middle East and North Africa,33.886917,9.537499,9921.94051407327,1990,1110,0,0,0,0,0,0,0,0,0,0,0,1110,0,0,0,0,0,0,0,0,0,0,0
EG,Egypt,country,Middle East and North Africa,26.820553,30.802498,TN,Tunisia,country,Middle East and North Africa,33.886917,9.537499,2183.65796795948,1990,649,0,0,289,0,0,0,0,1,0,340,0,0,19,0,0,0,0,0,0,0,0,0,0
ET,Ethiopia,country,Sub-Saharan Africa,9.145,40.489673,TN,Tunisia,country,Middle East and North Africa,33.886917,9.537499,4193.96089770397,1990,18,0,0,0,0,0,0,0,0,0,0,0,0,18,0,0,0,0,0,0,0,0,0,0
FI,Finland,country,Europe and Central Asia,61.92411,25.748151,TN,Tunisia,country,Middle East and North Africa,33.886917,9.537499,3325.73311139903,1990,1540,40,0,0,0,0,0,0,0,0,0,0,0,0,0,0,0,0,1500,0,0,0,0,0
FR,France,country,Europe and Central Asia,46.227638,2.213749,TN,Tunisia,country,Middle East and North Africa,33.886917,9.537499,1507.21120605535,1990,532006,448382,6105,23583,5,19,17,19,48,44,1,0,161,1097,36468,143,324,13196,2688,30,0,0,0,0
GR,Greece,country,Europe and Central Asia,39.074208,21.824312,TN,Tunisia,country,Middle East and North Africa,33.886917,9.537499,1240.60166797747,1990,12205,0,5987,0,0,0,0,0,15,4733,0,0,0,1470,0,0,0,0,0,0,0,0,0,0
GT,Guatemala,country,Latin America and the Caribbean,15.783471,-90.230759,TN,Tunisia,country,Middle East and North Africa,33.886917,9.537499,9915.91832252029,1990,12603,0,0,12600,0,0,0,0,0,0,3,0,0,0,0,0,0,0,0,0,0,0,0,0
HU,Hungary,country,Europe and Central Asia,47.162494,19.503304,TN,Tunisia,country,Middle East and North Africa,33.886917,9.537499,1698.27774296455,1990,3107,0,0,0,0,0,0,0,0,0,3,0,0,0,3004,0,0,0,100,0,0,0,0,0
IN,India,country,South Asia,20.593684,78.96288,TN,Tunisia,country,Middle East and North Africa,33.886917,9.537499,6903.73442990139,1990,9634,0,0,8500,0,0,714,0,0,12,79,0,305,24,0,0,0,0,0,0,0,0,0,0
ID,Indonesia,country,East Asia and Pacific,-0.789275,113.921327,TN,Tunisia,country,Middle East and North Africa,33.886917,9.537499,11393.5381357283,1990,3175,0,0,0,0,0,0,0,0,0,45,0,499,1116,1515,0,0,0,0,0,0,0,0,0
IR,Iran,country,Middle East and North Africa,32.427908,53.688046,TN,Tunisia,country,Middle East and North Africa,33.886917,9.537499,4085.82282612559,1990,496,0,0,0,0,111,0,0,53,0,0,0,0,332,0,0,0,0,0,0,0,0,0,0
IE,Ireland,country,Europe and Central Asia,53.41291,-8.24389,TN,Tunisia,country,Middle East and North Africa,33.886917,9.537499,2587.18440560557,1990,151,104,0,7,0,0,0,0,0,0,0,0,0,18,0,0,0,22,0,0,0,0,0,0
IT,Italy,country,Europe and Central Asia,41.87194,12.56738,TN,Tunisia,country,Middle East and North Africa,33.886917,9.537499,927.721332523831,1990,72431,55324,5,543,0,80,0,0,39,17,0,2,10,941,15425,29,365,0,2,14,0,0,0,0
JO,Jordan,country,Middle East and North Africa,30.585164,36.238414,TN,Tunisia,country,Middle East and North Africa,33.886917,9.537499,2533.63473760467,1990,4,4,0,0,0,0,0,0,0,0,0,0,0,0,0,0,0,0,0,0,0,0,0,0
KE,Kenya,country,Sub-Saharan Africa,-0.023559,37.906193,TN,Tunisia,country,Middle East and North Africa,33.886917,9.537499,4797.35510922585,1990,402,0,0,0,0,0,0,0,2,0,0,0,400,0,0,0,0,0,0,0,0,0,0,0
LB,Lebanon,country,Middle East and North Africa,33.854721,35.862285,TN,Tunisia,country,Middle East and North Africa,33.886917,9.537499,2426.4141998737,1990,72,0,0,0,0,0,0,0,0,0,0,0,0,0,0,0,0,0,0,72,0,0,0,0
LY,Libya,country,Middle East and North Africa,26.3351,17.228331,TN,Tunisia,country,Middle East and North Africa,33.886917,9.537499,1119.55881677973,1990,919,205,0,0,0,0,0,0,0,0,0,0,0,0,0,0,0,0,0,714,0,0,0,0
MG,Madagascar,country,Sub-Saharan Africa,-18.766947,46.869107,TN,Tunisia,country,Middle East and North Africa,33.886917,9.537499,7072.99793191474,1990,153,0,0,0,0,0,0,0,0,0,148,0,0,5,0,0,0,0,0,0,0,0,0,0
MY,Malaysia,country,East Asia and Pacific,4.210484,101.975766,TN,Tunisia,country,Middle East and North Africa,33.886917,9.537499,9982.30390255747,1990,5354,0,0,0,0,0,61,0,11,0,170,0,0,3774,1338,0,0,0,0,0,0,0,0,0
ML,Mali,country,Sub-Saharan Africa,17.570692,-3.996166,TN,Tunisia,country,Middle East and North Africa,33.886917,9.537499,2262.33155677795,1990,2420,0,0,0,0,0,0,0,0,2420,0,0,0,0,0,0,0,0,0,0,0,0,0,0
MX,Mexico,country,Latin America and the Caribbean,23.634501,-102.552784,TN,Tunisia,country,Middle East and North Africa,33.886917,9.537499,10417.5064206546,1990,21,0,0,21,0,0,0,0,0,0,0,0,0,0,0,0,0,0,0,0,0,0,0,0
MA,Morocco,country,Middle East and North Africa,31.791702,-7.09262,TN,Tunisia,country,Middle East and North Africa,33.886917,9.537499,1571.01591812006,1990,1989,12,0,0,1046,0,274,3,0,0,40,0,0,614,0,0,0,0,0,0,0,0,0,0
NL,Netherlands,country,Europe and Central Asia,52.132633,5.291266,TN,Tunisia,country,Middle East and North Africa,33.886917,9.537499,2059.40768527564,1990,55243,146,6582,39067,38,0,0,100,3,0,0,0,167,224,3757,105,121,0,5054,0,0,0,0,0
NZ,New Zealand,country,East Asia and Pacific,-40.900557,174.885971,TN,Tunisia,country,Middle East and North Africa,33.886917,9.537499,18527.7043490347,1990,378,0,0,0,0,0,0,0,0,0,0,0,0,0,0,0,0,378,0,0,0,0,0,0
NO,Norway,country,Europe and Central Asia,60.472024,8.468946,TN,Tunisia,country,Middle East and North Africa,33.886917,9.537499,2960.45442651587,1990,0,0,0,0,0,0,0,0,0,0,0,0,0,0,0,0,0,0,0,0,0,0,0,0
PK,Pakistan,country,South Asia,30.375321,69.345116,TN,Tunisia,country,Middle East and North Africa,33.886917,9.537499,5571.62128195308,1990,5005,5000,0,0,0,0,0,0,0,0,0,0,0,5,0,0,0,0,0,0,0,0,0,0
PY,Paraguay,country,Latin America and the Caribbean,-23.442503,-58.443832,TN,Tunisia,country,Middle East and North Africa,33.886917,9.537499,9612.02353070271,1990,588,0,0,0,0,0,0,0,0,0,0,0,588,0,0,0,0,0,0,0,0,0,0,0
PE,Peru,country,Latin America and the Caribbean,-9.189967,-75.015152,TN,Tunisia,country,Middle East and North Africa,33.886917,9.537499,10090.5212731451,1990,150,0,0,0,0,0,0,0,0,0,0,0,150,0,0,0,0,0,0,0,0,0,0,0
PH,Philippines,country,East Asia and Pacific,12.879721,121.774017,TN,Tunisia,country,Middle East and North Africa,33.886917,9.537499,11185.850544858,1990,312,0,0,0,0,0,0,0,0,0,0,0,0,80,232,0,0,0,0,0,0,0,0,0
PL,Poland,country,Europe and Central Asia,51.919438,19.145136,TN,Tunisia,country,Middle East and North Africa,33.886917,9.537499,2150.42326196346,1990,3555,0,0,0,0,0,0,0,0,0,0,0,0,0,0,1,0,70,3484,0,0,0,0,0
PT,Portugal,country,Europe and Central Asia,39.399872,-8.224454,TN,Tunisia,country,Middle East and North Africa,33.886917,9.537499,1697.39617410593,1990,21,0,0,0,0,0,0,0,0,0,0,0,0,21,0,0,0,0,0,0,0,0,0,0
RE,Reunion,country,Sub-Saharan Africa,-21.115141,55.536384,TN,Tunisia,country,Middle East and North Africa,33.886917,9.537499,7825.7248721188,1990,0,0,0,0,0,0,0,0,0,0,0,0,0,0,0,0,0,0,0,0,0,0,0,0
SN,Senegal,country,Sub-Saharan Africa,14.497401,-14.452362,TN,Tunisia,country,Middle East and North Africa,33.886917,9.537499,3238.28355944916,1990,4123,0,0,0,0,0,0,0,0,4123,0,0,0,0,0,0,0,0,0,0,0,0,0,0
SG,Singapore,country,East Asia and Pacific,1.352083,103.819836,TN,Tunisia,country,Middle East and North Africa,33.886917,9.537499,10330.2216969789,1990,110,0,0,0,0,0,0,0,0,0,40,0,0,20,50,0,0,0,0,0,0,0,0,0
SO,Somalia,country,Sub-Saharan Africa,5.152149,46.199616,TN,Tunisia,country,Middle East and North Africa,33.886917,9.537499,4953.33836603031,1990,6,0,0,0,0,0,0,0,0,0,0,0,0,6,0,0,0,0,0,0,0,0,0,0
ES,Spain,country,Europe and Central Asia,40.463667,-3.74922,TN,Tunisia,country,Middle East and North Africa,33.886917,9.537499,1385.07968041442,1990,41191,20,0,1077,0,52,3,0,0,21,78,0,50,97,39348,0,60,0,445,0,0,0,0,0
LK,Sri Lanka,country,South Asia,7.873054,80.771797,TN,Tunisia,country,Middle East and North Africa,33.886917,9.537499,7799.89084259296,1990,1348,0,0,0,0,0,3,0,0,0,0,0,1300,45,0,0,0,0,0,0,0,0,0,0
SD,Sudan,country,Sub-Saharan Africa,12.862807,30.217636,TN,Tunisia,country,Middle East and North Africa,33.886917,9.537499,3139.48557980866,1990,2706,0,0,50,0,0,2410,0,0,0,0,0,0,246,0,0,0,0,0,0,0,0,0,0
SE,Sweden,country,Europe and Central Asia,60.128161,18.643501,TN,Tunisia,country,Middle East and North Africa,33.886917,9.537499,2995.4521574279,1990,2000,0,0,0,0,0,0,0,0,0,0,0,0,0,0,0,0,0,2000,0,0,0,0,0
CH,Switzerland,country,Europe and Central Asia,46.818188,8.227512,TN,Tunisia,country,Middle East and North Africa,33.886917,9.537499,1443.72811729577,1990,38137,24678,0,11961,0,0,0,0,0,3,0,0,3,1407,0,43,10,0,33,9,0,0,0,0
SY,Syrian Arab Rep.,country,Middle East and North Africa,34.802075,38.996815,TN,Tunisia,country,Middle East and North Africa,33.886917,9.537499,2699.86444513785,1990,4988,0,0,0,0,0,0,0,0,4984,0,0,0,4,0,0,0,0,0,0,0,0,0,0
TH,Thailand,country,East Asia and Pacific,15.870032,100.992541,TN,Tunisia,country,Middle East and North Africa,33.886917,9.537499,9173.14619832656,1990,38,0,0,0,0,0,0,0,34,0,0,0,0,4,0,0,0,0,0,0,0,0,0,0
TG,Togo,country,Sub-Saharan Africa,8.619543,0.824782,TN,Tunisia,country,Middle East and North Africa,33.886917,9.537499,2951.10957187245,1990,850,0,0,0,0,0,0,0,0,850,0,0,0,0,0,0,0,0,0,0,0,0,0,0
TR,Turkey,country,Europe and Central Asia,38.963745,35.243322,TN,Tunisia,country,Middle East and North Africa,33.886917,9.537499,2362.21464082084,1990,2431,0,0,0,570,114,0,1498,109,0,10,0,0,130,0,0,0,0,0,0,0,0,0,0
AE,United Arab Emirates,country,Middle East and North Africa,23.424076,53.847818,TN,Tunisia,country,Middle East and North Africa,33.886917,9.537499,4446.14300731585,1990,118,0,0,0,0,0,0,0,0,0,0,0,0,118,0,0,0,0,0,0,0,0,0,0
GB,United Kingdom,country,Europe and Central Asia,55.378051,-3.435973,TN,Tunisia,country,Middle East and North Africa,33.886917,9.537499,2593.92844029769,1990,16805,4,0,13015,16,1,0,0,2,49,0,0,5,27,3150,536,64,0,0,0,0,0,0,0
US,USA,country,North America,37.09024,-95.712891,TN,Tunisia,country,Middle East and North Africa,33.886917,9.537499,8980.5029084597,1990,816966,767277,0,0,1,149,0,0,47,0,0,15949,0,548,32994,1,0,0,0,0,0,0,0,0
RU,Russian Federation,country,Europe and Central Asia,61.52401,105.318756,TN,Tunisia,country,Middle East and North Africa,33.886917,9.537499,7040.00891039954,1990,2007,0,0,0,0,0,0,0,0,1992,0,0,0,11,0,4,0,0,0,0,0,0,0,0
VN,Vietnam,country,East Asia and Pacific,14.058324,108.277199,TN,Tunisia,country,Middle East and North Africa,33.886917,9.537499,9935.34304809816,1990,587,0,0,0,0,0,0,0,0,0,30,0,477,0,0,0,0,0,80,0,0,0,0,0
BA,Bosnia & Herzegovina,country,Europe and Central Asia,43.915886,17.679076,TN,Tunisia,country,Middle East and North Africa,33.886917,9.537499,1319.00753296738,1990,31506,25260,0,0,0,0,0,0,0,0,0,0,0,236,6010,0,0,0,0,0,0,0,0,0
ZW,Zimbabwe,country,Sub-Saharan Africa,-19.015438,29.154857,TN,Tunisia,country,Middle East and North Africa,33.886917,9.537499,6245.98626394509,1990,823,18,0,0,0,0,0,0,0,0,0,0,0,805,0,0,0,0,0,0,0,0,0,0
DZ,Algeria,country,Middle East and North Africa,28.033886,1.659626,TN,Tunisia,country,Middle East and North Africa,33.886917,9.537499,994.379845895559,1991,621,0,0,0,0,0,0,0,0,0,0,0,0,621,0,0,0,0,0,0,0,0,0,0
AR,Argentina,country,Latin America and the Caribbean,-38.416097,-63.616672,TN,Tunisia,country,Middle East and North Africa,33.886917,9.537499,11030.4445486828,1991,145009,23062,0,0,2113,0,0,0,0,0,0,119586,0,42,206,0,0,0,0,0,0,0,0,0
AU,Australia,country,East Asia and Pacific,-25.274398,133.775136,TN,Tunisia,country,Middle East and North Africa,33.886917,9.537499,14619.6246298909,1991,114,0,0,0,0,0,0,0,0,0,0,0,0,114,0,0,0,0,0,0,0,0,0,0
AT,Austria,country,Europe and Central Asia,47.516231,14.550072,TN,Tunisia,country,Middle East and North Africa,33.886917,9.537499,1574.19740366617,1991,554,0,0,122,0,0,0,0,0,0,0,0,0,60,0,0,0,0,372,0,0,0,0,0
BD,Bangladesh,country,South Asia,23.684994,90.356331,TN,Tunisia,country,Middle East and North Africa,33.886917,9.537499,7770.27887953464,1991,3273,0,0,0,0,0,0,0,0,3273,0,0,0,0,0,0,0,0,0,0,0,0,0,0
BE,Belgium,country,Europe and Central Asia,50.503887,4.469936,TN,Tunisia,country,Middle East and North Africa,33.886917,9.537499,1895.27900155401,1991,49846,3,14463,25614,0,3,0,0,0,28,0,0,10,63,9363,2,0,0,297,0,0,0,0,0
BR,Brazil,country,Latin America and the Caribbean,-14.235004,-51.92528,TN,Tunisia,country,Middle East and North Africa,33.886917,9.537499,8424.88710195643,1991,2694,0,0,0,0,0,0,0,4,1,509,0,1020,1160,0,0,0,0,0,0,0,0,0,0
BG,Bulgaria,country,Europe and Central Asia,42.733883,25.48583,TN,Tunisia,country,Middle East and North Africa,33.886917,9.537499,1701.35210937442,1991,25,0,0,0,0,0,0,0,0,0,25,0,0,0,0,0,0,0,0,0,0,0,0,0
BF,Burkina Faso,country,Sub-Saharan Africa,12.238333,-1.561593,TN,Tunisia,country,Middle East and North Africa,33.886917,9.537499,2659.97307737399,1991,500,0,0,0,0,0,0,0,0,500,0,0,0,0,0,0,0,0,0,0,0,0,0,0
CM,Cameroon,country,Sub-Saharan Africa,7.369722,12.354722,TN,Tunisia,country,Middle East and North Africa,33.886917,9.537499,2966.06360972233,1991,1005,0,0,0,0,0,0,0,0,1000,0,0,0,5,0,0,0,0,0,0,0,0,0,0
CA,Canada,country,North America,56.130366,-106.346771,TN,Tunisia,country,Middle East and North Africa,33.886917,9.537499,8334.7245599424,1991,14701,14700,0,0,0,0,0,0,0,0,0,0,0,0,0,1,0,0,0,0,0,0,0,0
CF,Central African Rep.,country,Sub-Saharan Africa,6.611111,20.939444,TN,Tunisia,country,Middle East and North Africa,33.886917,9.537499,3255.56628954414,1991,502,0,0,0,0,0,0,0,0,0,0,0,502,0,0,0,0,0,0,0,0,0,0,0
CN,China,country,East Asia and Pacific,35.86166,104.195397,TN,Tunisia,country,Middle East and North Africa,33.886917,9.537499,8261.76668770782,1991,9104,0,0,25,0,20,0,31,81,2,443,0,8400,72,30,0,0,0,0,0,0,0,0,0
TW,Taiwan,country,East Asia and Pacific,23.69781,120.960515,TN,Tunisia,country,Middle East and North Africa,33.886917,9.537499,10360.4873621956,1991,1,0,0,0,0,0,0,0,0,0,0,0,0,1,0,0,0,0,0,0,0,0,0,0
KM,Comoros,country,Sub-Saharan Africa,-11.875001,43.872219,TN,Tunisia,country,Middle East and North Africa,33.886917,9.537499,6257.72773867678,1991,100,0,0,0,0,0,0,0,0,0,100,0,0,0,0,0,0,0,0,0,0,0,0,0
CI,Ivory Coast,country,Sub-Saharan Africa,7.539989,-5.54708,TN,Tunisia,country,Middle East and North Africa,33.886917,9.537499,3317.31126279574,1991,1102,0,0,0,0,0,0,0,0,0,0,0,1102,0,0,0,0,0,0,0,0,0,0,0
CU,Cuba,country,Latin America and the Caribbean,21.521757,-77.781167,TN,Tunisia,country,Middle East and North Africa,33.886917,9.537499,8468.51620222795,1991,50503,0,0,50503,0,0,0,0,0,0,0,0,0,0,0,0,0,0,0,0,0,0,0,0
CZ,Czech Republic,country,Europe and Central Asia,49.817492,15.472962,TN,Tunisia,country,Middle East and North Africa,33.886917,9.537499,1838.93179593838,1991,3766,0,0,0,0,0,0,0,0,0,0,0,0,0,0,0,0,0,3766,0,0,0,0,0
CD,"Congo, Dem. Rep.",country,Sub-Saharan Africa,-4.038333,21.758664,TN,Tunisia,country,Middle East and North Africa,33.886917,9.537499,4412.91320322736,1991,809,0,0,0,0,0,0,0,0,0,0,0,804,5,0,0,0,0,0,0,0,0,0,0
DK,Denmark,country,Europe and Central Asia,56.26392,9.501785,TN,Tunisia,country,Middle East and North Africa,33.886917,9.537499,2490.9980799726,1991,6131,0,0,0,0,0,0,0,0,0,0,0,0,15,6068,23,0,5,20,0,0,0,0,0
DO,Dominican Republic,country,Latin America and the Caribbean,18.735693,-70.162651,TN,Tunisia,country,Middle East and North Africa,33.886917,9.537499,7943.54946799578,1991,295,0,0,0,0,0,0,0,0,0,0,0,0,295,0,0,0,0,0,0,0,0,0,0
EG,Egypt,country,Middle East and North Africa,26.820553,30.802498,TN,Tunisia,country,Middle East and North Africa,33.886917,9.537499,2183.65796795948,1991,868,0,0,103,0,0,0,0,0,1,715,0,49,0,0,0,0,0,0,0,0,0,0,0
ET,Ethiopia,country,Sub-Saharan Africa,9.145,40.489673,TN,Tunisia,country,Middle East and North Africa,33.886917,9.537499,4193.96089770397,1991,61,0,0,0,0,0,0,0,0,0,0,0,0,61,0,0,0,0,0,0,0,0,0,0
FI,Finland,country,Europe and Central Asia,61.92411,25.748151,TN,Tunisia,country,Middle East and North Africa,33.886917,9.537499,3325.73311139903,1991,63,20,0,0,0,0,0,0,0,0,0,0,0,0,43,0,0,0,0,0,0,0,0,0
FR,France,country,Europe and Central Asia,46.227638,2.213749,TN,Tunisia,country,Middle East and North Africa,33.886917,9.537499,1507.21120605535,1991,232258,129129,5586,51682,5,8,22,42,95,38,116,0,243,2026,24073,122,169,12948,5417,706,0,0,0,0
DE,Germany,country,Europe and Central Asia,51.165691,10.451526,TN,Tunisia,country,Middle East and North Africa,33.886917,9.537499,1924.88616698372,1991,44286,22660,205,1925,0,0,0,0,0,1,1,0,41,58,18941,52,39,63,339,0,0,0,0,0
GR,Greece,country,Europe and Central Asia,39.074208,21.824312,TN,Tunisia,country,Middle East and North Africa,33.886917,9.537499,1240.60166797747,1991,5038,0,0,0,0,0,17,0,12,3824,30,0,0,1155,0,0,0,0,0,0,0,0,0,0
GT,Guatemala,country,Latin America and the Caribbean,15.783471,-90.230759,TN,Tunisia,country,Middle East and North Africa,33.886917,9.537499,9915.91832252029,1991,497,0,0,0,0,0,497,0,0,0,0,0,0,0,0,0,0,0,0,0,0,0,0,0
HU,Hungary,country,Europe and Central Asia,47.162494,19.503304,TN,Tunisia,country,Middle East and North Africa,33.886917,9.537499,1698.27774296455,1991,732,0,0,0,0,0,0,0,0,0,185,0,0,0,0,0,0,0,547,0,0,0,0,0
IN,India,country,South Asia,20.593684,78.96288,TN,Tunisia,country,Middle East and North Africa,33.886917,9.537499,6903.73442990139,1991,4239,0,0,0,0,0,2384,0,0,0,94,0,1750,11,0,0,0,0,0,0,0,0,0,0
ID,Indonesia,country,East Asia and Pacific,-0.789275,113.921327,TN,Tunisia,country,Middle East and North Africa,33.886917,9.537499,11393.5381357283,1991,2493,0,0,0,0,0,25,0,0,0,49,0,1000,959,460,0,0,0,0,0,0,0,0,0
IR,Iran,country,Middle East and North Africa,32.427908,53.688046,TN,Tunisia,country,Middle East and North Africa,33.886917,9.537499,4085.82282612559,1991,641,0,0,0,0,89,0,0,290,0,56,0,0,206,0,0,0,0,0,0,0,0,0,0
IE,Ireland,country,Europe and Central Asia,53.41291,-8.24389,TN,Tunisia,country,Middle East and North Africa,33.886917,9.537499,2587.18440560557,1991,161,142,0,3,0,0,0,0,0,0,0,0,0,16,0,0,0,0,0,0,0,0,0,0
IT,Italy,country,Europe and Central Asia,41.87194,12.56738,TN,Tunisia,country,Middle East and North Africa,33.886917,9.537499,927.721332523831,1991,16859,20,5,195,0,61,2,0,8,7,0,5,6,1172,15077,12,0,0,4,285,0,0,0,0
JP,Japan,country,East Asia and Pacific,36.204824,138.252924,TN,Tunisia,country,Middle East and North Africa,33.886917,9.537499,10591.1639660583,1991,2,0,0,2,0,0,0,0,0,0,0,0,0,0,0,0,0,0,0,0,0,0,0,0
KE,Kenya,country,Sub-Saharan Africa,-0.023559,37.906193,TN,Tunisia,country,Middle East and North Africa,33.886917,9.537499,4797.35510922585,1991,759,0,0,0,0,0,0,0,6,0,0,0,753,0,0,0,0,0,0,0,0,0,0,0
LY,Libya,country,Middle East and North Africa,26.3351,17.228331,TN,Tunisia,country,Middle East and North Africa,33.886917,9.537499,1119.55881677973,1991,369,0,0,2,0,0,0,0,0,0,0,0,0,0,0,0,0,0,0,367,0,0,0,0
MG,Madagascar,country,Sub-Saharan Africa,-18.766947,46.869107,TN,Tunisia,country,Middle East and North Africa,33.886917,9.537499,7072.99793191474,1991,154,0,0,0,0,0,0,0,0,0,142,0,0,12,0,0,0,0,0,0,0,0,0,0
MY,Malaysia,country,East Asia and Pacific,4.210484,101.975766,TN,Tunisia,country,Middle East and North Africa,33.886917,9.537499,9982.30390255747,1991,6936,0,0,0,0,0,0,0,59,0,93,0,0,3425,3359,0,0,0,0,0,0,0,0,0
ML,Mali,country,Sub-Saharan Africa,17.570692,-3.996166,TN,Tunisia,country,Middle East and North Africa,33.886917,9.537499,2262.33155677795,1991,2429,0,0,0,0,0,0,0,0,2429,0,0,0,0,0,0,0,0,0,0,0,0,0,0
MT,Malta,country,Middle East and North Africa,35.937496,14.375416,TN,Tunisia,country,Middle East and North Africa,33.886917,9.537499,497.046739244154,1991,2,0,0,0,0,0,0,0,0,0,0,0,0,2,0,0,0,0,0,0,0,0,0,0
MX,Mexico,country,Latin America and the Caribbean,23.634501,-102.552784,TN,Tunisia,country,Middle East and North Africa,33.886917,9.537499,10417.5064206546,1991,198,0,0,0,0,0,198,0,0,0,0,0,0,0,0,0,0,0,0,0,0,0,0,0
MA,Morocco,country,Middle East and North Africa,31.791702,-7.09262,TN,Tunisia,country,Middle East and North Africa,33.886917,9.537499,1571.01591812006,1991,3198,92,0,158,1965,0,41,1,12,0,287,0,0,642,0,0,0,0,0,0,0,0,0,0
NL,Netherlands,country,Europe and Central Asia,52.132633,5.291266,TN,Tunisia,country,Middle East and North Africa,33.886917,9.537499,2059.40768527564,1991,16535,243,10325,106,66,0,1,0,0,0,0,0,239,214,1178,89,137,0,4074,0,0,0,0,0
NZ,New Zealand,country,East Asia and Pacific,-40.900557,174.885971,TN,Tunisia,country,Middle East and North Africa,33.886917,9.537499,18527.7043490347,1991,1422,0,0,0,0,0,0,0,0,31,0,0,0,0,0,0,0,341,1050,0,0,0,0,0
NE,Niger,country,Sub-Saharan Africa,17.607789,8.081666,TN,Tunisia,country,Middle East and North Africa,33.886917,9.537499,1817.98660575561,1991,35,0,0,0,0,0,35,0,0,0,0,0,0,0,0,0,0,0,0,0,0,0,0,0
NG,Nigeria,country,Sub-Saharan Africa,9.081999,8.675277,TN,Tunisia,country,Middle East and North Africa,33.886917,9.537499,2762.68160317041,1991,414,0,0,0,0,0,404,0,0,0,0,0,0,10,0,0,0,0,0,0,0,0,0,0
NO,Norway,country,Europe and Central Asia,60.472024,8.468946,TN,Tunisia,country,Middle East and North Africa,33.886917,9.537499,2960.45442651587,1991,1680,0,0,0,0,0,0,0,0,0,0,0,0,0,30,0,0,0,1650,0,0,0,0,0
PY,Paraguay,country,Latin America and the Caribbean,-23.442503,-58.443832,TN,Tunisia,country,Middle East and North Africa,33.886917,9.537499,9612.02353070271,1991,486,0,0,0,0,0,0,0,0,0,0,0,486,0,0,0,0,0,0,0,0,0,0,0
PH,Philippines,country,East Asia and Pacific,12.879721,121.774017,TN,Tunisia,country,Middle East and North Africa,33.886917,9.537499,11185.850544858,1991,732,0,0,0,0,0,0,0,0,0,0,0,0,230,502,0,0,0,0,0,0,0,0,0
PL,Poland,country,Europe and Central Asia,51.919438,19.145136,TN,Tunisia,country,Middle East and North Africa,33.886917,9.537499,2150.42326196346,1991,2312,0,0,0,0,0,0,0,0,0,0,0,0,0,0,2,0,0,2310,0,0,0,0,0
PT,Portugal,country,Europe and Central Asia,39.399872,-8.224454,TN,Tunisia,country,Middle East and North Africa,33.886917,9.537499,1697.39617410593,1991,44,0,0,0,0,0,0,0,0,0,0,0,0,42,0,2,0,0,0,0,0,0,0,0
SN,Senegal,country,Sub-Saharan Africa,14.497401,-14.452362,TN,Tunisia,country,Middle East and North Africa,33.886917,9.537499,3238.28355944916,1991,1458,0,0,0,0,0,0,0,0,1453,0,0,0,5,0,0,0,0,0,0,0,0,0,0
SG,Singapore,country,East Asia and Pacific,1.352083,103.819836,TN,Tunisia,country,Middle East and North Africa,33.886917,9.537499,10330.2216969789,1991,25,0,0,0,0,0,0,0,0,0,25,0,0,0,0,0,0,0,0,0,0,0,0,0
SO,Somalia,country,Sub-Saharan Africa,5.152149,46.199616,TN,Tunisia,country,Middle East and North Africa,33.886917,9.537499,4953.33836603031,1991,5,0,0,0,0,0,0,0,0,0,0,0,0,5,0,0,0,0,0,0,0,0,0,0
ES,Spain,country,Europe and Central Asia,40.463667,-3.74922,TN,Tunisia,country,Middle East and North Africa,33.886917,9.537499,1385.07968041442,1991,1205,171,0,663,0,10,0,0,6,12,120,0,13,195,0,1,0,0,0,14,0,0,0,0
LK,Sri Lanka,country,South Asia,7.873054,80.771797,TN,Tunisia,country,Middle East and North Africa,33.886917,9.537499,7799.89084259296,1991,2421,0,0,0,0,0,23,0,0,0,3,0,2300,95,0,0,0,0,0,0,0,0,0,0
SD,Sudan,country,Sub-Saharan Africa,12.862807,30.217636,TN,Tunisia,country,Middle East and North Africa,33.886917,9.537499,3139.48557980866,1991,766,0,0,0,0,0,500,0,0,0,0,0,0,266,0,0,0,0,0,0,0,0,0,0
SE,Sweden,country,Europe and Central Asia,60.128161,18.643501,TN,Tunisia,country,Middle East and North Africa,33.886917,9.537499,2995.4521574279,1991,28900,25400,0,0,0,0,0,0,0,0,0,0,0,0,1900,0,0,0,1600,0,0,0,0,0
CH,Switzerland,country,Europe and Central Asia,46.818188,8.227512,TN,Tunisia,country,Middle East and North Africa,33.886917,9.537499,1443.72811729577,1991,28088,26261,0,0,0,0,0,0,0,0,0,0,1,1746,0,33,0,0,47,0,0,0,0,0
SY,Syrian Arab Rep.,country,Middle East and North Africa,34.802075,38.996815,TN,Tunisia,country,Middle East and North Africa,33.886917,9.537499,2699.86444513785,1991,5858,0,0,0,0,0,0,0,0,5845,13,0,0,0,0,0,0,0,0,0,0,0,0,0
TH,Thailand,country,East Asia and Pacific,15.870032,100.992541,TN,Tunisia,country,Middle East and North Africa,33.886917,9.537499,9173.14619832656,1991,36,0,0,0,0,0,0,0,36,0,0,0,0,0,0,0,0,0,0,0,0,0,0,0
TG,Togo,country,Sub-Saharan Africa,8.619543,0.824782,TN,Tunisia,country,Middle East and North Africa,33.886917,9.537499,2951.10957187245,1991,1150,0,0,0,0,0,0,0,0,1150,0,0,0,0,0,0,0,0,0,0,0,0,0,0
TR,Turkey,country,Europe and Central Asia,38.963745,35.243322,TN,Tunisia,country,Middle East and North Africa,33.886917,9.537499,2362.21464082084,1991,91726,88950,0,0,2035,69,189,0,16,0,207,0,0,250,10,0,0,0,0,0,0,0,0,0
AE,United Arab Emirates,country,Middle East and North Africa,23.424076,53.847818,TN,Tunisia,country,Middle East and North Africa,33.886917,9.537499,4446.14300731585,1991,36,0,0,0,0,0,0,0,36,0,0,0,0,0,0,0,0,0,0,0,0,0,0,0
GB,United Kingdom,country,Europe and Central Asia,55.378051,-3.435973,TN,Tunisia,country,Middle East and North Africa,33.886917,9.537499,2593.92844029769,1991,15033,0,0,1472,0,0,0,2,0,104,0,0,5,12,13178,259,71,0,1,0,0,0,0,0
TZ,Tanzania,country,Sub-Saharan Africa,-6.369028,34.888822,TN,Tunisia,country,Middle East and North Africa,33.886917,9.537499,5217.02122195716,1991,10,0,0,0,0,0,0,0,0,0,0,0,0,10,0,0,0,0,0,0,0,0,0,0
US,USA,country,North America,37.09024,-95.712891,TN,Tunisia,country,Middle East and North Africa,33.886917,9.537499,8980.5029084597,1991,620875,569690,0,0,0,113,0,0,6,0,0,0,0,459,50570,37,0,0,0,0,0,0,0,0
RU,Russian Federation,country,Europe and Central Asia,61.52401,105.318756,TN,Tunisia,country,Middle East and North Africa,33.886917,9.537499,7040.00891039954,1991,24642,0,0,23446,0,0,0,0,0,991,0,0,0,106,0,5,0,0,94,0,0,0,0,0
VN,Vietnam,country,East Asia and Pacific,14.058324,108.277199,TN,Tunisia,country,Middle East and North Africa,33.886917,9.537499,9935.34304809816,1991,184,0,0,0,0,0,99,0,0,0,85,0,0,0,0,0,0,0,0,0,0,0,0,0
YE,Yemen,country,Middle East and North Africa,15.552727,48.516388,TN,Tunisia,country,Middle East and North Africa,33.886917,9.537499,4401.40252468683,1991,6,0,0,0,0,0,0,0,0,6,0,0,0,0,0,0,0,0,0,0,0,0,0,0
BA,Bosnia & Herzegovina,country,Europe and Central Asia,43.915886,17.679076,TN,Tunisia,country,Middle East and North Africa,33.886917,9.537499,1319.00753296738,1991,23399,23360,0,0,0,0,0,0,0,0,24,0,0,15,0,0,0,0,0,0,0,0,0,0
ZW,Zimbabwe,country,Sub-Saharan Africa,-19.015438,29.154857,TN,Tunisia,country,Middle East and North Africa,33.886917,9.537499,6245.98626394509,1991,1625,0,0,0,0,0,0,0,0,0,0,0,0,1625,0,0,0,0,0,0,0,0,0,0
DZ,Algeria,country,Middle East and North Africa,28.033886,1.659626,TN,Tunisia,country,Middle East and North Africa,33.886917,9.537499,994.379845895559,1992,324,0,0,0,0,0,0,0,0,0,0,0,0,309,0,0,430,0,10,5,0,0,0,0
AR,Argentina,country,Latin America and the Caribbean,-38.416097,-63.616672,TN,Tunisia,country,Middle East and North Africa,33.886917,9.537499,11030.4445486828,1992,293424,146655,0,0,0,0,0,0,0,0,0,146708,0,0,61,0,0,0,0,0,0,0,0,0
AT,Austria,country,Europe and Central Asia,47.516231,14.550072,TN,Tunisia,country,Middle East and North Africa,33.886917,9.537499,1574.19740366617,1992,22594,22500,0,59,0,0,0,0,0,0,0,0,0,1,3,0,0,0,31,0,0,0,0,0
BD,Bangladesh,country,South Asia,23.684994,90.356331,TN,Tunisia,country,Middle East and North Africa,33.886917,9.537499,7770.27887953464,1992,3342,0,0,0,0,0,0,0,0,3320,0,0,0,0,0,0,0,22,0,0,0,0,0,0
BE,Belgium,country,Europe and Central Asia,50.503887,4.469936,TN,Tunisia,country,Middle East and North Africa,33.886917,9.537499,1895.27900155401,1992,24852,1032,8494,14272,0,0,0,0,0,22,0,0,16,174,170,0,156,0,672,0,0,0,0,0
BO,Bolivia,country,Latin America and the Caribbean,-16.290154,-63.588653,TN,Tunisia,country,Middle East and North Africa,33.886917,9.537499,9540.63645076854,1992,48,0,0,0,0,0,0,0,0,0,0,0,0,0,0,0,0,0,48,0,0,0,0,0
BR,Brazil,country,Latin America and the Caribbean,-14.235004,-51.92528,TN,Tunisia,country,Middle East and North Africa,33.886917,9.537499,8424.88710195643,1992,82358,0,0,77507,0,0,0,0,10,0,198,0,3437,1206,0,0,0,0,0,0,0,0,0,0
BG,Bulgaria,country,Europe and Central Asia,42.733883,25.48583,TN,Tunisia,country,Middle East and North Africa,33.886917,9.537499,1701.35210937442,1992,20,0,0,0,0,0,0,0,0,0,20,0,0,0,0,0,0,0,0,0,0,0,0,0
CM,Cameroon,country,Sub-Saharan Africa,7.369722,12.354722,TN,Tunisia,country,Middle East and North Africa,33.886917,9.537499,2966.06360972233,1992,2844,0,0,0,0,0,0,0,2,1625,0,0,1217,0,0,0,0,0,0,0,0,0,0,0
CA,Canada,country,North America,56.130366,-106.346771,TN,Tunisia,country,Middle East and North Africa,33.886917,9.537499,8334.7245599424,1992,49191,48991,0,0,100,0,0,0,0,0,0,0,0,0,0,0,0,100,0,0,0,0,0,0
CN,China,country,East Asia and Pacific,35.86166,104.195397,TN,Tunisia,country,Middle East and North Africa,33.886917,9.537499,8261.76668770782,1992,9744,0,0,0,0,34,0,72,50,0,434,0,9100,54,0,0,0,0,0,0,0,0,0,0
TW,Taiwan,country,East Asia and Pacific,23.69781,120.960515,TN,Tunisia,country,Middle East and North Africa,33.886917,9.537499,10360.4873621956,1992,0,0,0,0,0,0,0,0,0,0,0,0,0,0,0,0,0,0,0,0,0,0,0,0
CO,Colombia,country,Latin America and the Caribbean,4.570868,-74.297333,TN,Tunisia,country,Middle East and North Africa,33.886917,9.537499,9165.9971807816,1992,1271,0,0,0,0,0,0,0,1271,0,0,0,0,0,0,0,0,0,0,0,0,0,0,0
KM,Comoros,country,Sub-Saharan Africa,-11.875001,43.872219,TN,Tunisia,country,Middle East and North Africa,33.886917,9.537499,6257.72773867678,1992,10,0,0,0,0,0,0,0,0,0,10,0,0,0,0,0,0,0,0,0,0,0,0,0
CI,Ivory Coast,country,Sub-Saharan Africa,7.539989,-5.54708,TN,Tunisia,country,Middle East and North Africa,33.886917,9.537499,3317.31126279574,1992,3329,0,0,0,0,0,0,0,33,1902,0,0,1389,5,0,0,0,0,0,0,0,0,0,0
CU,Cuba,country,Latin America and the Caribbean,21.521757,-77.781167,TN,Tunisia,country,Middle East and North Africa,33.886917,9.537499,8468.51620222795,1992,61928,0,0,61928,0,0,0,0,0,0,0,0,0,0,0,0,0,0,0,0,0,0,0,0
CZ,Czech Republic,country,Europe and Central Asia,49.817492,15.472962,TN,Tunisia,country,Middle East and North Africa,33.886917,9.537499,1838.93179593838,1992,8690,0,34,0,0,0,0,0,0,0,0,0,0,0,0,0,0,0,8656,0,0,0,0,0
CD,"Congo, Dem. Rep.",country,Sub-Saharan Africa,-4.038333,21.758664,TN,Tunisia,country,Middle East and North Africa,33.886917,9.537499,4412.91320322736,1992,531,0,0,0,0,0,0,0,0,0,0,0,525,6,0,0,0,0,0,0,0,0,0,0
DK,Denmark,country,Europe and Central Asia,56.26392,9.501785,TN,Tunisia,country,Middle East and North Africa,33.886917,9.537499,2490.9980799726,1992,28167,27491,45,0,0,0,0,0,0,0,0,0,11,92,0,25,0,0,503,0,0,0,0,0
DO,Dominican Republic,country,Latin America and the Caribbean,18.735693,-70.162651,TN,Tunisia,country,Middle East and North Africa,33.886917,9.537499,7943.54946799578,1992,400,0,0,0,0,0,0,0,0,0,0,0,0,400,0,0,0,0,0,0,0,0,0,0
EC,Ecuador,country,Latin America and the Caribbean,-1.831239,-78.183406,TN,Tunisia,country,Middle East and North Africa,33.886917,9.537499,9921.94051407327,1992,3525,0,0,0,0,0,0,0,3507,0,0,0,18,0,0,0,0,0,0,0,0,0,0,0
EG,Egypt,country,Middle East and North Africa,26.820553,30.802498,TN,Tunisia,country,Middle East and North Africa,33.886917,9.537499,2183.65796795948,1992,693,0,0,158,0,0,0,0,0,49,321,0,163,2,0,0,0,0,0,0,0,0,0,0
FI,Finland,country,Europe and Central Asia,61.92411,25.748151,TN,Tunisia,country,Middle East and North Africa,33.886917,9.537499,3325.73311139903,1992,87,0,0,0,0,0,0,0,0,0,0,0,0,0,0,0,0,0,87,0,0,0,0,0
FR,France,country,Europe and Central Asia,46.227638,2.213749,TN,Tunisia,country,Middle East and North Africa,33.886917,9.537499,1507.21120605535,1992,210613,128706,2715,36115,2,64,41,83,152,20,2,0,118,932,22558,185,586,13420,5208,292,0,0,0,0
DE,Germany,country,Europe and Central Asia,51.165691,10.451526,TN,Tunisia,country,Middle East and North Africa,33.886917,9.537499,1924.88616698372,1992,79739,72199,5,1444,0,1,0,0,0,2,3,0,23,122,1089,94,41,300,4452,5,0,0,0,0
GR,Greece,country,Europe and Central Asia,39.074208,21.824312,TN,Tunisia,country,Middle East and North Africa,33.886917,9.537499,1240.60166797747,1992,7467,0,0,0,0,0,0,0,25,4748,0,0,0,2694,0,0,0,0,0,0,0,0,0,0
GT,Guatemala,country,Latin America and the Caribbean,15.783471,-90.230759,TN,Tunisia,country,Middle East and North Africa,33.886917,9.537499,9915.91832252029,1992,5,0,0,0,0,0,0,0,0,0,5,0,0,0,0,0,0,0,0,0,0,0,0,0
GN,Guinea,country,Sub-Saharan Africa,9.945587,-9.696645,TN,Tunisia,country,Middle East and North Africa,33.886917,9.537499,3310.20171191461,1992,32,0,0,0,0,0,0,0,0,0,0,0,32,0,0,0,0,0,0,0,0,0,0,0
HN,Honduras,country,Latin America and the Caribbean,15.199999,-86.241905,TN,Tunisia,country,Middle East and North Africa,33.886917,9.537499,9600.58791113985,1992,1295,0,0,0,0,0,0,0,1295,0,0,0,0,0,0,0,0,0,0,0,0,0,0,0
IN,India,country,South Asia,20.593684,78.96288,TN,Tunisia,country,Middle East and North Africa,33.886917,9.537499,6903.73442990139,1992,3663,0,0,0,0,0,13,0,0,0,642,0,3000,8,0,0,0,0,0,0,0,0,0,0
ID,Indonesia,country,East Asia and Pacific,-0.789275,113.921327,TN,Tunisia,country,Middle East and North Africa,33.886917,9.537499,11393.5381357283,1992,3764,0,0,0,0,0,0,0,2,0,18,0,300,1119,2325,0,0,0,0,0,0,0,0,0
IR,Iran,country,Middle East and North Africa,32.427908,53.688046,TN,Tunisia,country,Middle East and North Africa,33.886917,9.537499,4085.82282612559,1992,611,0,0,0,0,185,0,0,259,0,162,0,0,5,0,0,0,0,0,0,0,0,0,0
IE,Ireland,country,Europe and Central Asia,53.41291,-8.24389,TN,Tunisia,country,Middle East and North Africa,33.886917,9.537499,2587.18440560557,1992,2051,235,0,4,0,0,0,0,0,0,0,0,0,17,0,1,0,0,1794,0,0,0,0,0
IT,Italy,country,Europe and Central Asia,41.87194,12.56738,TN,Tunisia,country,Middle East and North Africa,33.886917,9.537499,927.721332523831,1992,16708,8671,5,1615,0,149,0,0,13,20,0,6,21,1380,4735,17,91,0,67,9,0,0,0,0
JP,Japan,country,East Asia and Pacific,36.204824,138.252924,TN,Tunisia,country,Middle East and North Africa,33.886917,9.537499,10591.1639660583,1992,0,0,0,0,0,0,0,0,0,0,0,0,0,0,0,0,0,0,0,0,0,0,0,0
JO,Jordan,country,Middle East and North Africa,30.585164,36.238414,TN,Tunisia,country,Middle East and North Africa,33.886917,9.537499,2533.63473760467,1992,37,0,0,26,0,0,0,0,0,0,0,0,11,0,0,0,0,0,0,0,0,0,0,0
KE,Kenya,country,Sub-Saharan Africa,-0.023559,37.906193,TN,Tunisia,country,Middle East and North Africa,33.886917,9.537499,4797.35510922585,1992,148,0,0,0,0,0,0,0,5,0,0,0,143,0,0,0,0,0,0,0,0,0,0,0
LY,Libya,country,Middle East and North Africa,26.3351,17.228331,TN,Tunisia,country,Middle East and North Africa,33.886917,9.537499,1119.55881677973,1992,1405,305,470,0,18,216,127,20,0,212,15,0,0,2,0,0,1403,0,0,20,0,0,0,0
MG,Madagascar,country,Sub-Saharan Africa,-18.766947,46.869107,TN,Tunisia,country,Middle East and North Africa,33.886917,9.537499,7072.99793191474,1992,1490,0,0,0,0,0,0,0,0,0,286,0,1195,9,0,0,0,0,0,0,0,0,0,0
MY,Malaysia,country,East Asia and Pacific,4.210484,101.975766,TN,Tunisia,country,Middle East and North Africa,33.886917,9.537499,9982.30390255747,1992,7102,0,0,0,0,0,62,0,55,0,0,0,0,2856,4129,0,0,0,0,0,0,0,0,0
ML,Mali,country,Sub-Saharan Africa,17.570692,-3.996166,TN,Tunisia,country,Middle East and North Africa,33.886917,9.537499,2262.33155677795,1992,2867,0,0,0,0,0,0,0,0,2850,0,0,0,17,0,0,0,0,0,0,0,0,0,0
MX,Mexico,country,Latin America and the Caribbean,23.634501,-102.552784,TN,Tunisia,country,Middle East and North Africa,33.886917,9.537499,10417.5064206546,1992,99,0,0,0,0,0,55,0,0,0,0,0,0,14,0,30,0,0,0,0,0,0,0,0
MA,Morocco,country,Middle East and North Africa,31.791702,-7.09262,TN,Tunisia,country,Middle East and North Africa,33.886917,9.537499,1571.01591812006,1992,1349,0,0,238,250,0,0,0,0,15,303,0,0,529,0,14,0,0,0,0,0,0,0,0
NR,Nauru,country,East Asia and Pacific,-0.522778,166.931503,TN,Tunisia,country,Middle East and North Africa,33.886917,9.537499,15638.2899870459,1992,10,10,0,0,0,0,0,0,0,0,0,0,0,0,0,0,0,0,0,0,0,0,0,0
NL,Netherlands,country,Europe and Central Asia,52.132633,5.291266,TN,Tunisia,country,Middle East and North Africa,33.886917,9.537499,2059.40768527564,1992,36563,237,5749,26376,0,0,13,37,21,0,30,0,311,144,512,53,275,77,3003,0,0,0,0,0
NZ,New Zealand,country,East Asia and Pacific,-40.900557,174.885971,TN,Tunisia,country,Middle East and North Africa,33.886917,9.537499,18527.7043490347,1992,3667,0,0,0,0,0,0,0,0,0,0,0,0,0,0,0,0,444,3223,0,0,0,0,0
NE,Niger,country,Sub-Saharan Africa,17.607789,8.081666,TN,Tunisia,country,Middle East and North Africa,33.886917,9.537499,1817.98660575561,1992,39,0,0,0,0,0,37,0,0,0,0,0,0,0,0,0,0,0,0,2,0,0,0,0
NO,Norway,country,Europe and Central Asia,60.472024,8.468946,TN,Tunisia,country,Middle East and North Africa,33.886917,9.537499,2960.45442651587,1992,129,0,0,0,0,0,0,0,0,0,0,0,0,0,0,0,0,21,108,0,0,0,0,0
PK,Pakistan,country,South Asia,30.375321,69.345116,TN,Tunisia,country,Middle East and North Africa,33.886917,9.537499,5571.62128195308,1992,0,0,0,0,0,0,0,0,0,0,0,0,0,0,0,0,0,0,0,0,0,0,0,0
PE,Peru,country,Latin America and the Caribbean,-9.189967,-75.015152,TN,Tunisia,country,Middle East and North Africa,33.886917,9.537499,10090.5212731451,1992,4,0,0,0,0,0,0,4,0,0,0,0,0,0,0,0,0,0,0,0,0,0,0,0
PH,Philippines,country,East Asia and Pacific,12.879721,121.774017,TN,Tunisia,country,Middle East and North Africa,33.886917,9.537499,11185.850544858,1992,321,0,0,0,0,0,0,0,0,0,0,0,0,220,101,0,0,0,0,0,0,0,0,0
PL,Poland,country,Europe and Central Asia,51.919438,19.145136,TN,Tunisia,country,Middle East and North Africa,33.886917,9.537499,2150.42326196346,1992,3916,0,0,0,0,0,0,0,0,0,0,0,0,0,0,6,0,0,3910,0,0,0,0,0
PT,Portugal,country,Europe and Central Asia,39.399872,-8.224454,TN,Tunisia,country,Middle East and North Africa,33.886917,9.537499,1697.39617410593,1992,12,0,0,0,0,0,0,0,0,0,0,0,0,10,0,2,0,0,0,0,0,0,0,0
KR,"Korea, Rep.",country,East Asia and Pacific,35.907757,127.766922,TN,Tunisia,country,Middle East and North Africa,33.886917,9.537499,9961.62096694586,1992,1,0,0,0,0,0,0,0,0,1,0,0,0,0,0,0,0,0,0,0,0,0,0,0
SA,Saudi Arabia,country,Middle East and North Africa,23.885942,45.079162,TN,Tunisia,country,Middle East and North Africa,33.886917,9.537499,3617.89834578891,1992,27500,27500,0,0,0,0,0,0,0,0,0,0,0,0,0,0,0,0,0,0,0,0,0,0
SN,Senegal,country,Sub-Saharan Africa,14.497401,-14.452362,TN,Tunisia,country,Middle East and North Africa,33.886917,9.537499,3238.28355944916,1992,1521,0,0,0,0,0,0,0,0,1521,0,0,0,0,0,0,0,0,0,0,0,0,0,0
SL,Sierra Leone,country,Sub-Saharan Africa,8.460555,-11.779889,TN,Tunisia,country,Middle East and North Africa,33.886917,9.537499,3575.31570089023,1992,5,0,0,0,0,0,0,0,0,0,0,0,0,5,0,0,0,0,0,0,0,0,0,0
SG,Singapore,country,East Asia and Pacific,1.352083,103.819836,TN,Tunisia,country,Middle East and North Africa,33.886917,9.537499,10330.2216969789,1992,29,0,0,0,0,0,0,0,0,0,29,0,0,0,0,0,0,0,0,0,0,0,0,0
ES,Spain,country,Europe and Central Asia,40.463667,-3.74922,TN,Tunisia,country,Middle East and North Africa,33.886917,9.537499,1385.07968041442,1992,9572,20,0,376,2,3,0,7,0,3,0,0,0,175,8875,1,0,0,90,20,0,0,0,0
LK,Sri Lanka,country,South Asia,7.873054,80.771797,TN,Tunisia,country,Middle East and North Africa,33.886917,9.537499,7799.89084259296,1992,2005,0,0,0,0,0,0,0,0,0,0,0,2000,5,0,0,0,0,0,0,0,0,0,0
SD,Sudan,country,Sub-Saharan Africa,12.862807,30.217636,TN,Tunisia,country,Middle East and North Africa,33.886917,9.537499,3139.48557980866,1992,2891,0,0,0,0,0,2891,0,0,0,0,0,0,0,0,0,0,0,0,0,0,0,0,0
SE,Sweden,country,Europe and Central Asia,60.128161,18.643501,TN,Tunisia,country,Middle East and North Africa,33.886917,9.537499,2995.4521574279,1992,2180,0,0,0,0,0,0,0,0,0,0,0,0,0,0,0,0,0,2176,4,0,0,0,0
CH,Switzerland,country,Europe and Central Asia,46.818188,8.227512,TN,Tunisia,country,Middle East and North Africa,33.886917,9.537499,1443.72811729577,1992,5841,3,0,1,0,0,0,0,0,2,0,0,0,2818,3000,17,0,0,0,0,0,0,0,0
SY,Syrian Arab Rep.,country,Middle East and North Africa,34.802075,38.996815,TN,Tunisia,country,Middle East and North Africa,33.886917,9.537499,2699.86444513785,1992,10516,0,0,0,0,0,0,0,0,10366,150,0,0,0,0,0,0,0,0,0,0,0,0,0
TH,Thailand,country,East Asia and Pacific,15.870032,100.992541,TN,Tunisia,country,Middle East and North Africa,33.886917,9.537499,9173.14619832656,1992,11967,11741,0,0,0,0,0,0,219,0,0,0,0,7,0,0,0,0,0,0,0,0,0,0
TR,Turkey,country,Europe and Central Asia,38.963745,35.243322,TN,Tunisia,country,Middle East and North Africa,33.886917,9.537499,2362.21464082084,1992,84630,83774,0,0,70,272,90,0,35,0,101,0,0,281,7,0,0,0,0,0,0,0,0,0
GB,United Kingdom,country,Europe and Central Asia,55.378051,-3.435973,TN,Tunisia,country,Middle East and North Africa,33.886917,9.537499,2593.92844029769,1992,1877,5,0,736,0,0,0,0,2,83,0,0,73,378,5,578,5,0,17,0,0,0,0,0
TZ,Tanzania,country,Sub-Saharan Africa,-6.369028,34.888822,TN,Tunisia,country,Middle East and North Africa,33.886917,9.537499,5217.02122195716,1992,13,0,0,0,0,0,0,0,0,0,13,0,0,0,0,0,0,0,0,0,0,0,0,0
US,USA,country,North America,37.09024,-95.712891,TN,Tunisia,country,Middle East and North Africa,33.886917,9.537499,8980.5029084597,1992,457508,357875,0,0,0,253,0,0,0,2299,0,0,0,408,96667,6,0,0,0,0,0,0,0,0
VN,Vietnam,country,East Asia and Pacific,14.058324,108.277199,TN,Tunisia,country,Middle East and North Africa,33.886917,9.537499,9935.34304809816,1992,1053,997,0,0,0,0,56,0,0,0,0,0,0,0,0,0,0,0,0,0,0,0,0,0
ZW,Zimbabwe,country,Sub-Saharan Africa,-19.015438,29.154857,TN,Tunisia,country,Middle East and North Africa,33.886917,9.537499,6245.98626394509,1992,1195,0,0,0,0,0,0,0,0,0,0,0,0,1195,0,0,0,0,0,0,0,0,0,0
DZ,Algeria,country,Middle East and North Africa,28.033886,1.659626,TN,Tunisia,country,Middle East and North Africa,33.886917,9.537499,994.379845895559,1993,113,0,0,0,0,0,0,0,0,0,0,40,0,71,0,0,0,0,0,2,0,0,0,0
AR,Argentina,country,Latin America and the Caribbean,-38.416097,-63.616672,TN,Tunisia,country,Middle East and North Africa,33.886917,9.537499,11030.4445486828,1993,184094,47715,0,0,0,0,0,0,0,0,0,130454,0,0,5925,0,0,0,0,0,0,0,0,0
AU,Australia,country,East Asia and Pacific,-25.274398,133.775136,TN,Tunisia,country,Middle East and North Africa,33.886917,9.537499,14619.6246298909,1993,47,0,0,0,0,0,0,0,0,0,0,0,0,0,0,0,0,47,0,0,0,0,0,0
AT,Austria,country,Europe and Central Asia,47.516231,14.550072,TN,Tunisia,country,Middle East and North Africa,33.886917,9.537499,1574.19740366617,1993,177,0,0,50,0,0,0,15,0,0,0,0,24,0,0,0,0,57,31,0,0,0,0,0
BD,Bangladesh,country,South Asia,23.684994,90.356331,TN,Tunisia,country,Middle East and North Africa,33.886917,9.537499,7770.27887953464,1993,2356,0,0,0,0,0,0,0,0,2356,0,0,0,0,0,0,0,0,0,0,0,0,0,0
BE,Belgium,country,Europe and Central Asia,50.503887,4.469936,TN,Tunisia,country,Middle East and North Africa,33.886917,9.537499,1895.27900155401,1993,44934,1251,25855,13736,0,0,0,0,37,15,0,342,45,148,328,3,3,0,3174,0,0,0,0,0
BR,Brazil,country,Latin America and the Caribbean,-14.235004,-51.92528,TN,Tunisia,country,Middle East and North Africa,33.886917,9.537499,8424.88710195643,1993,97145,0,0,82078,0,0,6,0,22,0,282,0,1027,2030,11700,0,0,0,0,0,0,0,0,0
BF,Burkina Faso,country,Sub-Saharan Africa,12.238333,-1.561593,TN,Tunisia,country,Middle East and North Africa,33.886917,9.537499,2659.97307737399,1993,1598,0,0,0,0,0,0,0,0,1598,0,0,0,0,0,0,0,0,0,0,0,0,0,0
CM,Cameroon,country,Sub-Saharan Africa,7.369722,12.354722,TN,Tunisia,country,Middle East and North Africa,33.886917,9.537499,2966.06360972233,1993,2308,0,0,0,0,0,0,0,2,1299,0,0,1007,0,0,0,0,0,0,0,0,0,0,0
CA,Canada,country,North America,56.130366,-106.346771,TN,Tunisia,country,Middle East and North Africa,33.886917,9.537499,8334.7245599424,1993,21,0,0,0,0,0,0,0,0,0,0,0,0,0,0,0,0,21,0,0,0,0,0,0
CF,Central African Rep.,country,Sub-Saharan Africa,6.611111,20.939444,TN,Tunisia,country,Middle East and North Africa,33.886917,9.537499,3255.56628954414,1993,400,0,0,0,0,0,0,0,0,400,0,0,0,0,0,0,0,0,0,0,0,0,0,0
HK,Hong Kong,country,East Asia and Pacific,22.396428,114.109497,TN,Tunisia,country,Middle East and North Africa,33.886917,9.537499,9895.45703479401,1993,118,0,0,0,0,0,0,50,68,0,0,0,0,0,0,0,0,0,0,0,0,0,0,0
CN,China,country,East Asia and Pacific,35.86166,104.195397,TN,Tunisia,country,Middle East and North Africa,33.886917,9.537499,8261.76668770782,1993,10225,0,0,1,0,69,0,147,303,0,125,0,9495,85,0,0,0,0,0,0,0,0,0,0
KM,Comoros,country,Sub-Saharan Africa,-11.875001,43.872219,TN,Tunisia,country,Middle East and North Africa,33.886917,9.537499,6257.72773867678,1993,60,0,0,0,0,0,0,0,0,0,60,0,0,0,0,0,0,0,0,0,0,0,0,0
CI,Ivory Coast,country,Sub-Saharan Africa,7.539989,-5.54708,TN,Tunisia,country,Middle East and North Africa,33.886917,9.537499,3317.31126279574,1993,1789,0,0,0,0,0,13,0,0,851,0,0,920,5,0,0,0,0,0,0,0,0,0,0
CU,Cuba,country,Latin America and the Caribbean,21.521757,-77.781167,TN,Tunisia,country,Middle East and North Africa,33.886917,9.537499,8468.51620222795,1993,41294,0,0,41294,0,0,0,0,0,0,0,0,0,0,0,0,0,0,0,0,0,0,0,0
CD,"Congo, Dem. Rep.",country,Sub-Saharan Africa,-4.038333,21.758664,TN,Tunisia,country,Middle East and North Africa,33.886917,9.537499,4412.91320322736,1993,10,0,0,0,0,0,0,0,0,0,0,0,0,10,0,0,0,0,0,0,0,0,0,0
DK,Denmark,country,Europe and Central Asia,56.26392,9.501785,TN,Tunisia,country,Middle East and North Africa,33.886917,9.537499,2490.9980799726,1993,24269,23401,720,18,0,0,0,0,16,0,0,0,0,39,0,18,8,2,55,0,0,0,0,0
EC,Ecuador,country,Latin America and the Caribbean,-1.831239,-78.183406,TN,Tunisia,country,Middle East and North Africa,33.886917,9.537499,9921.94051407327,1993,6387,0,0,0,0,0,0,0,5265,0,0,0,1122,0,0,0,0,0,0,0,0,0,0,0
EG,Egypt,country,Middle East and North Africa,26.820553,30.802498,TN,Tunisia,country,Middle East and North Africa,33.886917,9.537499,2183.65796795948,1993,1413,105,0,149,74,0,499,0,0,0,483,0,26,77,0,0,0,0,0,0,0,0,0,0
FI,Finland,country,Europe and Central Asia,61.92411,25.748151,TN,Tunisia,country,Middle East and North Africa,33.886917,9.537499,3325.73311139903,1993,2229,0,0,0,0,0,0,0,0,0,0,0,0,0,75,0,0,20,2134,0,0,0,0,0
FR,France,country,Europe and Central Asia,46.227638,2.213749,TN,Tunisia,country,Middle East and North Africa,33.886917,9.537499,1507.21120605535,1993,400624,301268,22658,33035,408,65,15,83,147,5,106,1789,297,787,6366,264,450,10756,22573,2,0,0,0,0
DE,Germany,country,Europe and Central Asia,51.165691,10.451526,TN,Tunisia,country,Middle East and North Africa,33.886917,9.537499,1924.88616698372,1993,9643,22,0,7793,0,2,0,0,0,2,0,0,86,106,577,151,45,105,799,0,0,0,0,0
GR,Greece,country,Europe and Central Asia,39.074208,21.824312,TN,Tunisia,country,Middle East and North Africa,33.886917,9.537499,1240.60166797747,1993,21719,13675,0,0,0,0,0,0,2,5349,0,0,0,2693,0,0,0,0,0,0,0,0,0,0
GN,Guinea,country,Sub-Saharan Africa,9.945587,-9.696645,TN,Tunisia,country,Middle East and North Africa,33.886917,9.537499,3310.20171191461,1993,300,0,0,0,0,0,0,0,0,300,0,0,0,0,0,0,0,0,0,0,0,0,0,0
HN,Honduras,country,Latin America and the Caribbean,15.199999,-86.241905,TN,Tunisia,country,Middle East and North Africa,33.886917,9.537499,9600.58791113985,1993,3,0,0,0,0,0,0,0,3,0,0,0,0,0,0,0,0,0,0,0,0,0,0,0
HU,Hungary,country,Europe and Central Asia,47.162494,19.503304,TN,Tunisia,country,Middle East and North Africa,33.886917,9.537499,1698.27774296455,1993,129,0,0,0,0,0,10,0,0,0,0,0,0,0,0,0,0,0,0,119,0,0,0,0
IN,India,country,South Asia,20.593684,78.96288,TN,Tunisia,country,Middle East and North Africa,33.886917,9.537499,6903.73442990139,1993,979,0,0,0,0,19,25,1,0,0,853,0,16,65,0,0,0,0,0,0,0,0,0,0
ID,Indonesia,country,East Asia and Pacific,-0.789275,113.921327,TN,Tunisia,country,Middle East and North Africa,33.886917,9.537499,11393.5381357283,1993,3781,0,0,0,0,0,0,0,0,0,27,0,250,27,3477,0,0,0,0,0,0,0,0,0
IR,Iran,country,Middle East and North Africa,32.427908,53.688046,TN,Tunisia,country,Middle East and North Africa,33.886917,9.537499,4085.82282612559,1993,611,0,0,0,0,229,0,0,291,0,37,0,0,54,0,0,0,0,0,0,0,0,0,0
IE,Ireland,country,Europe and Central Asia,53.41291,-8.24389,TN,Tunisia,country,Middle East and North Africa,33.886917,9.537499,2587.18440560557,1993,1258,174,0,16,0,0,0,0,0,0,0,0,0,18,0,0,0,0,1050,0,0,0,0,0
IT,Italy,country,Europe and Central Asia,41.87194,12.56738,TN,Tunisia,country,Middle East and North Africa,33.886917,9.537499,927.721332523831,1993,6678,73,13,350,39,128,0,18,37,383,0,4,81,241,5101,25,836,22,161,2,0,0,0,0
JP,Japan,country,East Asia and Pacific,36.204824,138.252924,TN,Tunisia,country,Middle East and North Africa,33.886917,9.537499,10591.1639660583,1993,0,0,0,0,0,0,0,0,0,0,0,0,0,0,0,0,0,0,0,0,0,0,0,0
JO,Jordan,country,Middle East and North Africa,30.585164,36.238414,TN,Tunisia,country,Middle East and North Africa,33.886917,9.537499,2533.63473760467,1993,58,1,0,29,0,0,0,0,0,0,0,0,6,4,0,18,0,0,0,0,0,0,0,0
KE,Kenya,country,Sub-Saharan Africa,-0.023559,37.906193,TN,Tunisia,country,Middle East and North Africa,33.886917,9.537499,4797.35510922585,1993,828,0,0,0,0,0,0,0,0,0,0,0,824,4,0,0,0,0,0,0,0,0,0,0
LB,Lebanon,country,Middle East and North Africa,33.854721,35.862285,TN,Tunisia,country,Middle East and North Africa,33.886917,9.537499,2426.4141998737,1993,12,0,0,0,0,0,0,0,0,0,0,0,0,12,0,0,0,0,0,0,0,0,0,0
LY,Libya,country,Middle East and North Africa,26.3351,17.228331,TN,Tunisia,country,Middle East and North Africa,33.886917,9.537499,1119.55881677973,1993,9449,1376,1480,0,1452,94,1889,467,20,386,1250,0,0,5,0,0,0,0,950,80,0,0,0,0
MG,Madagascar,country,Sub-Saharan Africa,-18.766947,46.869107,TN,Tunisia,country,Middle East and North Africa,33.886917,9.537499,7072.99793191474,1993,1123,0,0,0,0,0,0,0,0,0,119,0,994,10,0,0,0,0,0,0,0,0,0,0
MY,Malaysia,country,East Asia and Pacific,4.210484,101.975766,TN,Tunisia,country,Middle East and North Africa,33.886917,9.537499,9982.30390255747,1993,9292,0,0,0,0,0,51,0,17,0,15,0,0,2914,6277,18,0,0,0,0,0,0,0,0
ML,Mali,country,Sub-Saharan Africa,17.570692,-3.996166,TN,Tunisia,country,Middle East and North Africa,33.886917,9.537499,2262.33155677795,1993,5055,0,0,0,0,0,0,0,0,5050,0,0,0,5,0,0,0,0,0,0,0,0,0,0
MA,Morocco,country,Middle East and North Africa,31.791702,-7.09262,TN,Tunisia,country,Middle East and North Africa,33.886917,9.537499,1571.01591812006,1993,929,70,0,190,0,0,0,5,10,10,10,0,72,490,0,20,0,0,52,0,0,0,0,0
NP,Nepal,country,South Asia,28.394857,84.124008,TN,Tunisia,country,Middle East and North Africa,33.886917,9.537499,6975.52619861224,1993,200,0,0,0,0,0,0,0,0,0,0,0,0,0,0,0,0,200,0,0,0,0,0,0
