sourceCode,sourceName,sourceGrouping,sourceRegion,sourceLat,sourceLong,destCode,destName,destGrouping,destRegion,destLat,destLong,distance,year,totalTons,cereals,roots,sugarCrops,pulses,nuts,oilCrops,vegetables,fruits,fibers,spices,fodderCrops,coffeeTea,tobaccoRubber,oilsFats,beverages,livestock,animalMeats,animalProducts,animalHides,nimalOther,pesticides,fertilizers,machinery
AG,Antigua & Barbuda,country,Latin America and the Caribbean,17.060816,-61.796428,AZ,Azerbaijan,country,Europe and Central Asia,40.143105,47.576927,10358.7145568002,1999,24,0,0,0,0,0,0,24,0,0,0,0,0,0,0,0,0,0,0,0,0,0,0,0
AR,Argentina,country,Latin America and the Caribbean,-38.416097,-63.616672,AZ,Azerbaijan,country,Europe and Central Asia,40.143105,47.576927,14260.7740809064,1999,123,0,0,0,0,0,0,3,112,0,0,0,0,1,0,0,0,1,6,0,0,0,0,0
AU,Australia,country,East Asia and Pacific,-25.274398,133.775136,AZ,Azerbaijan,country,Europe and Central Asia,40.143105,47.576927,11495.1937809082,1999,1963,320,0,0,0,0,0,0,0,0,0,0,0,0,256,10,0,45,1332,0,0,0,0,0
AT,Austria,country,Europe and Central Asia,47.516231,14.550072,AZ,Azerbaijan,country,Europe and Central Asia,40.143105,47.576927,2752.65347053538,1999,173,60,0,0,0,0,0,7,80,0,0,0,0,0,0,0,0,26,0,0,0,0,0,0
BY,Belarus,country,Europe and Central Asia,53.709807,27.953389,AZ,Azerbaijan,country,Europe and Central Asia,40.143105,47.576927,2109.17812707878,1999,138,3,43,0,0,0,0,50,5,0,0,0,0,0,0,0,0,0,37,0,0,0,0,0
BE,Belgium,country,Europe and Central Asia,50.503887,4.469936,AZ,Azerbaijan,country,Europe and Central Asia,40.143105,47.576927,3508.77758054185,1999,548,14,0,0,0,0,0,22,21,0,0,0,0,2,424,17,0,48,0,0,0,0,0,0
BR,Brazil,country,Latin America and the Caribbean,-14.235004,-51.92528,AZ,Azerbaijan,country,Europe and Central Asia,40.143105,47.576927,11834.5053527905,1999,151,0,0,0,0,0,0,1,0,0,0,0,0,76,0,0,0,74,0,0,0,0,0,0
BG,Bulgaria,country,Europe and Central Asia,42.733883,25.48583,AZ,Azerbaijan,country,Europe and Central Asia,40.143105,47.576927,1860.48164344104,1999,354,90,0,0,0,0,0,146,0,0,0,0,0,15,0,0,0,57,46,0,0,0,0,0
CA,Canada,country,North America,56.130366,-106.346771,AZ,Azerbaijan,country,Europe and Central Asia,40.143105,47.576927,9041.37895426741,1999,849,248,0,0,240,0,0,0,0,0,0,0,0,38,248,0,0,75,0,0,0,0,0,0
CL,Chile,country,Latin America and the Caribbean,-35.675147,-71.542969,AZ,Azerbaijan,country,Europe and Central Asia,40.143105,47.576927,14772.2216608061,1999,72,0,0,0,0,0,0,0,72,0,0,0,0,0,0,0,0,0,0,0,0,0,0,0
CN,China,country,East Asia and Pacific,35.86166,104.195397,AZ,Azerbaijan,country,Europe and Central Asia,40.143105,47.576927,4905.26770568488,1999,377,311,0,0,0,35,0,0,0,0,0,0,0,31,0,0,0,0,0,0,0,0,0,0
TW,Taiwan,country,East Asia and Pacific,23.69781,120.960515,AZ,Azerbaijan,country,Europe and Central Asia,40.143105,47.576927,6975.20351222741,1999,72,72,0,0,0,0,0,0,0,0,0,0,0,0,0,0,0,0,0,0,0,0,0,0
CO,Colombia,country,Latin America and the Caribbean,4.570868,-74.297333,AZ,Azerbaijan,country,Europe and Central Asia,40.143105,47.576927,12306.2341284045,1999,798,0,0,0,0,0,0,0,798,0,0,0,0,0,0,0,0,0,0,0,0,0,0,0
CR,Costa Rica,country,Latin America and the Caribbean,9.748917,-83.753428,AZ,Azerbaijan,country,Europe and Central Asia,40.143105,47.576927,12562.7927963138,1999,198,0,0,0,0,0,0,0,198,0,0,0,0,0,0,0,0,0,0,0,0,0,0,0
DK,Denmark,country,Europe and Central Asia,56.26392,9.501785,AZ,Azerbaijan,country,Europe and Central Asia,40.143105,47.576927,3284.17291482072,1999,7147,137,0,4656,0,0,0,0,1,0,0,43,0,11,1495,0,0,467,337,0,0,0,0,0
EC,Ecuador,country,Latin America and the Caribbean,-1.831239,-78.183406,AZ,Azerbaijan,country,Europe and Central Asia,40.143105,47.576927,13118.6337768537,1999,2253,0,0,0,0,0,0,0,2253,0,0,0,0,0,0,0,0,0,0,0,0,0,0,0
EG,Egypt,country,Middle East and North Africa,26.820553,30.802498,AZ,Azerbaijan,country,Europe and Central Asia,40.143105,47.576927,2143.47166351298,1999,29,29,0,0,0,0,0,0,0,0,0,0,0,0,0,0,0,0,0,0,0,0,0,0
EE,Estonia,country,Europe and Central Asia,58.595272,25.013607,AZ,Azerbaijan,country,Europe and Central Asia,40.143105,47.576927,2599.35171177162,1999,358,0,0,0,0,0,0,0,0,0,0,0,0,0,0,0,0,0,358,0,0,0,0,0
FI,Finland,country,Europe and Central Asia,61.92411,25.748151,AZ,Azerbaijan,country,Europe and Central Asia,40.143105,47.576927,2835.27530346168,1999,166,10,0,0,0,0,0,0,0,0,0,0,135,0,0,0,0,0,21,0,0,0,0,0
FR,France,country,Europe and Central Asia,46.227638,2.213749,AZ,Azerbaijan,country,Europe and Central Asia,40.143105,47.576927,3691.92885948623,1999,8885,1,0,7219,0,0,0,0,120,0,0,0,7,36,97,255,0,1032,118,0,0,0,0,0
GE,Georgia,country,Europe and Central Asia,42.315407,43.356892,AZ,Azerbaijan,country,Europe and Central Asia,40.143105,47.576927,428.050888651498,1999,1397,46,18,1,0,0,0,3,35,0,0,0,0,23,2,1239,0,7,23,0,0,0,0,0
DE,Germany,country,Europe and Central Asia,51.165691,10.451526,AZ,Azerbaijan,country,Europe and Central Asia,40.143105,47.576927,3097.23243744496,1999,6425,110,0,3058,0,0,0,12,201,0,1,30,113,74,480,39,3,1426,881,0,0,0,0,0
GR,Greece,country,Europe and Central Asia,39.074208,21.824312,AZ,Azerbaijan,country,Europe and Central Asia,40.143105,47.576927,2204.08262058151,1999,94,12,0,0,0,0,0,0,44,0,0,0,4,11,0,23,0,0,0,0,0,0,0,0
HU,Hungary,country,Europe and Central Asia,47.162494,19.503304,AZ,Azerbaijan,country,Europe and Central Asia,40.143105,47.576927,2377.05190634764,1999,2901,8,0,2,0,0,0,604,9,0,0,0,31,8,149,0,0,1969,121,0,0,0,0,0
IN,India,country,South Asia,20.593684,78.96288,AZ,Azerbaijan,country,Europe and Central Asia,40.143105,47.576927,3685.50875725944,1999,1173,541,0,1,1,3,0,9,9,0,6,0,594,9,0,0,0,0,0,0,0,0,0,0
ID,Indonesia,country,East Asia and Pacific,-0.789275,113.921327,AZ,Azerbaijan,country,Europe and Central Asia,40.143105,47.576927,8090.01170498133,1999,52,1,0,0,0,0,0,0,10,0,41,0,0,0,0,0,0,0,0,0,0,0,0,0
IR,Iran,country,Middle East and North Africa,32.427908,53.688046,AZ,Azerbaijan,country,Europe and Central Asia,40.143105,47.576927,1018.35123776435,1999,74715,8491,25488,2247,0,1,20,11830,9989,0,38,0,20,12088,1749,0,186,6,2748,0,0,0,0,0
IE,Ireland,country,Europe and Central Asia,53.41291,-8.24389,AZ,Azerbaijan,country,Europe and Central Asia,40.143105,47.576927,4376.95562615247,1999,9,0,0,0,0,0,0,0,0,0,0,0,0,0,0,9,0,0,0,0,0,0,0,0
IL,Israel,country,Middle East and North Africa,31.046051,34.851612,AZ,Azerbaijan,country,Europe and Central Asia,40.143105,47.576927,1530.83231969651,1999,114,0,0,0,0,0,0,0,7,0,0,36,3,0,0,23,0,0,45,0,0,0,0,0
IT,Italy,country,Europe and Central Asia,41.87194,12.56738,AZ,Azerbaijan,country,Europe and Central Asia,40.143105,47.576927,2926.83770017887,1999,4015,2435,0,974,67,1,0,221,11,0,0,0,16,8,146,26,0,110,0,0,0,0,0,0
JP,Japan,country,East Asia and Pacific,36.204824,138.252924,AZ,Azerbaijan,country,Europe and Central Asia,40.143105,47.576927,7577.13514487228,1999,33,1,0,32,0,0,0,0,0,0,0,0,0,0,0,0,0,0,0,0,0,0,0,0
KZ,Kazakhstan,country,Europe and Central Asia,48.019573,66.923684,AZ,Azerbaijan,country,Europe and Central Asia,40.143105,47.576927,1771.11807407358,1999,175791,175774,10,0,0,0,0,0,0,7,0,0,0,0,0,0,0,0,0,0,0,0,0,0
KE,Kenya,country,Sub-Saharan Africa,-0.023559,37.906193,AZ,Azerbaijan,country,Europe and Central Asia,40.143105,47.576927,4577.70513046821,1999,5,0,0,5,0,0,0,0,0,0,0,0,0,0,0,0,0,0,0,0,0,0,0,0
KG,Kyrgyz Rep.,country,Europe and Central Asia,41.20438,74.766098,AZ,Azerbaijan,country,Europe and Central Asia,40.143105,47.576927,2289.22478548816,1999,308,0,8,0,0,0,0,0,0,0,0,0,0,0,0,300,0,0,0,0,0,0,0,0
LV,Latvia,country,Europe and Central Asia,56.879635,24.603189,AZ,Azerbaijan,country,Europe and Central Asia,40.143105,47.576927,2494.1647941503,1999,38,0,0,0,0,0,0,0,0,0,0,0,0,19,0,0,0,0,19,0,0,0,0,0
LB,Lebanon,country,Middle East and North Africa,33.854721,35.862285,AZ,Azerbaijan,country,Europe and Central Asia,40.143105,47.576927,1253.16032409148,1999,9,1,0,0,0,1,5,2,0,0,0,0,0,0,0,0,0,0,0,0,0,0,0,0
MY,Malaysia,country,East Asia and Pacific,4.210484,101.975766,AZ,Azerbaijan,country,Europe and Central Asia,40.143105,47.576927,6744.21769174505,1999,5,0,0,0,0,0,0,0,0,0,0,0,0,5,0,0,0,0,0,0,0,0,0,0
MT,Malta,country,Middle East and North Africa,35.937496,14.375416,AZ,Azerbaijan,country,Europe and Central Asia,40.143105,47.576927,2930.86589314758,1999,36,0,0,0,0,0,0,0,0,0,0,0,0,0,0,0,0,0,36,0,0,0,0,0
MX,Mexico,country,Latin America and the Caribbean,23.634501,-102.552784,AZ,Azerbaijan,country,Europe and Central Asia,40.143105,47.576927,12291.3796872703,1999,0,0,0,0,0,0,0,0,0,0,0,0,0,0,0,0,0,0,0,0,0,0,0,0
MA,Morocco,country,Middle East and North Africa,31.791702,-7.09262,AZ,Azerbaijan,country,Europe and Central Asia,40.143105,47.576927,4934.20140104403,1999,20,0,0,0,0,0,0,0,20,0,0,0,0,0,0,0,0,0,0,0,0,0,0,0
NL,Netherlands,country,Europe and Central Asia,52.132633,5.291266,AZ,Azerbaijan,country,Europe and Central Asia,40.143105,47.576927,3464.22828266153,1999,790,121,115,6,0,0,0,42,52,0,0,0,3,7,80,106,0,60,198,0,0,0,0,0
NZ,New Zealand,country,East Asia and Pacific,-40.900557,174.885971,AZ,Azerbaijan,country,Europe and Central Asia,40.143105,47.576927,15647.4301755373,1999,6124,0,0,0,0,0,0,0,10,0,0,0,0,0,384,0,0,0,5730,0,0,0,0,0
NO,Norway,country,Europe and Central Asia,60.472024,8.468946,AZ,Azerbaijan,country,Europe and Central Asia,40.143105,47.576927,3498.43040418108,1999,116,0,0,0,0,0,0,0,0,0,0,0,0,0,116,0,0,0,0,0,0,0,0,0
OM,Oman,country,Middle East and North Africa,21.512583,55.923255,AZ,Azerbaijan,country,Europe and Central Asia,40.143105,47.576927,2219.41578165623,1999,2008,1999,0,0,0,0,0,0,0,0,0,0,0,0,9,0,0,0,0,0,0,0,0,0
PK,Pakistan,country,South Asia,30.375321,69.345116,AZ,Azerbaijan,country,Europe and Central Asia,40.143105,47.576927,2248.97771709702,1999,5121,5114,0,0,0,0,0,0,0,0,0,0,0,7,0,0,0,0,0,0,0,0,0,0
PA,Panama,country,Latin America and the Caribbean,8.537981,-80.782127,AZ,Azerbaijan,country,Europe and Central Asia,40.143105,47.576927,12459.6717114594,1999,363,0,0,0,0,0,0,0,363,0,0,0,0,0,0,0,0,0,0,0,0,0,0,0
PL,Poland,country,Europe and Central Asia,51.919438,19.145136,AZ,Azerbaijan,country,Europe and Central Asia,40.143105,47.576927,2534.4484127554,1999,2645,241,8,337,0,0,8,149,48,0,14,0,47,65,616,0,0,891,221,0,0,0,0,0
MD,Moldova,country,Europe and Central Asia,47.411631,28.369885,AZ,Azerbaijan,country,Europe and Central Asia,40.143105,47.576927,1736.44883725284,1999,8272,5197,0,2826,0,0,0,189,0,0,0,0,0,0,0,0,0,0,60,0,0,0,0,0
RO,Romania,country,Europe and Central Asia,45.943161,24.96676,AZ,Azerbaijan,country,Europe and Central Asia,40.143105,47.576927,1941.53805660076,1999,12382,11630,0,0,0,0,0,0,0,0,0,0,0,0,752,0,0,0,0,0,0,0,0,0
RU,Russian Federation,country,Europe and Central Asia,61.52401,105.318756,AZ,Azerbaijan,country,Europe and Central Asia,40.143105,47.576927,4500.29166851173,1999,414637,397340,4864,5502,35,0,276,18,265,0,3,1025,471,44,239,2762,2,147,1633,13,0,0,0,0
KN,St. Kitts and Nevis,country,Latin America and the Caribbean,17.357822,-62.782998,AZ,Azerbaijan,country,Europe and Central Asia,40.143105,47.576927,10411.3205989679,1999,26,0,0,0,0,0,0,0,0,0,0,0,0,26,0,0,0,0,0,0,0,0,0,0
SA,Saudi Arabia,country,Middle East and North Africa,23.885942,45.079162,AZ,Azerbaijan,country,Europe and Central Asia,40.143105,47.576927,1824.80775122552,1999,60,0,0,0,0,0,0,0,0,0,0,0,0,0,0,0,0,60,0,0,0,0,0,0
SG,Singapore,country,East Asia and Pacific,1.352083,103.819836,AZ,Azerbaijan,country,Europe and Central Asia,40.143105,47.576927,7113.79966119796,1999,360,0,0,0,0,0,0,0,0,0,0,0,0,0,360,0,0,0,0,0,0,0,0,0
SK,Slovak Rep.,country,Europe and Central Asia,48.669026,19.699024,AZ,Azerbaijan,country,Europe and Central Asia,40.143105,47.576927,2394.3667521138,1999,1,0,0,1,0,0,0,0,0,0,0,0,0,0,0,0,0,0,0,0,0,0,0,0
SI,Slovenia,country,Europe and Central Asia,46.151241,14.995463,AZ,Azerbaijan,country,Europe and Central Asia,40.143105,47.576927,2708.72324137424,1999,6,0,0,0,0,0,0,0,0,0,0,0,0,0,0,0,0,6,0,0,0,0,0,0
ZA,S. Africa,country,Sub-Saharan Africa,-30.559482,22.937506,AZ,Azerbaijan,country,Europe and Central Asia,40.143105,47.576927,8271.45803791728,1999,91,0,0,0,0,0,0,0,91,0,0,0,0,0,0,0,0,0,0,0,0,0,0,0
ES,Spain,country,Europe and Central Asia,40.463667,-3.74922,AZ,Azerbaijan,country,Europe and Central Asia,40.143105,47.576927,4293.8745295562,1999,800,31,0,12,0,0,0,0,14,0,0,0,0,164,68,0,0,511,0,0,0,0,0,0
LK,Sri Lanka,country,South Asia,7.873054,80.771797,AZ,Azerbaijan,country,Europe and Central Asia,40.143105,47.576927,4873.85087234324,1999,1901,0,0,0,0,0,0,0,0,0,0,0,1901,0,0,0,0,0,0,0,0,0,0,0
CH,Switzerland,country,Europe and Central Asia,46.818188,8.227512,AZ,Azerbaijan,country,Europe and Central Asia,40.143105,47.576927,3228.16147297209,1999,37,7,0,0,0,0,0,0,0,0,0,0,6,6,0,0,0,3,15,0,0,0,0,0
SY,Syrian Arab Rep.,country,Middle East and North Africa,34.802075,38.996815,AZ,Azerbaijan,country,Europe and Central Asia,40.143105,47.576927,962.586943096407,1999,61,0,0,0,0,0,0,1,15,0,0,0,1,0,0,0,0,0,44,0,0,0,0,0
TH,Thailand,country,East Asia and Pacific,15.870032,100.992541,AZ,Azerbaijan,country,Europe and Central Asia,40.143105,47.576927,5797.68596314424,1999,6697,6535,18,136,0,0,0,0,0,0,0,0,8,0,0,0,0,0,0,0,0,0,0,0
TN,Tunisia,country,Middle East and North Africa,33.886917,9.537499,AZ,Azerbaijan,country,Europe and Central Asia,40.143105,47.576927,3425.03078141929,1999,9,0,0,0,0,0,0,0,0,0,0,0,0,0,9,0,0,0,0,0,0,0,0,0
TR,Turkey,country,Europe and Central Asia,38.963745,35.243322,AZ,Azerbaijan,country,Europe and Central Asia,40.143105,47.576927,1065.83179986328,1999,97027,25742,5368,31358,139,361,10,5808,1747,1,39,522,1268,3694,13729,268,38,1636,5337,0,0,0,0,0
TM,Turkmenistan,country,Europe and Central Asia,38.969719,59.556278,AZ,Azerbaijan,country,Europe and Central Asia,40.143105,47.576927,1035.60743533656,1999,152,0,15,0,0,0,0,114,8,0,0,0,0,15,0,0,0,0,0,0,0,0,0,0
UA,Ukraine,country,Europe and Central Asia,48.379433,31.16558,AZ,Azerbaijan,country,Europe and Central Asia,40.143105,47.576927,1592.28795630754,1999,50463,31835,0,17782,190,0,40,0,0,0,0,147,3,18,0,154,0,47,247,0,0,0,0,0
AE,United Arab Emirates,country,Middle East and North Africa,23.424076,53.847818,AZ,Azerbaijan,country,Europe and Central Asia,40.143105,47.576927,1952.05237367175,1999,6356,2154,0,136,3,1,3,28,207,0,0,0,17,90,3339,6,0,125,247,0,0,0,0,0
GB,United Kingdom,country,Europe and Central Asia,55.378051,-3.435973,AZ,Azerbaijan,country,Europe and Central Asia,40.143105,47.576927,4063.91844956798,1999,148,18,0,15,0,0,0,11,6,0,0,0,18,18,20,14,0,28,0,0,0,0,0,0
US,USA,country,North America,37.09024,-95.712891,AZ,Azerbaijan,country,Europe and Central Asia,40.143105,47.576927,10657.9097561196,1999,45581,19545,1,129,1177,0,1,476,0,12,3,0,0,544,1549,0,0,22144,0,0,0,0,0,0
UY,Uruguay,country,Latin America and the Caribbean,-32.522779,-55.765835,AZ,Azerbaijan,country,Europe and Central Asia,40.143105,47.576927,13324.2233938634,1999,4,0,0,0,0,0,0,0,4,0,0,0,0,0,0,0,0,0,0,0,0,0,0,0
UZ,Uzbekistan,country,Europe and Central Asia,41.377491,64.585262,AZ,Azerbaijan,country,Europe and Central Asia,40.143105,47.576927,1438.35457142921,1999,215,0,0,0,15,0,0,38,9,0,0,0,0,153,0,0,0,0,0,0,0,0,0,0
VN,Vietnam,country,East Asia and Pacific,14.058324,108.277199,AZ,Azerbaijan,country,Europe and Central Asia,40.143105,47.576927,6534.61525908746,1999,203,203,0,0,0,0,0,0,0,0,0,0,0,0,0,0,0,0,0,0,0,0,0,0
AR,Argentina,country,Latin America and the Caribbean,-38.416097,-63.616672,AZ,Azerbaijan,country,Europe and Central Asia,40.143105,47.576927,14260.7740809064,2001,36,0,0,0,0,0,0,0,36,0,0,0,0,0,0,0,0,0,0,0,0,0,0,0
AU,Australia,country,East Asia and Pacific,-25.274398,133.775136,AZ,Azerbaijan,country,Europe and Central Asia,40.143105,47.576927,11495.1937809082,2001,1070,2,0,0,308,0,0,0,9,0,0,0,0,0,80,1,0,0,645,25,0,0,0,0
AT,Austria,country,Europe and Central Asia,47.516231,14.550072,AZ,Azerbaijan,country,Europe and Central Asia,40.143105,47.576927,2752.65347053538,2001,1099,928,20,0,0,0,1,1,58,0,1,11,11,27,24,17,0,0,0,0,0,0,0,0
BY,Belarus,country,Europe and Central Asia,53.709807,27.953389,AZ,Azerbaijan,country,Europe and Central Asia,40.143105,47.576927,2109.17812707878,2001,75,0,0,28,0,0,0,0,0,0,0,0,0,9,0,0,0,0,38,0,0,0,0,0
BE,Belgium,country,Europe and Central Asia,50.503887,4.469936,AZ,Azerbaijan,country,Europe and Central Asia,40.143105,47.576927,3508.77758054185,2001,792,716,0,0,0,0,0,14,0,0,0,0,0,2,60,0,0,0,0,0,0,0,0,0
BR,Brazil,country,Latin America and the Caribbean,-14.235004,-51.92528,AZ,Azerbaijan,country,Europe and Central Asia,40.143105,47.576927,11834.5053527905,2001,13904,240,0,6562,0,0,1,0,9,0,0,780,0,300,166,0,0,5749,97,0,0,0,0,0
BG,Bulgaria,country,Europe and Central Asia,42.733883,25.48583,AZ,Azerbaijan,country,Europe and Central Asia,40.143105,47.576927,1860.48164344104,2001,823,53,0,0,0,0,0,506,9,0,0,0,0,213,21,0,0,0,21,0,0,0,0,0
CA,Canada,country,North America,56.130366,-106.346771,AZ,Azerbaijan,country,Europe and Central Asia,40.143105,47.576927,9041.37895426741,2001,455,7,0,0,191,0,0,0,0,0,0,0,0,0,125,0,0,132,0,0,0,0,0,0
CL,Chile,country,Latin America and the Caribbean,-35.675147,-71.542969,AZ,Azerbaijan,country,Europe and Central Asia,40.143105,47.576927,14772.2216608061,2001,45,0,0,0,0,0,0,13,18,0,0,0,0,14,0,0,0,0,0,0,0,0,0,0
CN,China,country,East Asia and Pacific,35.86166,104.195397,AZ,Azerbaijan,country,Europe and Central Asia,40.143105,47.576927,4905.26770568488,2001,617,1,0,1,0,4,0,4,0,0,0,0,74,533,0,0,0,0,0,0,0,0,0,0
CR,Costa Rica,country,Latin America and the Caribbean,9.748917,-83.753428,AZ,Azerbaijan,country,Europe and Central Asia,40.143105,47.576927,12562.7927963138,2001,1,0,0,0,0,0,0,0,1,0,0,0,0,0,0,0,0,0,0,0,0,0,0,0
CI,Ivory Coast,country,Sub-Saharan Africa,7.539989,-5.54708,AZ,Azerbaijan,country,Europe and Central Asia,40.143105,47.576927,6385.30092219069,2001,4,0,0,0,0,0,0,0,3,0,0,0,1,0,0,0,0,0,0,0,0,0,0,0
CY,Cyprus,country,Europe and Central Asia,35.126413,33.429859,AZ,Azerbaijan,country,Europe and Central Asia,40.143105,47.576927,1364.37948384163,2001,0,0,0,0,0,0,0,0,0,0,0,0,0,0,0,0,0,0,0,0,0,0,0,0
CZ,Czech Republic,country,Europe and Central Asia,49.817492,15.472962,AZ,Azerbaijan,country,Europe and Central Asia,40.143105,47.576927,2721.24997591005,2001,172,66,0,1,0,0,0,0,0,0,0,0,0,0,0,55,0,0,50,0,0,0,0,0
DK,Denmark,country,Europe and Central Asia,56.26392,9.501785,AZ,Azerbaijan,country,Europe and Central Asia,40.143105,47.576927,3284.17291482072,2001,18612,383,0,16699,0,0,0,0,0,0,0,0,0,2,1361,10,0,74,83,0,0,0,0,0
EC,Ecuador,country,Latin America and the Caribbean,-1.831239,-78.183406,AZ,Azerbaijan,country,Europe and Central Asia,40.143105,47.576927,13118.6337768537,2001,703,0,0,0,0,0,0,0,703,0,0,0,0,0,0,0,0,0,0,0,0,0,0,0
EG,Egypt,country,Middle East and North Africa,26.820553,30.802498,AZ,Azerbaijan,country,Europe and Central Asia,40.143105,47.576927,2143.47166351298,2001,292,0,0,0,0,0,0,0,0,0,0,0,0,292,0,0,0,0,0,0,0,0,0,0
EE,Estonia,country,Europe and Central Asia,58.595272,25.013607,AZ,Azerbaijan,country,Europe and Central Asia,40.143105,47.576927,2599.35171177162,2001,88,0,0,0,0,0,0,0,0,0,0,0,0,0,0,0,0,0,88,0,0,0,0,0
FI,Finland,country,Europe and Central Asia,61.92411,25.748151,AZ,Azerbaijan,country,Europe and Central Asia,40.143105,47.576927,2835.27530346168,2001,6,0,0,1,0,0,0,0,0,0,0,0,5,0,0,0,0,0,0,0,0,0,0,0
FR,France,country,Europe and Central Asia,46.227638,2.213749,AZ,Azerbaijan,country,Europe and Central Asia,40.143105,47.576927,3691.92885948623,2001,13301,4161,0,6519,0,0,0,207,182,0,0,0,11,958,65,121,0,1077,0,0,0,0,0,0
GE,Georgia,country,Europe and Central Asia,42.315407,43.356892,AZ,Azerbaijan,country,Europe and Central Asia,40.143105,47.576927,428.050888651498,2001,1000,55,0,0,0,0,0,3,51,0,0,0,1,22,0,866,0,0,2,0,0,0,0,0
DE,Germany,country,Europe and Central Asia,51.165691,10.451526,AZ,Azerbaijan,country,Europe and Central Asia,40.143105,47.576927,3097.23243744496,2001,4300,1186,8,25,0,0,0,34,222,0,4,0,75,689,367,201,119,397,1092,0,0,0,0,0
GR,Greece,country,Europe and Central Asia,39.074208,21.824312,AZ,Azerbaijan,country,Europe and Central Asia,40.143105,47.576927,2204.08262058151,2001,2586,0,0,0,0,0,0,0,18,0,0,0,0,2568,0,0,0,0,0,0,0,0,0,0
GD,Grenada,country,Latin America and the Caribbean,12.262776,-61.604171,AZ,Azerbaijan,country,Europe and Central Asia,40.143105,47.576927,10712.1330485318,2001,0,0,0,0,0,0,0,0,0,0,0,0,0,0,0,0,0,0,0,0,0,0,0,0
HN,Honduras,country,Latin America and the Caribbean,15.199999,-86.241905,AZ,Azerbaijan,country,Europe and Central Asia,40.143105,47.576927,12243.1864414381,2001,109,0,0,0,0,0,0,0,109,0,0,0,0,0,0,0,0,0,0,0,0,0,0,0
HU,Hungary,country,Europe and Central Asia,47.162494,19.503304,AZ,Azerbaijan,country,Europe and Central Asia,40.143105,47.576927,2377.05190634764,2001,1432,0,0,0,0,0,3,333,5,0,0,0,55,0,0,0,0,1036,0,0,0,0,0,0
IN,India,country,South Asia,20.593684,78.96288,AZ,Azerbaijan,country,Europe and Central Asia,40.143105,47.576927,3685.50875725944,2001,1944,6,0,140,0,0,0,0,0,0,24,2,1687,85,0,0,0,0,0,0,0,0,0,0
ID,Indonesia,country,East Asia and Pacific,-0.789275,113.921327,AZ,Azerbaijan,country,Europe and Central Asia,40.143105,47.576927,8090.01170498133,2001,6,0,0,0,0,0,0,0,0,0,6,0,0,0,0,0,0,0,0,0,0,0,0,0
IR,Iran,country,Middle East and North Africa,32.427908,53.688046,AZ,Azerbaijan,country,Europe and Central Asia,40.143105,47.576927,1018.35123776435,2001,69723,6290,36875,985,0,2,0,11656,2025,0,23,709,27,5576,1805,0,1510,0,3750,0,0,0,0,0
IE,Ireland,country,Europe and Central Asia,53.41291,-8.24389,AZ,Azerbaijan,country,Europe and Central Asia,40.143105,47.576927,4376.95562615247,2001,1,0,0,0,0,0,0,0,0,0,0,0,1,0,0,0,0,0,0,0,0,0,0,0
IL,Israel,country,Middle East and North Africa,31.046051,34.851612,AZ,Azerbaijan,country,Europe and Central Asia,40.143105,47.576927,1530.83231969651,2001,13,0,0,0,0,0,0,2,0,0,0,0,3,1,7,0,0,0,0,0,0,0,0,0
IT,Italy,country,Europe and Central Asia,41.87194,12.56738,AZ,Azerbaijan,country,Europe and Central Asia,40.143105,47.576927,2926.83770017887,2001,7649,6395,0,31,0,0,0,67,8,0,0,0,35,1055,36,0,0,21,1,0,0,0,0,0
JM,Jamaica,country,Latin America and the Caribbean,18.109581,-77.297508,AZ,Azerbaijan,country,Europe and Central Asia,40.143105,47.576927,11401.1216846166,2001,0,0,0,0,0,0,0,0,0,0,0,0,0,0,0,0,0,0,0,0,0,0,0,0
JP,Japan,country,East Asia and Pacific,36.204824,138.252924,AZ,Azerbaijan,country,Europe and Central Asia,40.143105,47.576927,7577.13514487228,2001,5,0,0,0,0,0,0,4,0,0,0,0,0,1,0,0,0,0,0,0,0,0,0,0
KZ,Kazakhstan,country,Europe and Central Asia,48.019573,66.923684,AZ,Azerbaijan,country,Europe and Central Asia,40.143105,47.576927,1771.11807407358,2001,473336,473053,0,0,0,0,0,0,0,0,0,0,0,118,0,0,0,0,0,0,165,0,0,0
KE,Kenya,country,Sub-Saharan Africa,-0.023559,37.906193,AZ,Azerbaijan,country,Europe and Central Asia,40.143105,47.576927,4577.70513046821,2001,0,0,0,0,0,0,0,0,0,0,0,0,0,0,0,0,0,0,0,0,0,0,0,0
KG,Kyrgyz Rep.,country,Europe and Central Asia,41.20438,74.766098,AZ,Azerbaijan,country,Europe and Central Asia,40.143105,47.576927,2289.22478548816,2001,182,0,0,0,0,39,0,0,0,0,0,0,8,0,135,0,0,0,0,0,0,0,0,0
LV,Latvia,country,Europe and Central Asia,56.879635,24.603189,AZ,Azerbaijan,country,Europe and Central Asia,40.143105,47.576927,2494.1647941503,2001,159,1,0,7,0,0,0,0,127,0,0,0,0,4,0,20,0,0,0,0,0,0,0,0
LY,Libya,country,Middle East and North Africa,26.3351,17.228331,AZ,Azerbaijan,country,Europe and Central Asia,40.143105,47.576927,3193.88944544462,2001,3,0,0,0,0,0,0,0,0,0,0,0,0,0,0,0,0,0,3,0,0,0,0,0
LT,Lithuania,country,Europe and Central Asia,55.169438,23.881275,AZ,Azerbaijan,country,Europe and Central Asia,40.143105,47.576927,2417.95999320652,2001,153,5,0,25,0,4,14,0,1,0,0,0,7,0,0,0,0,0,97,0,0,0,0,0
MY,Malaysia,country,East Asia and Pacific,4.210484,101.975766,AZ,Azerbaijan,country,Europe and Central Asia,40.143105,47.576927,6744.21769174505,2001,49,1,0,0,0,0,0,1,0,0,0,0,6,5,36,0,0,0,0,0,0,0,0,0
MX,Mexico,country,Latin America and the Caribbean,23.634501,-102.552784,AZ,Azerbaijan,country,Europe and Central Asia,40.143105,47.576927,12291.3796872703,2001,0,0,0,0,0,0,0,0,0,0,0,0,0,0,0,0,0,0,0,0,0,0,0,0
MA,Morocco,country,Middle East and North Africa,31.791702,-7.09262,AZ,Azerbaijan,country,Europe and Central Asia,40.143105,47.576927,4934.20140104403,2001,5,0,0,0,0,0,0,0,0,0,0,0,5,0,0,0,0,0,0,0,0,0,0,0
NL,Netherlands,country,Europe and Central Asia,52.132633,5.291266,AZ,Azerbaijan,country,Europe and Central Asia,40.143105,47.576927,3464.22828266153,2001,694,1,136,14,0,0,4,39,339,0,0,0,19,65,0,67,0,3,7,0,0,0,0,0
NZ,New Zealand,country,East Asia and Pacific,-40.900557,174.885971,AZ,Azerbaijan,country,Europe and Central Asia,40.143105,47.576927,15647.4301755373,2001,6727,0,0,0,0,0,0,0,0,17,0,0,0,25,108,0,0,30,6547,0,0,0,0,0
NO,Norway,country,Europe and Central Asia,60.472024,8.468946,AZ,Azerbaijan,country,Europe and Central Asia,40.143105,47.576927,3498.43040418108,2001,0,0,0,0,0,0,0,0,0,0,0,0,0,0,0,0,0,0,0,0,0,0,0,0
OM,Oman,country,Middle East and North Africa,21.512583,55.923255,AZ,Azerbaijan,country,Europe and Central Asia,40.143105,47.576927,2219.41578165623,2001,33,33,0,0,0,0,0,0,0,0,0,0,0,0,0,0,0,0,0,0,0,0,0,0
PK,Pakistan,country,South Asia,30.375321,69.345116,AZ,Azerbaijan,country,Europe and Central Asia,40.143105,47.576927,2248.97771709702,2001,1274,955,0,0,299,0,0,0,0,0,0,0,0,20,0,0,0,0,0,0,0,0,0,0
PH,Philippines,country,East Asia and Pacific,12.879721,121.774017,AZ,Azerbaijan,country,Europe and Central Asia,40.143105,47.576927,7760.92945543457,2001,1,0,0,0,0,0,0,0,0,0,0,0,0,1,0,0,0,0,0,0,0,0,0,0
PL,Poland,country,Europe and Central Asia,51.919438,19.145136,AZ,Azerbaijan,country,Europe and Central Asia,40.143105,47.576927,2534.4484127554,2001,2607,1122,0,82,0,0,39,43,82,0,2,0,144,451,448,0,0,136,58,0,0,0,0,0
PT,Portugal,country,Europe and Central Asia,39.399872,-8.224454,AZ,Azerbaijan,country,Europe and Central Asia,40.143105,47.576927,4693.70148760501,2001,4953,0,0,0,0,0,0,0,0,0,0,0,0,313,4640,0,0,0,0,0,0,0,0,0
RO,Romania,country,Europe and Central Asia,45.943161,24.96676,AZ,Azerbaijan,country,Europe and Central Asia,40.143105,47.576927,1941.53805660076,2001,22,0,0,0,0,0,0,0,0,0,0,0,0,0,0,20,0,2,0,0,0,0,0,0
RU,Russian Federation,country,Europe and Central Asia,61.52401,105.318756,AZ,Azerbaijan,country,Europe and Central Asia,40.143105,47.576927,4500.29166851173,2001,169623,135412,7289,15845,0,0,70,586,13,0,30,3993,587,89,1447,2016,2,595,1641,10,0,0,0,0
KN,St. Kitts and Nevis,country,Latin America and the Caribbean,17.357822,-62.782998,AZ,Azerbaijan,country,Europe and Central Asia,40.143105,47.576927,10411.3205989679,2001,11,0,0,0,0,0,0,0,0,0,0,0,0,11,0,0,0,0,0,0,0,0,0,0
SA,Saudi Arabia,country,Middle East and North Africa,23.885942,45.079162,AZ,Azerbaijan,country,Europe and Central Asia,40.143105,47.576927,1824.80775122552,2001,67,0,0,0,0,0,0,0,0,0,0,0,0,0,0,0,0,67,0,0,0,0,0,0
RS,Serbia,country,Europe and Central Asia,44.016521,21.005859,AZ,Azerbaijan,country,Europe and Central Asia,40.143105,47.576927,2227.13453767145,2001,0,0,0,0,0,0,0,0,0,0,0,0,0,0,0,0,0,0,0,0,0,0,0,0
SG,Singapore,country,East Asia and Pacific,1.352083,103.819836,AZ,Azerbaijan,country,Europe and Central Asia,40.143105,47.576927,7113.79966119796,2001,1,1,0,0,0,0,0,0,0,0,0,0,0,0,0,0,0,0,0,0,0,0,0,0
SK,Slovak Rep.,country,Europe and Central Asia,48.669026,19.699024,AZ,Azerbaijan,country,Europe and Central Asia,40.143105,47.576927,2394.3667521138,2001,15,0,0,0,0,0,0,0,0,0,0,0,0,15,0,0,0,0,0,0,0,0,0,0
SI,Slovenia,country,Europe and Central Asia,46.151241,14.995463,AZ,Azerbaijan,country,Europe and Central Asia,40.143105,47.576927,2708.72324137424,2001,19,14,0,0,0,0,0,0,0,0,0,0,4,0,1,0,0,0,0,0,0,0,0,0
ZA,S. Africa,country,Sub-Saharan Africa,-30.559482,22.937506,AZ,Azerbaijan,country,Europe and Central Asia,40.143105,47.576927,8271.45803791728,2001,22,0,0,0,0,0,0,0,22,0,0,0,0,0,0,0,0,0,0,0,0,0,0,0
ES,Spain,country,Europe and Central Asia,40.463667,-3.74922,AZ,Azerbaijan,country,Europe and Central Asia,40.143105,47.576927,4293.8745295562,2001,1800,0,0,0,0,0,2,50,26,0,0,0,0,76,1545,0,0,101,0,0,0,0,0,0
LK,Sri Lanka,country,South Asia,7.873054,80.771797,AZ,Azerbaijan,country,Europe and Central Asia,40.143105,47.576927,4873.85087234324,2001,4692,0,0,0,0,0,0,0,0,0,0,0,4692,0,0,0,0,0,0,0,0,0,0,0
SE,Sweden,country,Europe and Central Asia,60.128161,18.643501,AZ,Azerbaijan,country,Europe and Central Asia,40.143105,47.576927,2987.97954051659,2001,0,0,0,0,0,0,0,0,0,0,0,0,0,0,0,0,0,0,0,0,0,0,0,0
CH,Switzerland,country,Europe and Central Asia,46.818188,8.227512,AZ,Azerbaijan,country,Europe and Central Asia,40.143105,47.576927,3228.16147297209,2001,700,115,0,0,0,0,0,0,0,0,0,0,22,485,0,18,0,0,60,0,0,0,0,0
SY,Syrian Arab Rep.,country,Middle East and North Africa,34.802075,38.996815,AZ,Azerbaijan,country,Europe and Central Asia,40.143105,47.576927,962.586943096407,2001,80,0,0,0,0,0,0,77,3,0,0,0,0,0,0,0,0,0,0,0,0,0,0,0
TJ,Tajikistan,country,Europe and Central Asia,38.861034,71.276093,AZ,Azerbaijan,country,Europe and Central Asia,40.143105,47.576927,2034.57876665745,2001,16,0,0,0,0,0,6,8,2,0,0,0,0,0,0,0,0,0,0,0,0,0,0,0
TH,Thailand,country,East Asia and Pacific,15.870032,100.992541,AZ,Azerbaijan,country,Europe and Central Asia,40.143105,47.576927,5797.68596314424,2001,5933,5790,0,100,0,0,42,0,1,0,0,0,0,0,0,0,0,0,0,0,0,0,0,0
TN,Tunisia,country,Middle East and North Africa,33.886917,9.537499,AZ,Azerbaijan,country,Europe and Central Asia,40.143105,47.576927,3425.03078141929,2001,0,0,0,0,0,0,0,0,0,0,0,0,0,0,0,0,0,0,0,0,0,0,0,0
TR,Turkey,country,Europe and Central Asia,38.963745,35.243322,AZ,Azerbaijan,country,Europe and Central Asia,40.143105,47.576927,1065.83179986328,2001,113519,23926,10668,48972,20,62,26,1277,1953,0,17,242,793,4516,17495,233,162,3150,169,0,0,0,0,0
TM,Turkmenistan,country,Europe and Central Asia,38.969719,59.556278,AZ,Azerbaijan,country,Europe and Central Asia,40.143105,47.576927,1035.60743533656,2001,28,24,0,0,0,0,0,4,0,0,0,0,0,0,0,0,0,0,0,0,0,0,0,0
TV,Tuvalu,country,East Asia and Pacific,-7.109535,177.64933,AZ,Azerbaijan,country,Europe and Central Asia,40.143105,47.576927,13872.5379069724,2001,0,0,0,0,0,0,0,0,0,0,0,0,0,0,0,0,0,0,0,0,0,0,0,0
UA,Ukraine,country,Europe and Central Asia,48.379433,31.16558,AZ,Azerbaijan,country,Europe and Central Asia,40.143105,47.576927,1592.28795630754,2001,12220,4732,0,1698,0,0,0,28,0,0,0,1598,640,119,2347,376,0,21,661,0,0,0,0,0
AE,United Arab Emirates,country,Middle East and North Africa,23.424076,53.847818,AZ,Azerbaijan,country,Europe and Central Asia,40.143105,47.576927,1952.05237367175,2001,2636,114,0,1182,0,2,1,122,43,0,35,0,27,102,700,4,0,248,40,16,0,0,0,0
GB,United Kingdom,country,Europe and Central Asia,55.378051,-3.435973,AZ,Azerbaijan,country,Europe and Central Asia,40.143105,47.576927,4063.91844956798,2001,65,12,0,3,0,0,0,16,4,0,0,0,2,14,0,13,0,1,0,0,0,0,0,0
US,USA,country,North America,37.09024,-95.712891,AZ,Azerbaijan,country,Europe and Central Asia,40.143105,47.576927,10657.9097561196,2001,16735,7269,0,0,654,0,0,2,259,38,0,0,0,275,768,0,0,7350,120,0,0,0,0,0
UZ,Uzbekistan,country,Europe and Central Asia,41.377491,64.585262,AZ,Azerbaijan,country,Europe and Central Asia,40.143105,47.576927,1438.35457142921,2001,555,0,0,0,136,37,274,0,108,0,0,0,0,0,0,0,0,0,0,0,0,0,0,0
VN,Vietnam,country,East Asia and Pacific,14.058324,108.277199,AZ,Azerbaijan,country,Europe and Central Asia,40.143105,47.576927,6534.61525908746,2001,27,27,0,0,0,0,0,0,0,0,0,0,0,0,0,0,0,0,0,0,0,0,0,0
ZW,Zimbabwe,country,Sub-Saharan Africa,-19.015438,29.154857,AZ,Azerbaijan,country,Europe and Central Asia,40.143105,47.576927,6857.25394235006,2001,1247,0,0,0,0,0,0,0,0,0,0,0,0,1247,0,0,0,0,0,0,0,0,0,0
DZ,Algeria,country,Middle East and North Africa,28.033886,1.659626,AZ,Azerbaijan,country,Europe and Central Asia,40.143105,47.576927,4389.11973659463,2002,0,0,0,0,0,0,0,0,0,0,0,0,0,0,0,0,0,0,0,0,0,0,0,0
AR,Argentina,country,Latin America and the Caribbean,-38.416097,-63.616672,AZ,Azerbaijan,country,Europe and Central Asia,40.143105,47.576927,14260.7740809064,2002,39,0,0,0,0,0,0,0,14,0,0,0,0,0,0,0,0,0,25,0,0,0,0,0
AU,Australia,country,East Asia and Pacific,-25.274398,133.775136,AZ,Azerbaijan,country,Europe and Central Asia,40.143105,47.576927,11495.1937809082,2002,1451,0,0,0,0,0,0,7,2,0,0,0,0,0,0,12,0,87,1333,10,0,0,0,0
AT,Austria,country,Europe and Central Asia,47.516231,14.550072,AZ,Azerbaijan,country,Europe and Central Asia,40.143105,47.576927,2752.65347053538,2002,2307,2058,3,0,0,0,0,0,181,0,0,0,7,4,0,53,0,1,0,0,0,0,0,0
BB,Barbados,country,Latin America and the Caribbean,13.193887,-59.543198,AZ,Azerbaijan,country,Europe and Central Asia,40.143105,47.576927,10478.0011553391,2002,2,0,0,0,0,0,0,0,2,0,0,0,0,0,0,0,0,0,0,0,0,0,0,0
BY,Belarus,country,Europe and Central Asia,53.709807,27.953389,AZ,Azerbaijan,country,Europe and Central Asia,40.143105,47.576927,2109.17812707878,2002,2,0,0,0,0,0,0,0,0,0,0,1,0,1,0,0,0,0,0,0,0,0,0,0
BE,Belgium,country,Europe and Central Asia,50.503887,4.469936,AZ,Azerbaijan,country,Europe and Central Asia,40.143105,47.576927,3508.77758054185,2002,767,7,8,6,0,0,0,19,14,0,0,328,3,11,56,14,0,301,0,0,0,0,0,0
BO,Bolivia,country,Latin America and the Caribbean,-16.290154,-63.588653,AZ,Azerbaijan,country,Europe and Central Asia,40.143105,47.576927,12965.6661485342,2002,0,0,0,0,0,0,0,0,0,0,0,0,0,0,0,0,0,0,0,0,0,0,0,0
BR,Brazil,country,Latin America and the Caribbean,-14.235004,-51.92528,AZ,Azerbaijan,country,Europe and Central Asia,40.143105,47.576927,11834.5053527905,2002,34883,0,0,30371,0,0,0,0,5,0,0,1091,18,475,0,0,0,2890,33,0,0,0,0,0
BG,Bulgaria,country,Europe and Central Asia,42.733883,25.48583,AZ,Azerbaijan,country,Europe and Central Asia,40.143105,47.576927,1860.48164344104,2002,2408,43,0,0,0,0,0,500,41,0,0,0,0,7,1763,0,0,0,54,0,0,0,0,0
CA,Canada,country,North America,56.130366,-106.346771,AZ,Azerbaijan,country,Europe and Central Asia,40.143105,47.576927,9041.37895426741,2002,1988,204,0,0,415,0,0,0,0,0,0,0,0,0,792,0,0,577,0,0,0,0,0,0
CL,Chile,country,Latin America and the Caribbean,-35.675147,-71.542969,AZ,Azerbaijan,country,Europe and Central Asia,40.143105,47.576927,14772.2216608061,2002,37,0,0,0,0,0,0,0,21,0,0,0,0,16,0,0,0,0,0,0,0,0,0,0
CN,China,country,East Asia and Pacific,35.86166,104.195397,AZ,Azerbaijan,country,Europe and Central Asia,40.143105,47.576927,4905.26770568488,2002,255,21,0,10,0,1,2,1,5,0,0,0,63,43,4,0,0,100,5,0,0,0,0,0
CU,Cuba,country,Latin America and the Caribbean,21.521757,-77.781167,AZ,Azerbaijan,country,Europe and Central Asia,40.143105,47.576927,11140.7994093848,2002,1402,0,0,1402,0,0,0,0,0,0,0,0,0,0,0,0,0,0,0,0,0,0,0,0
CY,Cyprus,country,Europe and Central Asia,35.126413,33.429859,AZ,Azerbaijan,country,Europe and Central Asia,40.143105,47.576927,1364.37948384163,2002,20,0,0,0,0,0,0,0,0,0,0,0,0,20,0,0,0,0,0,0,0,0,0,0
CZ,Czech Republic,country,Europe and Central Asia,49.817492,15.472962,AZ,Azerbaijan,country,Europe and Central Asia,40.143105,47.576927,2721.24997591005,2002,490,413,0,1,0,0,1,0,0,0,0,0,2,1,0,52,0,0,20,0,0,0,0,0
DK,Denmark,country,Europe and Central Asia,56.26392,9.501785,AZ,Azerbaijan,country,Europe and Central Asia,40.143105,47.576927,3284.17291482072,2002,1601,463,0,0,0,0,0,0,0,0,0,0,0,9,824,10,0,170,125,0,0,0,0,0
EC,Ecuador,country,Latin America and the Caribbean,-1.831239,-78.183406,AZ,Azerbaijan,country,Europe and Central Asia,40.143105,47.576927,13118.6337768537,2002,303,0,0,0,0,0,0,0,303,0,0,0,0,0,0,0,0,0,0,0,0,0,0,0
EG,Egypt,country,Middle East and North Africa,26.820553,30.802498,AZ,Azerbaijan,country,Europe and Central Asia,40.143105,47.576927,2143.47166351298,2002,61,0,0,0,0,0,0,0,0,0,0,0,0,61,0,0,0,0,0,0,0,0,0,0
FI,Finland,country,Europe and Central Asia,61.92411,25.748151,AZ,Azerbaijan,country,Europe and Central Asia,40.143105,47.576927,2835.27530346168,2002,27,0,3,1,0,0,0,1,0,0,0,0,4,0,0,0,0,0,18,0,0,0,0,0
FR,France,country,Europe and Central Asia,46.227638,2.213749,AZ,Azerbaijan,country,Europe and Central Asia,40.143105,47.576927,3691.92885948623,2002,4126,891,0,3,0,0,0,1115,296,0,0,0,13,58,150,276,0,1304,20,0,0,0,0,0
GE,Georgia,country,Europe and Central Asia,42.315407,43.356892,AZ,Azerbaijan,country,Europe and Central Asia,40.143105,47.576927,428.050888651498,2002,11969,14,37,10076,0,0,0,4,366,0,0,0,36,26,0,1327,0,21,62,0,0,0,0,0
DE,Germany,country,Europe and Central Asia,51.165691,10.451526,AZ,Azerbaijan,country,Europe and Central Asia,40.143105,47.576927,3097.23243744496,2002,4133,944,11,586,0,0,2,47,354,0,0,0,56,777,42,207,93,141,966,0,0,0,0,0
GR,Greece,country,Europe and Central Asia,39.074208,21.824312,AZ,Azerbaijan,country,Europe and Central Asia,40.143105,47.576927,2204.08262058151,2002,874,0,0,0,0,0,0,0,0,0,0,0,0,874,0,0,0,0,0,0,0,0,0,0
GT,Guatemala,country,Latin America and the Caribbean,15.783471,-90.230759,AZ,Azerbaijan,country,Europe and Central Asia,40.143105,47.576927,12433.7448245411,2002,77,0,0,0,0,0,0,0,0,0,0,0,0,77,0,0,0,0,0,0,0,0,0,0
HU,Hungary,country,Europe and Central Asia,47.162494,19.503304,AZ,Azerbaijan,country,Europe and Central Asia,40.143105,47.576927,2377.05190634764,2002,829,0,0,11,0,0,0,290,26,0,0,0,60,0,0,0,0,442,0,0,0,0,0,0
IS,Iceland,country,Europe and Central Asia,64.963051,-19.020835,AZ,Azerbaijan,country,Europe and Central Asia,40.143105,47.576927,4959.51204529032,2002,0,0,0,0,0,0,0,0,0,0,0,0,0,0,0,0,0,0,0,0,0,0,0,0
IN,India,country,South Asia,20.593684,78.96288,AZ,Azerbaijan,country,Europe and Central Asia,40.143105,47.576927,3685.50875725944,2002,3675,740,0,0,0,3,0,0,0,0,8,110,1738,564,0,0,0,512,0,0,0,0,0,0
ID,Indonesia,country,East Asia and Pacific,-0.789275,113.921327,AZ,Azerbaijan,country,Europe and Central Asia,40.143105,47.576927,8090.01170498133,2002,16,0,0,1,0,0,0,0,0,0,2,0,0,0,13,0,0,0,0,0,0,0,0,0
IR,Iran,country,Middle East and North Africa,32.427908,53.688046,AZ,Azerbaijan,country,Europe and Central Asia,40.143105,47.576927,1018.35123776435,2002,111557,4360,67475,2541,5,1,0,20156,3119,0,1,9680,17,2070,210,0,1575,0,1922,0,0,0,0,0
IQ,Iraq,country,Middle East and North Africa,33.223191,43.679291,AZ,Azerbaijan,country,Europe and Central Asia,40.143105,47.576927,845.018929939421,2002,212,0,0,0,0,0,0,0,0,0,0,0,0,212,0,0,0,0,0,0,0,0,0,0
IE,Ireland,country,Europe and Central Asia,53.41291,-8.24389,AZ,Azerbaijan,country,Europe and Central Asia,40.143105,47.576927,4376.95562615247,2002,65,0,0,0,0,0,0,0,0,0,0,0,0,30,0,35,0,0,0,0,0,0,0,0
IL,Israel,country,Middle East and North Africa,31.046051,34.851612,AZ,Azerbaijan,country,Europe and Central Asia,40.143105,47.576927,1530.83231969651,2002,3422,12,0,0,0,0,0,0,13,0,0,0,0,0,3397,0,0,0,0,0,0,0,0,0
IT,Italy,country,Europe and Central Asia,41.87194,12.56738,AZ,Azerbaijan,country,Europe and Central Asia,40.143105,47.576927,2926.83770017887,2002,1599,193,0,62,0,0,0,390,32,0,0,0,93,828,0,0,0,1,0,0,0,0,0,0
JP,Japan,country,East Asia and Pacific,36.204824,138.252924,AZ,Azerbaijan,country,Europe and Central Asia,40.143105,47.576927,7577.13514487228,2002,3,0,0,0,0,0,0,0,0,0,0,0,0,3,0,0,0,0,0,0,0,0,0,0
KZ,Kazakhstan,country,Europe and Central Asia,48.019573,66.923684,AZ,Azerbaijan,country,Europe and Central Asia,40.143105,47.576927,1771.11807407358,2002,462087,461688,12,0,30,0,0,24,0,0,0,183,0,150,0,0,0,0,0,0,0,0,0,0
KG,Kyrgyz Rep.,country,Europe and Central Asia,41.20438,74.766098,AZ,Azerbaijan,country,Europe and Central Asia,40.143105,47.576927,2289.22478548816,2002,220,0,0,0,180,39,1,0,0,0,0,0,0,0,0,0,0,0,0,0,0,0,0,0
LV,Latvia,country,Europe and Central Asia,56.879635,24.603189,AZ,Azerbaijan,country,Europe and Central Asia,40.143105,47.576927,2494.1647941503,2002,126,13,0,7,0,0,0,4,65,0,0,0,10,4,0,1,0,21,1,0,0,0,0,0
LT,Lithuania,country,Europe and Central Asia,55.169438,23.881275,AZ,Azerbaijan,country,Europe and Central Asia,40.143105,47.576927,2417.95999320652,2002,149,10,45,14,0,0,2,0,3,0,0,0,6,0,2,5,0,0,62,0,0,0,0,0
MW,Malawi,country,Sub-Saharan Africa,-13.254308,34.301525,AZ,Azerbaijan,country,Europe and Central Asia,40.143105,47.576927,6100.73475644965,2002,20,0,0,0,0,0,0,0,0,0,0,0,20,0,0,0,0,0,0,0,0,0,0,0
MY,Malaysia,country,East Asia and Pacific,4.210484,101.975766,AZ,Azerbaijan,country,Europe and Central Asia,40.143105,47.576927,6744.21769174505,2002,1547,0,0,0,0,0,0,4,0,0,0,0,0,10,1533,0,0,0,0,0,0,0,0,0
MX,Mexico,country,Latin America and the Caribbean,23.634501,-102.552784,AZ,Azerbaijan,country,Europe and Central Asia,40.143105,47.576927,12291.3796872703,2002,18,0,0,0,0,0,0,0,0,0,0,0,0,0,0,18,0,0,0,0,0,0,0,0
MA,Morocco,country,Middle East and North Africa,31.791702,-7.09262,AZ,Azerbaijan,country,Europe and Central Asia,40.143105,47.576927,4934.20140104403,2002,8,0,0,0,0,0,0,0,6,0,0,0,2,0,0,0,0,0,0,0,0,0,0,0
NL,Netherlands,country,Europe and Central Asia,52.132633,5.291266,AZ,Azerbaijan,country,Europe and Central Asia,40.143105,47.576927,3464.22828266153,2002,1732,1,310,66,0,0,1,5,114,0,0,812,25,16,20,178,0,0,184,0,0,0,0,0
NZ,New Zealand,country,East Asia and Pacific,-40.900557,174.885971,AZ,Azerbaijan,country,Europe and Central Asia,40.143105,47.576927,15647.4301755373,2002,9372,2,2,0,1,0,0,5,0,0,0,0,0,0,0,0,0,2,9360,0,0,0,0,0
NO,Norway,country,Europe and Central Asia,60.472024,8.468946,AZ,Azerbaijan,country,Europe and Central Asia,40.143105,47.576927,3498.43040418108,2002,0,0,0,0,0,0,0,0,0,0,0,0,0,0,0,0,0,0,0,0,0,0,0,0
OM,Oman,country,Middle East and North Africa,21.512583,55.923255,AZ,Azerbaijan,country,Europe and Central Asia,40.143105,47.576927,2219.41578165623,2002,22,21,0,0,0,0,0,0,0,0,0,0,0,1,0,0,0,0,0,0,0,0,0,0
PK,Pakistan,country,South Asia,30.375321,69.345116,AZ,Azerbaijan,country,Europe and Central Asia,40.143105,47.576927,2248.97771709702,2002,1655,1640,0,0,0,0,0,0,0,0,0,0,0,15,0,0,0,0,0,0,0,0,0,0
PH,Philippines,country,East Asia and Pacific,12.879721,121.774017,AZ,Azerbaijan,country,Europe and Central Asia,40.143105,47.576927,7760.92945543457,2002,20,0,0,0,0,0,0,0,18,0,0,0,0,2,0,0,0,0,0,0,0,0,0,0
PL,Poland,country,Europe and Central Asia,51.919438,19.145136,AZ,Azerbaijan,country,Europe and Central Asia,40.143105,47.576927,2534.4484127554,2002,2902,1640,410,104,0,0,33,63,15,0,0,0,111,365,39,0,0,56,66,0,0,0,0,0
PT,Portugal,country,Europe and Central Asia,39.399872,-8.224454,AZ,Azerbaijan,country,Europe and Central Asia,40.143105,47.576927,4693.70148760501,2002,3906,0,0,0,0,0,0,0,0,0,0,0,0,386,3520,0,0,0,0,0,0,0,0,0
RU,Russian Federation,country,Europe and Central Asia,61.52401,105.318756,AZ,Azerbaijan,country,Europe and Central Asia,40.143105,47.576927,4500.29166851173,2002,232783,191234,8230,17783,230,0,195,267,322,0,0,5279,1661,1524,1031,1850,5,820,2357,0,0,0,0,0
KN,St. Kitts and Nevis,country,Latin America and the Caribbean,17.357822,-62.782998,AZ,Azerbaijan,country,Europe and Central Asia,40.143105,47.576927,10411.3205989679,2002,14,0,0,0,0,0,0,0,0,0,0,0,0,14,0,0,0,0,0,0,0,0,0,0
SA,Saudi Arabia,country,Middle East and North Africa,23.885942,45.079162,AZ,Azerbaijan,country,Europe and Central Asia,40.143105,47.576927,1824.80775122552,2002,157,26,0,2,0,0,0,3,50,0,0,0,0,0,5,0,0,60,11,0,0,0,0,0
SG,Singapore,country,East Asia and Pacific,1.352083,103.819836,AZ,Azerbaijan,country,Europe and Central Asia,40.143105,47.576927,7113.79966119796,2002,248,0,0,0,0,0,0,0,0,0,0,0,7,0,241,0,0,0,0,0,0,0,0,0
SK,Slovak Rep.,country,Europe and Central Asia,48.669026,19.699024,AZ,Azerbaijan,country,Europe and Central Asia,40.143105,47.576927,2394.3667521138,2002,257,200,0,0,0,0,0,0,0,0,0,0,0,57,0,0,0,0,0,0,0,0,0,0
SI,Slovenia,country,Europe and Central Asia,46.151241,14.995463,AZ,Azerbaijan,country,Europe and Central Asia,40.143105,47.576927,2708.72324137424,2002,0,0,0,0,0,0,0,0,0,0,0,0,0,0,0,0,0,0,0,0,0,0,0,0
SO,Somalia,country,Sub-Saharan Africa,5.152149,46.199616,AZ,Azerbaijan,country,Europe and Central Asia,40.143105,47.576927,3897.62127016344,2002,11,0,0,0,0,0,0,0,0,0,11,0,0,0,0,0,0,0,0,0,0,0,0,0
ZA,S. Africa,country,Sub-Saharan Africa,-30.559482,22.937506,AZ,Azerbaijan,country,Europe and Central Asia,40.143105,47.576927,8271.45803791728,2002,98,0,0,0,0,0,2,1,95,0,0,0,0,0,0,0,0,0,0,0,0,0,0,0
ES,Spain,country,Europe and Central Asia,40.463667,-3.74922,AZ,Azerbaijan,country,Europe and Central Asia,40.143105,47.576927,4293.8745295562,2002,6290,0,0,0,0,0,3,40,26,0,0,0,0,215,5881,0,0,125,0,0,0,0,0,0
LK,Sri Lanka,country,South Asia,7.873054,80.771797,AZ,Azerbaijan,country,Europe and Central Asia,40.143105,47.576927,4873.85087234324,2002,3242,0,0,0,0,0,0,0,0,0,0,0,3242,0,0,0,0,0,0,0,0,0,0,0
SE,Sweden,country,Europe and Central Asia,60.128161,18.643501,AZ,Azerbaijan,country,Europe and Central Asia,40.143105,47.576927,2987.97954051659,2002,0,0,0,0,0,0,0,0,0,0,0,0,0,0,0,0,0,0,0,0,0,0,0,0
CH,Switzerland,country,Europe and Central Asia,46.818188,8.227512,AZ,Azerbaijan,country,Europe and Central Asia,40.143105,47.576927,3228.16147297209,2002,968,563,0,0,0,0,0,0,0,0,0,0,17,388,0,0,0,0,0,0,0,0,0,0
SY,Syrian Arab Rep.,country,Middle East and North Africa,34.802075,38.996815,AZ,Azerbaijan,country,Europe and Central Asia,40.143105,47.576927,962.586943096407,2002,195,0,0,0,0,0,0,0,0,0,0,0,0,195,0,0,0,0,0,0,0,0,0,0
TH,Thailand,country,East Asia and Pacific,15.870032,100.992541,AZ,Azerbaijan,country,Europe and Central Asia,40.143105,47.576927,5797.68596314424,2002,15234,8365,0,6845,0,0,0,1,15,0,0,0,0,0,0,0,0,0,8,0,0,0,0,0
TN,Tunisia,country,Middle East and North Africa,33.886917,9.537499,AZ,Azerbaijan,country,Europe and Central Asia,40.143105,47.576927,3425.03078141929,2002,0,0,0,0,0,0,0,0,0,0,0,0,0,0,0,0,0,0,0,0,0,0,0,0
TR,Turkey,country,Europe and Central Asia,38.963745,35.243322,AZ,Azerbaijan,country,Europe and Central Asia,40.143105,47.576927,1065.83179986328,2002,48620,13982,6128,8617,19,7,9,5957,1654,0,20,1731,1384,3086,2223,546,355,3186,71,0,0,0,0,0
TM,Turkmenistan,country,Europe and Central Asia,38.969719,59.556278,AZ,Azerbaijan,country,Europe and Central Asia,40.143105,47.576927,1035.60743533656,2002,102,0,0,0,0,0,0,102,0,0,0,0,0,0,0,0,0,0,0,0,0,0,0,0
TC,Turks and Caicos Islands,country,Latin America and the Caribbean,21.694025,-71.797928,AZ,Azerbaijan,country,Europe and Central Asia,40.143105,47.576927,10722.418317582,2002,0,0,0,0,0,0,0,0,0,0,0,0,0,0,0,0,0,0,0,0,0,0,0,0
UA,Ukraine,country,Europe and Central Asia,48.379433,31.16558,AZ,Azerbaijan,country,Europe and Central Asia,40.143105,47.576927,1592.28795630754,2002,85208,7074,202,59522,68,22,0,64,238,0,0,3018,3882,14,7478,404,0,284,2938,0,0,0,0,0
AE,United Arab Emirates,country,Middle East and North Africa,23.424076,53.847818,AZ,Azerbaijan,country,Europe and Central Asia,40.143105,47.576927,1952.05237367175,2002,1432,457,4,205,0,7,8,39,15,0,14,0,10,8,92,1,0,144,428,0,0,0,0,0
GB,United Kingdom,country,Europe and Central Asia,55.378051,-3.435973,AZ,Azerbaijan,country,Europe and Central Asia,40.143105,47.576927,4063.91844956798,2002,77,23,0,1,1,0,0,14,1,0,6,0,1,19,0,11,0,0,0,0,0,0,0,0
TZ,Tanzania,country,Sub-Saharan Africa,-6.369028,34.888822,AZ,Azerbaijan,country,Europe and Central Asia,40.143105,47.576927,5338.88709788169,2002,257,0,0,0,0,0,0,0,0,0,0,0,0,257,0,0,0,0,0,0,0,0,0,0
US,USA,country,North America,37.09024,-95.712891,AZ,Azerbaijan,country,Europe and Central Asia,40.143105,47.576927,10657.9097561196,2002,39352,24385,0,2,250,0,0,247,8,4,0,0,1,524,1203,0,0,12626,102,0,0,0,0,0
UY,Uruguay,country,Latin America and the Caribbean,-32.522779,-55.765835,AZ,Azerbaijan,country,Europe and Central Asia,40.143105,47.576927,13324.2233938634,2002,689,0,0,0,0,0,0,0,0,0,0,0,0,0,0,0,0,0,689,0,0,0,0,0
UZ,Uzbekistan,country,Europe and Central Asia,41.377491,64.585262,AZ,Azerbaijan,country,Europe and Central Asia,40.143105,47.576927,1438.35457142921,2002,4809,0,0,0,625,63,435,0,117,0,0,3569,0,0,0,0,0,0,0,0,0,0,0,0
VN,Vietnam,country,East Asia and Pacific,14.058324,108.277199,AZ,Azerbaijan,country,Europe and Central Asia,40.143105,47.576927,6534.61525908746,2002,0,0,0,0,0,0,0,0,0,0,0,0,0,0,0,0,0,0,0,0,0,0,0,0
ZW,Zimbabwe,country,Sub-Saharan Africa,-19.015438,29.154857,AZ,Azerbaijan,country,Europe and Central Asia,40.143105,47.576927,6857.25394235006,2002,1237,0,0,0,0,0,0,0,0,0,0,0,0,1237,0,0,0,0,0,0,0,0,0,0
AR,Argentina,country,Latin America and the Caribbean,-38.416097,-63.616672,AZ,Azerbaijan,country,Europe and Central Asia,40.143105,47.576927,14260.7740809064,2003,1374,0,0,0,0,0,0,0,959,0,0,365,0,0,0,0,0,0,50,0,0,0,0,0
AU,Australia,country,East Asia and Pacific,-25.274398,133.775136,AZ,Azerbaijan,country,Europe and Central Asia,40.143105,47.576927,11495.1937809082,2003,1449,1,0,0,0,0,0,5,2,0,0,0,0,0,0,1,0,28,1412,0,0,0,0,0
AT,Austria,country,Europe and Central Asia,47.516231,14.550072,AZ,Azerbaijan,country,Europe and Central Asia,40.143105,47.576927,2752.65347053538,2003,3036,2857,0,0,0,0,0,0,77,0,0,3,9,7,0,36,0,47,0,0,0,0,0,0
BY,Belarus,country,Europe and Central Asia,53.709807,27.953389,AZ,Azerbaijan,country,Europe and Central Asia,40.143105,47.576927,2109.17812707878,2003,23,0,0,0,0,0,8,10,1,0,0,0,0,2,2,0,0,0,0,0,0,0,0,0
BE,Belgium,country,Europe and Central Asia,50.503887,4.469936,AZ,Azerbaijan,country,Europe and Central Asia,40.143105,47.576927,3508.77758054185,2003,6432,1135,42,65,0,0,0,69,11,0,0,43,7,2,4970,0,0,88,0,0,0,0,0,0
BR,Brazil,country,Latin America and the Caribbean,-14.235004,-51.92528,AZ,Azerbaijan,country,Europe and Central Asia,40.143105,47.576927,11834.5053527905,2003,33995,11,0,22113,0,0,0,0,11,0,0,803,94,414,7494,0,0,2569,486,0,0,0,0,0
VG,British Virgin Islands,country,Latin America and the Caribbean,18.420695,-64.639968,AZ,Azerbaijan,country,Europe and Central Asia,40.143105,47.576927,10468.878371308,2003,1759,1699,0,0,0,0,0,0,0,0,0,60,0,0,0,0,0,0,0,0,0,0,0,0
BG,Bulgaria,country,Europe and Central Asia,42.733883,25.48583,AZ,Azerbaijan,country,Europe and Central Asia,40.143105,47.576927,1860.48164344104,2003,658,32,0,0,0,0,0,506,4,0,0,0,0,26,0,0,0,0,90,0,0,0,0,0
CA,Canada,country,North America,56.130366,-106.346771,AZ,Azerbaijan,country,Europe and Central Asia,40.143105,47.576927,9041.37895426741,2003,2779,1850,0,14,0,0,0,0,0,0,0,0,0,0,446,0,0,469,0,0,0,0,0,0
CL,Chile,country,Latin America and the Caribbean,-35.675147,-71.542969,AZ,Azerbaijan,country,Europe and Central Asia,40.143105,47.576927,14772.2216608061,2003,78,0,0,0,0,0,0,0,46,0,0,0,0,32,0,0,0,0,0,0,0,0,0,0
CN,China,country,East Asia and Pacific,35.86166,104.195397,AZ,Azerbaijan,country,Europe and Central Asia,40.143105,47.576927,4905.26770568488,2003,162,18,0,0,10,0,1,59,3,0,0,0,4,13,4,0,0,50,0,0,0,0,0,0
TW,Taiwan,country,East Asia and Pacific,23.69781,120.960515,AZ,Azerbaijan,country,Europe and Central Asia,40.143105,47.576927,6975.20351222741,2003,20,20,0,0,0,0,0,0,0,0,0,0,0,0,0,0,0,0,0,0,0,0,0,0
CY,Cyprus,country,Europe and Central Asia,35.126413,33.429859,AZ,Azerbaijan,country,Europe and Central Asia,40.143105,47.576927,1364.37948384163,2003,53,4,0,1,0,0,0,0,0,0,0,0,1,47,0,0,0,0,0,0,0,0,0,0
CZ,Czech Republic,country,Europe and Central Asia,49.817492,15.472962,AZ,Azerbaijan,country,Europe and Central Asia,40.143105,47.576927,2721.24997591005,2003,167,109,0,2,0,0,5,0,0,0,0,0,1,11,0,19,0,0,20,0,0,0,0,0
KP,"Korea, Dem. Rep.",country,East Asia and Pacific,40.339852,127.510093,AZ,Azerbaijan,country,Europe and Central Asia,40.143105,47.576927,6537.02248730529,2003,0,0,0,0,0,0,0,0,0,0,0,0,0,0,0,0,0,0,0,0,0,0,0,0
DK,Denmark,country,Europe and Central Asia,56.26392,9.501785,AZ,Azerbaijan,country,Europe and Central Asia,40.143105,47.576927,3284.17291482072,2003,1130,259,0,0,0,0,0,1,1,0,0,288,6,4,237,0,0,301,33,0,0,0,0,0
EC,Ecuador,country,Latin America and the Caribbean,-1.831239,-78.183406,AZ,Azerbaijan,country,Europe and Central Asia,40.143105,47.576927,13118.6337768537,2003,1529,0,0,0,0,0,0,0,1529,0,0,0,0,0,0,0,0,0,0,0,0,0,0,0
EG,Egypt,country,Middle East and North Africa,26.820553,30.802498,AZ,Azerbaijan,country,Europe and Central Asia,40.143105,47.576927,2143.47166351298,2003,157,157,0,0,0,0,0,0,0,0,0,0,0,0,0,0,0,0,0,0,0,0,0,0
EE,Estonia,country,Europe and Central Asia,58.595272,25.013607,AZ,Azerbaijan,country,Europe and Central Asia,40.143105,47.576927,2599.35171177162,2003,684,7,0,3,0,0,0,0,0,0,0,0,0,653,0,0,0,21,0,0,0,0,0,0
FI,Finland,country,Europe and Central Asia,61.92411,25.748151,AZ,Azerbaijan,country,Europe and Central Asia,40.143105,47.576927,2835.27530346168,2003,24,1,0,1,0,0,0,0,0,0,0,0,4,0,0,0,0,0,18,0,0,0,0,0
FR,France,country,Europe and Central Asia,46.227638,2.213749,AZ,Azerbaijan,country,Europe and Central Asia,40.143105,47.576927,3691.92885948623,2003,4760,106,0,13,0,0,0,2543,184,0,0,0,8,414,73,346,0,1063,10,0,0,0,0,0
GE,Georgia,country,Europe and Central Asia,42.315407,43.356892,AZ,Azerbaijan,country,Europe and Central Asia,40.143105,47.576927,428.050888651498,2003,6701,32,3,4226,0,0,0,0,768,0,0,0,0,13,3,1604,0,3,49,0,0,0,0,0
DE,Germany,country,Europe and Central Asia,51.165691,10.451526,AZ,Azerbaijan,country,Europe and Central Asia,40.143105,47.576927,3097.23243744496,2003,4251,635,59,322,0,0,9,83,418,0,1,0,43,725,25,255,0,48,1628,0,0,0,0,0
GR,Greece,country,Europe and Central Asia,39.074208,21.824312,AZ,Azerbaijan,country,Europe and Central Asia,40.143105,47.576927,2204.08262058151,2003,4285,0,0,0,0,0,0,0,0,0,0,0,0,316,3969,0,0,0,0,0,0,0,0,0
GT,Guatemala,country,Latin America and the Caribbean,15.783471,-90.230759,AZ,Azerbaijan,country,Europe and Central Asia,40.143105,47.576927,12433.7448245411,2003,20,0,0,0,0,0,0,0,0,0,0,0,0,20,0,0,0,0,0,0,0,0,0,0
HU,Hungary,country,Europe and Central Asia,47.162494,19.503304,AZ,Azerbaijan,country,Europe and Central Asia,40.143105,47.576927,2377.05190634764,2003,1811,349,0,0,0,0,0,934,6,0,0,0,53,14,0,0,0,455,0,0,0,0,0,0
IN,India,country,South Asia,20.593684,78.96288,AZ,Azerbaijan,country,Europe and Central Asia,40.143105,47.576927,3685.50875725944,2003,4978,61,0,0,0,0,0,1,0,0,43,0,1867,1088,0,0,0,1918,0,0,0,0,0,0
ID,Indonesia,country,East Asia and Pacific,-0.789275,113.921327,AZ,Azerbaijan,country,Europe and Central Asia,40.143105,47.576927,8090.01170498133,2003,186,0,0,3,0,0,0,0,0,0,0,0,2,0,181,0,0,0,0,0,0,0,0,0
IR,Iran,country,Middle East and North Africa,32.427908,53.688046,AZ,Azerbaijan,country,Europe and Central Asia,40.143105,47.576927,1018.35123776435,2003,55320,6550,16683,2079,39,0,0,14345,5365,0,0,9283,41,442,276,0,1455,0,129,73,15,0,0,0
IQ,Iraq,country,Middle East and North Africa,33.223191,43.679291,AZ,Azerbaijan,country,Europe and Central Asia,40.143105,47.576927,845.018929939421,2003,71,0,0,0,0,0,0,0,0,0,0,0,0,71,0,0,0,0,0,0,0,0,0,0
IE,Ireland,country,Europe and Central Asia,53.41291,-8.24389,AZ,Azerbaijan,country,Europe and Central Asia,40.143105,47.576927,4376.95562615247,2003,585,0,0,0,0,0,0,0,0,0,0,0,0,65,0,34,0,0,486,0,0,0,0,0
IL,Israel,country,Middle East and North Africa,31.046051,34.851612,AZ,Azerbaijan,country,Europe and Central Asia,40.143105,47.576927,1530.83231969651,2003,117,19,0,0,0,0,0,0,98,0,0,0,0,0,0,0,0,0,0,0,0,0,0,0
IT,Italy,country,Europe and Central Asia,41.87194,12.56738,AZ,Azerbaijan,country,Europe and Central Asia,40.143105,47.576927,2926.83770017887,2003,1230,246,0,41,0,0,0,54,64,0,0,0,133,663,23,0,0,5,1,0,0,0,0,0
JP,Japan,country,East Asia and Pacific,36.204824,138.252924,AZ,Azerbaijan,country,Europe and Central Asia,40.143105,47.576927,7577.13514487228,2003,4,0,0,0,0,0,0,0,0,0,0,0,0,4,0,0,0,0,0,0,0,0,0,0
KZ,Kazakhstan,country,Europe and Central Asia,48.019573,66.923684,AZ,Azerbaijan,country,Europe and Central Asia,40.143105,47.576927,1771.11807407358,2003,651335,651048,45,0,15,0,0,71,0,0,0,0,0,156,0,0,0,0,0,0,0,0,0,0
KE,Kenya,country,Sub-Saharan Africa,-0.023559,37.906193,AZ,Azerbaijan,country,Europe and Central Asia,40.143105,47.576927,4577.70513046821,2003,0,0,0,0,0,0,0,0,0,0,0,0,0,0,0,0,0,0,0,0,0,0,0,0
LV,Latvia,country,Europe and Central Asia,56.879635,24.603189,AZ,Azerbaijan,country,Europe and Central Asia,40.143105,47.576927,2494.1647941503,2003,95,4,0,0,0,0,0,33,14,0,0,0,0,0,0,44,0,0,0,0,0,0,0,0
LB,Lebanon,country,Middle East and North Africa,33.854721,35.862285,AZ,Azerbaijan,country,Europe and Central Asia,40.143105,47.576927,1253.16032409148,2003,0,0,0,0,0,0,0,0,0,0,0,0,0,0,0,0,0,0,0,0,0,0,0,0
LY,Libya,country,Middle East and North Africa,26.3351,17.228331,AZ,Azerbaijan,country,Europe and Central Asia,40.143105,47.576927,3193.88944544462,2003,0,0,0,0,0,0,0,0,0,0,0,0,0,0,0,0,0,0,0,0,0,0,0,0
LT,Lithuania,country,Europe and Central Asia,55.169438,23.881275,AZ,Azerbaijan,country,Europe and Central Asia,40.143105,47.576927,2417.95999320652,2003,228,2,0,9,0,8,4,0,17,0,0,55,15,0,0,2,0,2,114,0,0,0,0,0
MY,Malaysia,country,East Asia and Pacific,4.210484,101.975766,AZ,Azerbaijan,country,Europe and Central Asia,40.143105,47.576927,6744.21769174505,2003,1025,0,0,0,0,0,0,1,0,0,0,0,26,7,991,0,0,0,0,0,0,0,0,0
MT,Malta,country,Middle East and North Africa,35.937496,14.375416,AZ,Azerbaijan,country,Europe and Central Asia,40.143105,47.576927,2930.86589314758,2003,0,0,0,0,0,0,0,0,0,0,0,0,0,0,0,0,0,0,0,0,0,0,0,0
MX,Mexico,country,Latin America and the Caribbean,23.634501,-102.552784,AZ,Azerbaijan,country,Europe and Central Asia,40.143105,47.576927,12291.3796872703,2003,18,0,0,0,0,0,0,0,0,0,0,0,0,0,0,18,0,0,0,0,0,0,0,0
MA,Morocco,country,Middle East and North Africa,31.791702,-7.09262,AZ,Azerbaijan,country,Europe and Central Asia,40.143105,47.576927,4934.20140104403,2003,7,0,0,0,0,0,0,0,5,0,0,0,2,0,0,0,0,0,0,0,0,0,0,0
NL,Netherlands,country,Europe and Central Asia,52.132633,5.291266,AZ,Azerbaijan,country,Europe and Central Asia,40.143105,47.576927,3464.22828266153,2003,5028,127,0,228,0,0,0,0,38,0,0,1432,0,0,3015,138,0,0,50,0,0,0,0,0
NZ,New Zealand,country,East Asia and Pacific,-40.900557,174.885971,AZ,Azerbaijan,country,Europe and Central Asia,40.143105,47.576927,15647.4301755373,2003,7125,0,0,0,0,0,0,0,0,0,0,0,0,0,22,0,0,0,7103,0,0,0,0,0
OM,Oman,country,Middle East and North Africa,21.512583,55.923255,AZ,Azerbaijan,country,Europe and Central Asia,40.143105,47.576927,2219.41578165623,2003,0,0,0,0,0,0,0,0,0,0,0,0,0,0,0,0,0,0,0,0,0,0,0,0
PK,Pakistan,country,South Asia,30.375321,69.345116,AZ,Azerbaijan,country,Europe and Central Asia,40.143105,47.576927,2248.97771709702,2003,2291,2275,0,0,0,0,0,16,0,0,0,0,0,0,0,0,0,0,0,0,0,0,0,0
PH,Philippines,country,East Asia and Pacific,12.879721,121.774017,AZ,Azerbaijan,country,Europe and Central Asia,40.143105,47.576927,7760.92945543457,2003,29,0,0,0,0,0,0,0,25,0,0,0,0,4,0,0,0,0,0,0,0,0,0,0
PL,Poland,country,Europe and Central Asia,51.919438,19.145136,AZ,Azerbaijan,country,Europe and Central Asia,40.143105,47.576927,2534.4484127554,2003,3372,1741,563,140,0,0,0,74,28,0,1,0,63,200,266,6,0,270,20,0,0,0,0,0
PT,Portugal,country,Europe and Central Asia,39.399872,-8.224454,AZ,Azerbaijan,country,Europe and Central Asia,40.143105,47.576927,4693.70148760501,2003,176,0,0,0,0,0,0,0,0,0,0,0,0,176,0,0,0,0,0,0,0,0,0,0
KR,"Korea, Rep.",country,East Asia and Pacific,35.907757,127.766922,AZ,Azerbaijan,country,Europe and Central Asia,40.143105,47.576927,6799.31696323287,2003,6,0,0,0,0,0,0,0,0,0,0,0,6,0,0,0,0,0,0,0,0,0,0,0
RO,Romania,country,Europe and Central Asia,45.943161,24.96676,AZ,Azerbaijan,country,Europe and Central Asia,40.143105,47.576927,1941.53805660076,2003,1050,49,0,0,0,0,0,0,0,0,0,0,0,1,1000,0,0,0,0,0,0,0,0,0
RU,Russian Federation,country,Europe and Central Asia,61.52401,105.318756,AZ,Azerbaijan,country,Europe and Central Asia,40.143105,47.576927,4500.29166851173,2003,244692,195063,17329,2899,465,0,74,265,1225,0,0,12569,2011,3220,1248,2644,0,2699,2981,0,0,0,0,0
KN,St. Kitts and Nevis,country,Latin America and the Caribbean,17.357822,-62.782998,AZ,Azerbaijan,country,Europe and Central Asia,40.143105,47.576927,10411.3205989679,2003,136,0,0,51,0,0,0,0,0,0,0,0,0,5,0,0,0,0,80,0,0,0,0,0
SA,Saudi Arabia,country,Middle East and North Africa,23.885942,45.079162,AZ,Azerbaijan,country,Europe and Central Asia,40.143105,47.576927,1824.80775122552,2003,70,0,0,0,0,0,0,0,0,0,0,0,0,0,0,0,0,70,0,0,0,0,0,0
SC,Seychelles,country,Sub-Saharan Africa,-4.679574,55.491977,AZ,Azerbaijan,country,Europe and Central Asia,40.143105,47.576927,5054.97564153605,2003,0,0,0,0,0,0,0,0,0,0,0,0,0,0,0,0,0,0,0,0,0,0,0,0
SG,Singapore,country,East Asia and Pacific,1.352083,103.819836,AZ,Azerbaijan,country,Europe and Central Asia,40.143105,47.576927,7113.79966119796,2003,164,12,0,0,0,0,0,0,0,0,0,0,8,0,143,1,0,0,0,0,0,0,0,0
SK,Slovak Rep.,country,Europe and Central Asia,48.669026,19.699024,AZ,Azerbaijan,country,Europe and Central Asia,40.143105,47.576927,2394.3667521138,2003,614,600,0,0,0,0,0,0,0,0,0,0,0,14,0,0,0,0,0,0,0,0,0,0
SI,Slovenia,country,Europe and Central Asia,46.151241,14.995463,AZ,Azerbaijan,country,Europe and Central Asia,40.143105,47.576927,2708.72324137424,2003,31,3,0,0,0,0,0,0,0,0,0,0,0,28,0,0,0,0,0,0,0,0,0,0
ZA,S. Africa,country,Sub-Saharan Africa,-30.559482,22.937506,AZ,Azerbaijan,country,Europe and Central Asia,40.143105,47.576927,8271.45803791728,2003,498,0,0,0,0,0,3,0,495,0,0,0,0,0,0,0,0,0,0,0,0,0,0,0
ES,Spain,country,Europe and Central Asia,40.463667,-3.74922,AZ,Azerbaijan,country,Europe and Central Asia,40.143105,47.576927,4293.8745295562,2003,9758,0,0,0,0,0,6,8,2,0,0,0,0,147,9439,7,0,149,0,0,0,0,0,0
LK,Sri Lanka,country,South Asia,7.873054,80.771797,AZ,Azerbaijan,country,Europe and Central Asia,40.143105,47.576927,4873.85087234324,2003,2278,0,0,0,0,0,0,0,0,0,0,0,2278,0,0,0,0,0,0,0,0,0,0,0
SE,Sweden,country,Europe and Central Asia,60.128161,18.643501,AZ,Azerbaijan,country,Europe and Central Asia,40.143105,47.576927,2987.97954051659,2003,0,0,0,0,0,0,0,0,0,0,0,0,0,0,0,0,0,0,0,0,0,0,0,0
CH,Switzerland,country,Europe and Central Asia,46.818188,8.227512,AZ,Azerbaijan,country,Europe and Central Asia,40.143105,47.576927,3228.16147297209,2003,520,135,0,0,0,0,0,10,0,0,0,0,29,322,0,0,0,0,24,0,0,0,0,0
SY,Syrian Arab Rep.,country,Middle East and North Africa,34.802075,38.996815,AZ,Azerbaijan,country,Europe and Central Asia,40.143105,47.576927,962.586943096407,2003,242,0,0,0,0,0,0,0,2,0,0,0,2,238,0,0,0,0,0,0,0,0,0,0
TJ,Tajikistan,country,Europe and Central Asia,38.861034,71.276093,AZ,Azerbaijan,country,Europe and Central Asia,40.143105,47.576927,2034.57876665745,2003,41,0,0,0,0,1,0,0,40,0,0,0,0,0,0,0,0,0,0,0,0,0,0,0
TH,Thailand,country,East Asia and Pacific,15.870032,100.992541,AZ,Azerbaijan,country,Europe and Central Asia,40.143105,47.576927,5797.68596314424,2003,12385,9592,0,2746,0,0,1,4,31,0,0,0,0,9,0,0,0,0,2,0,0,0,0,0
TN,Tunisia,country,Middle East and North Africa,33.886917,9.537499,AZ,Azerbaijan,country,Europe and Central Asia,40.143105,47.576927,3425.03078141929,2003,0,0,0,0,0,0,0,0,0,0,0,0,0,0,0,0,0,0,0,0,0,0,0,0
TR,Turkey,country,Europe and Central Asia,38.963745,35.243322,AZ,Azerbaijan,country,Europe and Central Asia,40.143105,47.576927,1065.83179986328,2003,102844,9089,38535,31183,7,1,178,11382,1825,1,7,2969,819,3359,917,411,609,1735,426,0,0,0,0,0
TM,Turkmenistan,country,Europe and Central Asia,38.969719,59.556278,AZ,Azerbaijan,country,Europe and Central Asia,40.143105,47.576927,1035.60743533656,2003,1672,0,0,0,0,0,0,0,0,1672,0,0,0,0,0,0,0,0,0,0,0,0,0,0
TC,Turks and Caicos Islands,country,Latin America and the Caribbean,21.694025,-71.797928,AZ,Azerbaijan,country,Europe and Central Asia,40.143105,47.576927,10722.418317582,2003,0,0,0,0,0,0,0,0,0,0,0,0,0,0,0,0,0,0,0,0,0,0,0,0
TV,Tuvalu,country,East Asia and Pacific,-7.109535,177.64933,AZ,Azerbaijan,country,Europe and Central Asia,40.143105,47.576927,13872.5379069724,2003,14,0,0,0,0,0,0,0,0,0,0,0,0,14,0,0,0,0,0,0,0,0,0,0
UA,Ukraine,country,Europe and Central Asia,48.379433,31.16558,AZ,Azerbaijan,country,Europe and Central Asia,40.143105,47.576927,1592.28795630754,2003,116563,7510,67,77795,0,0,0,241,1402,0,0,945,6802,89,17170,277,0,476,3789,0,0,0,0,0
AE,United Arab Emirates,country,Middle East and North Africa,23.424076,53.847818,AZ,Azerbaijan,country,Europe and Central Asia,40.143105,47.576927,1952.05237367175,2003,8518,34,0,8352,1,0,1,4,6,0,15,0,17,10,6,2,0,70,0,0,0,0,0,0
GB,United Kingdom,country,Europe and Central Asia,55.378051,-3.435973,AZ,Azerbaijan,country,Europe and Central Asia,40.143105,47.576927,4063.91844956798,2003,255,29,0,32,8,0,0,23,5,25,2,0,1,24,0,4,0,0,102,0,0,0,0,0
TZ,Tanzania,country,Sub-Saharan Africa,-6.369028,34.888822,AZ,Azerbaijan,country,Europe and Central Asia,40.143105,47.576927,5338.88709788169,2003,18,0,0,0,0,0,0,0,0,0,0,0,0,18,0,0,0,0,0,0,0,0,0,0
US,USA,country,North America,37.09024,-95.712891,AZ,Azerbaijan,country,Europe and Central Asia,40.143105,47.576927,10657.9097561196,2003,35787,2538,0,1,38,1,0,1,38,102,0,11346,0,418,2926,0,0,16754,1624,0,0,0,0,0
UY,Uruguay,country,Latin America and the Caribbean,-32.522779,-55.765835,AZ,Azerbaijan,country,Europe and Central Asia,40.143105,47.576927,13324.2233938634,2003,100,0,0,0,0,0,0,0,0,0,0,0,0,0,0,0,0,0,100,0,0,0,0,0
UZ,Uzbekistan,country,Europe and Central Asia,41.377491,64.585262,AZ,Azerbaijan,country,Europe and Central Asia,40.143105,47.576927,1438.35457142921,2003,2170,0,0,6,57,68,383,2,187,400,0,1056,0,0,0,4,0,0,7,0,0,0,0,0
VN,Vietnam,country,East Asia and Pacific,14.058324,108.277199,AZ,Azerbaijan,country,Europe and Central Asia,40.143105,47.576927,6534.61525908746,2003,145,0,0,0,0,0,6,0,16,0,17,0,106,0,0,0,0,0,0,0,0,0,0,0
ZW,Zimbabwe,country,Sub-Saharan Africa,-19.015438,29.154857,AZ,Azerbaijan,country,Europe and Central Asia,40.143105,47.576927,6857.25394235006,2003,614,0,0,0,0,0,0,0,0,0,0,0,0,614,0,0,0,0,0,0,0,0,0,0
AR,Argentina,country,Latin America and the Caribbean,-38.416097,-63.616672,AZ,Azerbaijan,country,Europe and Central Asia,40.143105,47.576927,14260.7740809064,2004,1127,591,0,0,0,0,0,0,307,0,0,210,0,19,0,0,0,0,0,0,0,0,0,0
AU,Australia,country,East Asia and Pacific,-25.274398,133.775136,AZ,Azerbaijan,country,Europe and Central Asia,40.143105,47.576927,11495.1937809082,2004,869,0,0,0,0,0,0,0,49,0,0,0,0,0,0,0,0,71,749,0,0,0,0,0
AT,Austria,country,Europe and Central Asia,47.516231,14.550072,AZ,Azerbaijan,country,Europe and Central Asia,40.143105,47.576927,2752.65347053538,2004,3980,3212,0,0,0,0,0,0,680,0,3,1,10,12,0,62,0,0,0,0,0,0,0,0
BD,Bangladesh,country,South Asia,23.684994,90.356331,AZ,Azerbaijan,country,Europe and Central Asia,40.143105,47.576927,4385.35451970349,2004,125,0,0,0,0,0,0,0,0,0,0,0,0,125,0,0,0,0,0,0,0,0,0,0
BY,Belarus,country,Europe and Central Asia,53.709807,27.953389,AZ,Azerbaijan,country,Europe and Central Asia,40.143105,47.576927,2109.17812707878,2004,415,52,244,37,0,0,0,30,0,0,0,0,38,1,0,0,0,0,13,0,0,0,0,0
BE,Belgium,country,Europe and Central Asia,50.503887,4.469936,AZ,Azerbaijan,country,Europe and Central Asia,40.143105,47.576927,3508.77758054185,2004,1837,1079,44,0,0,0,0,52,11,0,0,30,55,0,313,0,0,109,144,0,0,0,0,0
BR,Brazil,country,Latin America and the Caribbean,-14.235004,-51.92528,AZ,Azerbaijan,country,Europe and Central Asia,40.143105,47.576927,11834.5053527905,2004,40106,17,0,22063,0,0,0,0,19,0,0,4957,84,638,5778,0,0,6474,76,0,0,0,0,0
BG,Bulgaria,country,Europe and Central Asia,42.733883,25.48583,AZ,Azerbaijan,country,Europe and Central Asia,40.143105,47.576927,1860.48164344104,2004,711,9,0,18,0,1,0,569,14,0,0,0,0,0,0,6,0,50,44,0,0,0,0,0
CA,Canada,country,North America,56.130366,-106.346771,AZ,Azerbaijan,country,Europe and Central Asia,40.143105,47.576927,9041.37895426741,2004,2278,1671,0,0,27,0,1,76,0,0,0,0,0,0,350,0,0,153,0,0,0,0,0,0
CL,Chile,country,Latin America and the Caribbean,-35.675147,-71.542969,AZ,Azerbaijan,country,Europe and Central Asia,40.143105,47.576927,14772.2216608061,2004,140,0,0,0,0,0,0,0,116,0,0,0,0,0,24,0,0,0,0,0,0,0,0,0
CN,China,country,East Asia and Pacific,35.86166,104.195397,AZ,Azerbaijan,country,Europe and Central Asia,40.143105,47.576927,4905.26770568488,2004,868,512,0,114,0,2,3,6,87,0,0,0,1,27,0,1,0,115,0,0,0,0,0,0
TW,Taiwan,country,East Asia and Pacific,23.69781,120.960515,AZ,Azerbaijan,country,Europe and Central Asia,40.143105,47.576927,6975.20351222741,2004,3,0,0,0,0,0,0,0,3,0,0,0,0,0,0,0,0,0,0,0,0,0,0,0
CO,Colombia,country,Latin America and the Caribbean,4.570868,-74.297333,AZ,Azerbaijan,country,Europe and Central Asia,40.143105,47.576927,12306.2341284045,2004,363,0,0,0,0,0,0,0,363,0,0,0,0,0,0,0,0,0,0,0,0,0,0,0
CR,Costa Rica,country,Latin America and the Caribbean,9.748917,-83.753428,AZ,Azerbaijan,country,Europe and Central Asia,40.143105,47.576927,12562.7927963138,2004,10,0,0,0,0,0,3,0,7,0,0,0,0,0,0,0,0,0,0,0,0,0,0,0
HR,Croatia,country,Europe and Central Asia,45.1,15.2,AZ,Azerbaijan,country,Europe and Central Asia,40.143105,47.576927,2689.93732989714,2004,10,0,0,0,0,0,0,0,0,0,0,10,0,0,0,0,0,0,0,0,0,0,0,0
CU,Cuba,country,Latin America and the Caribbean,21.521757,-77.781167,AZ,Azerbaijan,country,Europe and Central Asia,40.143105,47.576927,11140.7994093848,2004,0,0,0,0,0,0,0,0,0,0,0,0,0,0,0,0,0,0,0,0,0,0,0,0
CY,Cyprus,country,Europe and Central Asia,35.126413,33.429859,AZ,Azerbaijan,country,Europe and Central Asia,40.143105,47.576927,1364.37948384163,2004,26,20,0,0,0,0,0,0,0,0,0,0,0,0,0,0,0,0,6,0,0,0,0,0
CZ,Czech Republic,country,Europe and Central Asia,49.817492,15.472962,AZ,Azerbaijan,country,Europe and Central Asia,40.143105,47.576927,2721.24997591005,2004,34,0,0,1,0,0,0,0,1,0,0,0,0,0,0,32,0,0,0,0,0,0,0,0
DK,Denmark,country,Europe and Central Asia,56.26392,9.501785,AZ,Azerbaijan,country,Europe and Central Asia,40.143105,47.576927,3284.17291482072,2004,472,50,0,0,0,0,0,0,0,0,0,0,0,0,0,1,0,343,78,0,0,0,0,0
EC,Ecuador,country,Latin America and the Caribbean,-1.831239,-78.183406,AZ,Azerbaijan,country,Europe and Central Asia,40.143105,47.576927,13118.6337768537,2004,4324,0,0,0,0,0,0,0,4324,0,0,0,0,0,0,0,0,0,0,0,0,0,0,0
EG,Egypt,country,Middle East and North Africa,26.820553,30.802498,AZ,Azerbaijan,country,Europe and Central Asia,40.143105,47.576927,2143.47166351298,2004,26,0,0,0,0,0,0,0,24,0,0,0,0,0,2,0,0,0,0,0,0,0,0,0
FI,Finland,country,Europe and Central Asia,61.92411,25.748151,AZ,Azerbaijan,country,Europe and Central Asia,40.143105,47.576927,2835.27530346168,2004,22,2,0,0,0,0,0,0,0,0,0,0,0,0,0,0,0,0,20,0,0,0,0,0
FR,France,country,Europe and Central Asia,46.227638,2.213749,AZ,Azerbaijan,country,Europe and Central Asia,40.143105,47.576927,3691.92885948623,2004,4346,0,0,31,0,0,0,2311,177,0,0,0,11,848,0,369,0,545,54,0,0,0,0,0
GE,Georgia,country,Europe and Central Asia,42.315407,43.356892,AZ,Azerbaijan,country,Europe and Central Asia,40.143105,47.576927,428.050888651498,2004,15595,12,350,12799,0,0,37,0,142,0,0,48,0,0,0,2196,0,0,11,0,0,0,0,0
DE,Germany,country,Europe and Central Asia,51.165691,10.451526,AZ,Azerbaijan,country,Europe and Central Asia,40.143105,47.576927,3097.23243744496,2004,3198,392,0,54,1,2,2,29,253,0,0,193,71,446,6,258,128,89,1402,0,0,0,0,0
GR,Greece,country,Europe and Central Asia,39.074208,21.824312,AZ,Azerbaijan,country,Europe and Central Asia,40.143105,47.576927,2204.08262058151,2004,559,21,0,0,0,0,0,0,38,0,0,0,18,482,0,0,0,0,0,0,0,0,0,0
HN,Honduras,country,Latin America and the Caribbean,15.199999,-86.241905,AZ,Azerbaijan,country,Europe and Central Asia,40.143105,47.576927,12243.1864414381,2004,1,0,0,0,0,0,0,1,0,0,0,0,0,0,0,0,0,0,0,0,0,0,0,0
HU,Hungary,country,Europe and Central Asia,47.162494,19.503304,AZ,Azerbaijan,country,Europe and Central Asia,40.143105,47.576927,2377.05190634764,2004,2720,1203,0,1,0,0,0,838,86,0,0,3,51,4,355,0,0,179,0,0,0,0,0,0
IN,India,country,South Asia,20.593684,78.96288,AZ,Azerbaijan,country,Europe and Central Asia,40.143105,47.576927,3685.50875725944,2004,7293,18,0,17,0,10,19,5,0,0,43,0,4747,466,0,0,0,1968,0,0,0,0,0,0
ID,Indonesia,country,East Asia and Pacific,-0.789275,113.921327,AZ,Azerbaijan,country,Europe and Central Asia,40.143105,47.576927,8090.01170498133,2004,485,0,0,1,0,0,13,0,0,0,0,0,29,0,442,0,0,0,0,0,0,0,0,0
IR,Iran,country,Middle East and North Africa,32.427908,53.688046,AZ,Azerbaijan,country,Europe and Central Asia,40.143105,47.576927,1018.35123776435,2004,43754,13910,11434,2730,9,6,336,5975,3655,0,1,3430,70,839,843,0,1640,0,456,37,23,0,0,0
IQ,Iraq,country,Middle East and North Africa,33.223191,43.679291,AZ,Azerbaijan,country,Europe and Central Asia,40.143105,47.576927,845.018929939421,2004,25,0,0,0,0,0,0,0,0,0,0,0,0,25,0,0,0,0,0,0,0,0,0,0
IE,Ireland,country,Europe and Central Asia,53.41291,-8.24389,AZ,Azerbaijan,country,Europe and Central Asia,40.143105,47.576927,4376.95562615247,2004,884,0,0,0,0,0,0,0,0,0,0,0,0,17,0,35,0,0,832,0,0,0,0,0
IL,Israel,country,Middle East and North Africa,31.046051,34.851612,AZ,Azerbaijan,country,Europe and Central Asia,40.143105,47.576927,1530.83231969651,2004,55,20,0,0,0,0,1,0,5,0,0,0,8,21,0,0,0,0,0,0,0,0,0,0
IT,Italy,country,Europe and Central Asia,41.87194,12.56738,AZ,Azerbaijan,country,Europe and Central Asia,40.143105,47.576927,2926.83770017887,2004,4120,636,0,1765,0,0,0,59,405,0,0,0,184,1036,22,11,0,1,1,0,0,0,0,0
JP,Japan,country,East Asia and Pacific,36.204824,138.252924,AZ,Azerbaijan,country,Europe and Central Asia,40.143105,47.576927,7577.13514487228,2004,4,0,0,0,0,0,0,0,0,0,0,0,0,3,0,0,0,0,1,0,0,0,0,0
KZ,Kazakhstan,country,Europe and Central Asia,48.019573,66.923684,AZ,Azerbaijan,country,Europe and Central Asia,40.143105,47.576927,1771.11807407358,2004,447505,446806,141,0,0,0,0,352,0,0,0,0,4,202,0,0,0,0,0,0,0,0,0,0
KE,Kenya,country,Sub-Saharan Africa,-0.023559,37.906193,AZ,Azerbaijan,country,Europe and Central Asia,40.143105,47.576927,4577.70513046821,2004,299,0,0,0,0,0,0,0,4,0,0,0,0,295,0,0,0,0,0,0,0,0,0,0
KG,Kyrgyz Rep.,country,Europe and Central Asia,41.20438,74.766098,AZ,Azerbaijan,country,Europe and Central Asia,40.143105,47.576927,2289.22478548816,2004,80,0,60,0,0,20,0,0,0,0,0,0,0,0,0,0,0,0,0,0,0,0,0,0
LV,Latvia,country,Europe and Central Asia,56.879635,24.603189,AZ,Azerbaijan,country,Europe and Central Asia,40.143105,47.576927,2494.1647941503,2004,256,3,0,0,0,0,0,73,8,0,0,0,0,0,0,0,0,0,172,0,0,0,0,0
LT,Lithuania,country,Europe and Central Asia,55.169438,23.881275,AZ,Azerbaijan,country,Europe and Central Asia,40.143105,47.576927,2417.95999320652,2004,64,0,0,15,0,0,0,0,0,0,0,4,2,0,0,2,0,0,41,0,0,0,0,0
MY,Malaysia,country,East Asia and Pacific,4.210484,101.975766,AZ,Azerbaijan,country,Europe and Central Asia,40.143105,47.576927,6744.21769174505,2004,2391,0,0,0,0,0,0,20,0,0,0,0,21,12,2338,0,0,0,0,0,0,0,0,0
ML,Mali,country,Sub-Saharan Africa,17.570692,-3.996166,AZ,Azerbaijan,country,Europe and Central Asia,40.143105,47.576927,5526.08083059694,2004,0,0,0,0,0,0,0,0,0,0,0,0,0,0,0,0,0,0,0,0,0,0,0,0
MX,Mexico,country,Latin America and the Caribbean,23.634501,-102.552784,AZ,Azerbaijan,country,Europe and Central Asia,40.143105,47.576927,12291.3796872703,2004,12,0,0,0,0,0,0,0,0,0,0,0,0,0,0,12,0,0,0,0,0,0,0,0
MA,Morocco,country,Middle East and North Africa,31.791702,-7.09262,AZ,Azerbaijan,country,Europe and Central Asia,40.143105,47.576927,4934.20140104403,2004,54,0,0,0,0,0,0,0,54,0,0,0,0,0,0,0,0,0,0,0,0,0,0,0
NA,Namibia,country,Sub-Saharan Africa,-22.95764,18.49041,AZ,Azerbaijan,country,Europe and Central Asia,40.143105,47.576927,7644.89558118431,2004,1,0,0,0,0,0,0,0,1,0,0,0,0,0,0,0,0,0,0,0,0,0,0,0
NL,Netherlands,country,Europe and Central Asia,52.132633,5.291266,AZ,Azerbaijan,country,Europe and Central Asia,40.143105,47.576927,3464.22828266153,2004,828,46,20,345,0,0,3,0,71,0,0,110,6,42,0,23,0,25,137,0,0,0,0,0
NZ,New Zealand,country,East Asia and Pacific,-40.900557,174.885971,AZ,Azerbaijan,country,Europe and Central Asia,40.143105,47.576927,15647.4301755373,2004,8466,1029,0,0,0,0,0,49,0,0,0,0,0,0,11,0,0,0,7377,0,0,0,0,0
NO,Norway,country,Europe and Central Asia,60.472024,8.468946,AZ,Azerbaijan,country,Europe and Central Asia,40.143105,47.576927,3498.43040418108,2004,31,0,0,0,0,0,0,0,0,0,0,0,0,0,0,0,0,0,31,0,0,0,0,0
OM,Oman,country,Middle East and North Africa,21.512583,55.923255,AZ,Azerbaijan,country,Europe and Central Asia,40.143105,47.576927,2219.41578165623,2004,0,0,0,0,0,0,0,0,0,0,0,0,0,0,0,0,0,0,0,0,0,0,0,0
PK,Pakistan,country,South Asia,30.375321,69.345116,AZ,Azerbaijan,country,Europe and Central Asia,40.143105,47.576927,2248.97771709702,2004,1426,1426,0,0,0,0,0,0,0,0,0,0,0,0,0,0,0,0,0,0,0,0,0,0
PE,Peru,country,Latin America and the Caribbean,-9.189967,-75.015152,AZ,Azerbaijan,country,Europe and Central Asia,40.143105,47.576927,13428.1253967692,2004,0,0,0,0,0,0,0,0,0,0,0,0,0,0,0,0,0,0,0,0,0,0,0,0
PH,Philippines,country,East Asia and Pacific,12.879721,121.774017,AZ,Azerbaijan,country,Europe and Central Asia,40.143105,47.576927,7760.92945543457,2004,120,6,0,0,0,0,0,0,0,0,0,0,5,109,0,0,0,0,0,0,0,0,0,0
PL,Poland,country,Europe and Central Asia,51.919438,19.145136,AZ,Azerbaijan,country,Europe and Central Asia,40.143105,47.576927,2534.4484127554,2004,3231,1721,114,178,0,2,1,124,3,0,0,0,265,62,102,0,0,654,5,0,0,0,0,0
PT,Portugal,country,Europe and Central Asia,39.399872,-8.224454,AZ,Azerbaijan,country,Europe and Central Asia,40.143105,47.576927,4693.70148760501,2004,3776,0,0,0,0,0,0,0,0,0,0,0,0,0,3776,0,0,0,0,0,0,0,0,0
KR,"Korea, Rep.",country,East Asia and Pacific,35.907757,127.766922,AZ,Azerbaijan,country,Europe and Central Asia,40.143105,47.576927,6799.31696323287,2004,6,0,0,0,0,0,0,0,0,0,0,0,6,0,0,0,0,0,0,0,0,0,0,0
MD,Moldova,country,Europe and Central Asia,47.411631,28.369885,AZ,Azerbaijan,country,Europe and Central Asia,40.143105,47.576927,1736.44883725284,2004,2971,0,0,0,0,0,0,0,0,0,0,0,0,0,2971,0,0,0,0,0,0,0,0,0
RO,Romania,country,Europe and Central Asia,45.943161,24.96676,AZ,Azerbaijan,country,Europe and Central Asia,40.143105,47.576927,1941.53805660076,2004,5708,0,0,0,0,20,0,0,0,0,0,0,0,0,5686,2,0,0,0,0,0,0,0,0
RU,Russian Federation,country,Europe and Central Asia,61.52401,105.318756,AZ,Azerbaijan,country,Europe and Central Asia,40.143105,47.576927,4500.29166851173,2004,669985,537777,17174,64207,612,0,504,3441,1607,0,7,21299,2747,3986,7186,4145,0,1413,3880,0,0,0,0,0
SA,Saudi Arabia,country,Middle East and North Africa,23.885942,45.079162,AZ,Azerbaijan,country,Europe and Central Asia,40.143105,47.576927,1824.80775122552,2004,33,0,0,0,0,0,0,0,0,0,0,0,0,0,0,0,0,33,0,0,0,0,0,0
SG,Singapore,country,East Asia and Pacific,1.352083,103.819836,AZ,Azerbaijan,country,Europe and Central Asia,40.143105,47.576927,7113.79966119796,2004,238,32,0,0,0,0,0,0,0,0,0,0,86,0,120,0,0,0,0,0,0,0,0,0
SK,Slovak Rep.,country,Europe and Central Asia,48.669026,19.699024,AZ,Azerbaijan,country,Europe and Central Asia,40.143105,47.576927,2394.3667521138,2004,600,600,0,0,0,0,0,0,0,0,0,0,0,0,0,0,0,0,0,0,0,0,0,0
SI,Slovenia,country,Europe and Central Asia,46.151241,14.995463,AZ,Azerbaijan,country,Europe and Central Asia,40.143105,47.576927,2708.72324137424,2004,24,10,0,0,0,0,0,0,0,0,0,0,0,14,0,0,0,0,0,0,0,0,0,0
ZA,S. Africa,country,Sub-Saharan Africa,-30.559482,22.937506,AZ,Azerbaijan,country,Europe and Central Asia,40.143105,47.576927,8271.45803791728,2004,149,30,0,0,0,0,2,1,96,0,0,0,0,20,0,0,0,0,0,0,0,0,0,0
ES,Spain,country,Europe and Central Asia,40.463667,-3.74922,AZ,Azerbaijan,country,Europe and Central Asia,40.143105,47.576927,4293.8745295562,2004,7555,108,0,0,0,0,11,17,6,0,0,0,25,149,7104,0,0,135,0,0,0,0,0,0
LK,Sri Lanka,country,South Asia,7.873054,80.771797,AZ,Azerbaijan,country,Europe and Central Asia,40.143105,47.576927,4873.85087234324,2004,4477,0,0,0,0,0,1,0,0,0,0,0,4476,0,0,0,0,0,0,0,0,0,0,0
SE,Sweden,country,Europe and Central Asia,60.128161,18.643501,AZ,Azerbaijan,country,Europe and Central Asia,40.143105,47.576927,2987.97954051659,2004,112,0,0,112,0,0,0,0,0,0,0,0,0,0,0,0,0,0,0,0,0,0,0,0
CH,Switzerland,country,Europe and Central Asia,46.818188,8.227512,AZ,Azerbaijan,country,Europe and Central Asia,40.143105,47.576927,3228.16147297209,2004,597,138,0,0,0,0,0,0,0,0,0,0,14,421,0,0,0,0,24,0,0,0,0,0
SY,Syrian Arab Rep.,country,Middle East and North Africa,34.802075,38.996815,AZ,Azerbaijan,country,Europe and Central Asia,40.143105,47.576927,962.586943096407,2004,254,0,0,0,0,0,0,0,0,0,0,0,0,254,0,0,0,0,0,0,0,0,0,0
TJ,Tajikistan,country,Europe and Central Asia,38.861034,71.276093,AZ,Azerbaijan,country,Europe and Central Asia,40.143105,47.576927,2034.57876665745,2004,120,0,0,0,0,0,0,120,0,0,0,0,0,0,0,0,0,0,0,0,0,0,0,0
TH,Thailand,country,East Asia and Pacific,15.870032,100.992541,AZ,Azerbaijan,country,Europe and Central Asia,40.143105,47.576927,5797.68596314424,2004,7824,7261,0,0,0,0,12,1,54,0,0,0,16,461,0,0,0,19,0,0,0,0,0,0
MK,Macedonia,country,Europe and Central Asia,41.608635,21.745275,AZ,Azerbaijan,country,Europe and Central Asia,40.143105,47.576927,2172.27103844152,2004,8,0,0,0,0,0,0,8,0,0,0,0,0,0,0,0,0,0,0,0,0,0,0,0
TN,Tunisia,country,Middle East and North Africa,33.886917,9.537499,AZ,Azerbaijan,country,Europe and Central Asia,40.143105,47.576927,3425.03078141929,2004,0,0,0,0,0,0,0,0,0,0,0,0,0,0,0,0,0,0,0,0,0,0,0,0
TR,Turkey,country,Europe and Central Asia,38.963745,35.243322,AZ,Azerbaijan,country,Europe and Central Asia,40.143105,47.576927,1065.83179986328,2004,39880,12838,3397,9727,10,9,642,492,2424,0,12,286,685,3414,2221,619,474,2272,832,0,0,0,0,0
TM,Turkmenistan,country,Europe and Central Asia,38.969719,59.556278,AZ,Azerbaijan,country,Europe and Central Asia,40.143105,47.576927,1035.60743533656,2004,161,0,0,0,0,0,0,90,0,71,0,0,0,0,0,0,0,0,0,0,0,0,0,0
UA,Ukraine,country,Europe and Central Asia,48.379433,31.16558,AZ,Azerbaijan,country,Europe and Central Asia,40.143105,47.576927,1592.28795630754,2004,107647,17358,0,47890,68,464,0,899,6569,0,0,4200,9801,2013,11191,515,190,65,6614,0,0,0,0,0
AE,United Arab Emirates,country,Middle East and North Africa,23.424076,53.847818,AZ,Azerbaijan,country,Europe and Central Asia,40.143105,47.576927,1952.05237367175,2004,2628,396,5,1623,0,0,7,149,2,0,17,0,52,49,23,4,0,251,50,0,0,0,0,0
GB,United Kingdom,country,Europe and Central Asia,55.378051,-3.435973,AZ,Azerbaijan,country,Europe and Central Asia,40.143105,47.576927,4063.91844956798,2004,277,23,0,46,0,0,0,47,8,0,8,0,7,37,0,5,0,0,96,0,0,0,0,0
US,USA,country,North America,37.09024,-95.712891,AZ,Azerbaijan,country,Europe and Central Asia,40.143105,47.576927,10657.9097561196,2004,68758,31108,0,5,735,59,0,13,43,38,0,6040,0,517,13603,1,0,16390,206,0,0,0,0,0
UZ,Uzbekistan,country,Europe and Central Asia,41.377491,64.585262,AZ,Azerbaijan,country,Europe and Central Asia,40.143105,47.576927,1438.35457142921,2004,166491,162935,0,0,584,222,685,1391,620,54,0,0,0,0,0,0,0,0,0,0,0,0,0,0
VN,Vietnam,country,East Asia and Pacific,14.058324,108.277199,AZ,Azerbaijan,country,Europe and Central Asia,40.143105,47.576927,6534.61525908746,2004,403,300,0,0,0,0,0,0,0,0,2,0,101,0,0,0,0,0,0,0,0,0,0,0
ZW,Zimbabwe,country,Sub-Saharan Africa,-19.015438,29.154857,AZ,Azerbaijan,country,Europe and Central Asia,40.143105,47.576927,6857.25394235006,2004,608,0,0,0,0,0,0,0,0,0,0,0,0,608,0,0,0,0,0,0,0,0,0,0
AR,Argentina,country,Latin America and the Caribbean,-38.416097,-63.616672,AZ,Azerbaijan,country,Europe and Central Asia,40.143105,47.576927,14260.7740809064,2005,2036,1,0,2,0,0,0,0,66,0,0,1791,0,126,0,0,0,50,0,0,0,0,0,0
AU,Australia,country,East Asia and Pacific,-25.274398,133.775136,AZ,Azerbaijan,country,Europe and Central Asia,40.143105,47.576927,11495.1937809082,2005,714,1,0,0,0,0,0,2,95,0,0,0,0,0,0,0,0,198,418,0,0,0,0,0
AT,Austria,country,Europe and Central Asia,47.516231,14.550072,AZ,Azerbaijan,country,Europe and Central Asia,40.143105,47.576927,2752.65347053538,2005,4816,4012,0,0,0,0,0,0,664,0,0,0,7,10,0,123,0,0,0,0,0,0,0,0
BD,Bangladesh,country,South Asia,23.684994,90.356331,AZ,Azerbaijan,country,Europe and Central Asia,40.143105,47.576927,4385.35451970349,2005,58,0,0,0,0,0,0,0,0,0,0,0,0,58,0,0,0,0,0,0,0,0,0,0
BY,Belarus,country,Europe and Central Asia,53.709807,27.953389,AZ,Azerbaijan,country,Europe and Central Asia,40.143105,47.576927,2109.17812707878,2005,724,85,0,127,0,0,0,0,20,0,0,0,109,4,0,0,0,0,379,0,0,0,0,0
BE,Belgium,country,Europe and Central Asia,50.503887,4.469936,AZ,Azerbaijan,country,Europe and Central Asia,40.143105,47.576927,3508.77758054185,2005,1349,47,88,186,2,0,0,175,107,0,0,115,59,1,2,22,0,110,435,0,0,0,0,0
BR,Brazil,country,Latin America and the Caribbean,-14.235004,-51.92528,AZ,Azerbaijan,country,Europe and Central Asia,40.143105,47.576927,11834.5053527905,2005,20943,0,0,6077,0,0,0,0,22,0,0,8052,61,929,1339,0,0,4387,76,0,0,0,0,0
VG,British Virgin Islands,country,Latin America and the Caribbean,18.420695,-64.639968,AZ,Azerbaijan,country,Europe and Central Asia,40.143105,47.576927,10468.878371308,2005,53,0,0,0,0,0,0,0,0,0,0,0,0,53,0,0,0,0,0,0,0,0,0,0
BG,Bulgaria,country,Europe and Central Asia,42.733883,25.48583,AZ,Azerbaijan,country,Europe and Central Asia,40.143105,47.576927,1860.48164344104,2005,681,2,0,0,0,0,0,628,18,0,0,0,0,4,0,0,0,0,29,0,0,0,0,0
CA,Canada,country,North America,56.130366,-106.346771,AZ,Azerbaijan,country,Europe and Central Asia,40.143105,47.576927,9041.37895426741,2005,1613,378,0,0,370,0,0,0,0,0,1,0,0,0,102,0,0,762,0,0,0,0,0,0
CL,Chile,country,Latin America and the Caribbean,-35.675147,-71.542969,AZ,Azerbaijan,country,Europe and Central Asia,40.143105,47.576927,14772.2216608061,2005,149,0,0,0,0,0,0,0,97,0,0,0,4,0,48,0,0,0,0,0,0,0,0,0
HK,Hong Kong,country,East Asia and Pacific,22.396428,114.109497,AZ,Azerbaijan,country,Europe and Central Asia,40.143105,47.576927,6477.7430853406,2005,1,1,0,0,0,0,0,0,0,0,0,0,0,0,0,0,0,0,0,0,0,0,0,0
CN,China,country,East Asia and Pacific,35.86166,104.195397,AZ,Azerbaijan,country,Europe and Central Asia,40.143105,47.576927,4905.26770568488,2005,751,61,0,74,0,0,0,300,273,0,0,0,1,14,25,0,0,0,3,0,0,0,0,0
TW,Taiwan,country,East Asia and Pacific,23.69781,120.960515,AZ,Azerbaijan,country,Europe and Central Asia,40.143105,47.576927,6975.20351222741,2005,6,3,0,0,0,0,0,0,3,0,0,0,0,0,0,0,0,0,0,0,0,0,0,0
CO,Colombia,country,Latin America and the Caribbean,4.570868,-74.297333,AZ,Azerbaijan,country,Europe and Central Asia,40.143105,47.576927,12306.2341284045,2005,181,0,0,0,0,0,0,0,181,0,0,0,0,0,0,0,0,0,0,0,0,0,0,0
CR,Costa Rica,country,Latin America and the Caribbean,9.748917,-83.753428,AZ,Azerbaijan,country,Europe and Central Asia,40.143105,47.576927,12562.7927963138,2005,5,0,0,0,0,0,2,0,3,0,0,0,0,0,0,0,0,0,0,0,0,0,0,0
CI,Ivory Coast,country,Sub-Saharan Africa,7.539989,-5.54708,AZ,Azerbaijan,country,Europe and Central Asia,40.143105,47.576927,6385.30092219069,2005,19,0,0,0,0,0,1,0,18,0,0,0,0,0,0,0,0,0,0,0,0,0,0,0
HR,Croatia,country,Europe and Central Asia,45.1,15.2,AZ,Azerbaijan,country,Europe and Central Asia,40.143105,47.576927,2689.93732989714,2005,1,0,0,0,0,0,0,0,0,0,0,0,0,1,0,0,0,0,0,0,0,0,0,0
CU,Cuba,country,Latin America and the Caribbean,21.521757,-77.781167,AZ,Azerbaijan,country,Europe and Central Asia,40.143105,47.576927,11140.7994093848,2005,1,0,0,0,0,0,0,0,0,0,0,0,0,0,0,1,0,0,0,0,0,0,0,0
CY,Cyprus,country,Europe and Central Asia,35.126413,33.429859,AZ,Azerbaijan,country,Europe and Central Asia,40.143105,47.576927,1364.37948384163,2005,44,5,0,10,0,0,0,0,3,0,0,0,0,1,0,0,0,25,0,0,0,0,0,0
CZ,Czech Republic,country,Europe and Central Asia,49.817492,15.472962,AZ,Azerbaijan,country,Europe and Central Asia,40.143105,47.576927,2721.24997591005,2005,926,751,0,0,0,0,0,0,2,0,0,0,0,8,0,65,0,0,100,0,0,0,0,0
DK,Denmark,country,Europe and Central Asia,56.26392,9.501785,AZ,Azerbaijan,country,Europe and Central Asia,40.143105,47.576927,3284.17291482072,2005,680,141,0,0,9,0,0,0,0,0,0,0,0,24,294,1,0,202,9,0,0,0,0,0
DO,Dominican Republic,country,Latin America and the Caribbean,18.735693,-70.162651,AZ,Azerbaijan,country,Europe and Central Asia,40.143105,47.576927,10849.4694083179,2005,433,0,0,0,0,0,0,0,0,0,0,0,0,0,0,0,0,433,0,0,0,0,0,0
EC,Ecuador,country,Latin America and the Caribbean,-1.831239,-78.183406,AZ,Azerbaijan,country,Europe and Central Asia,40.143105,47.576927,13118.6337768537,2005,7575,0,0,0,0,0,0,0,7575,0,0,0,0,0,0,0,0,0,0,0,0,0,0,0
EG,Egypt,country,Middle East and North Africa,26.820553,30.802498,AZ,Azerbaijan,country,Europe and Central Asia,40.143105,47.576927,2143.47166351298,2005,332,332,0,0,0,0,0,0,0,0,0,0,0,0,0,0,0,0,0,0,0,0,0,0
EE,Estonia,country,Europe and Central Asia,58.595272,25.013607,AZ,Azerbaijan,country,Europe and Central Asia,40.143105,47.576927,2599.35171177162,2005,300,4,0,0,0,0,0,2,0,0,0,0,0,294,0,0,0,0,0,0,0,0,0,0
FI,Finland,country,Europe and Central Asia,61.92411,25.748151,AZ,Azerbaijan,country,Europe and Central Asia,40.143105,47.576927,2835.27530346168,2005,223,12,0,0,0,0,0,0,2,0,0,0,0,0,0,1,0,0,208,0,0,0,0,0
FR,France,country,Europe and Central Asia,46.227638,2.213749,AZ,Azerbaijan,country,Europe and Central Asia,40.143105,47.576927,3691.92885948623,2005,7367,0,0,50,0,0,0,2983,271,0,0,1,10,1036,1966,642,0,388,20,0,0,0,0,0
GE,Georgia,country,Europe and Central Asia,42.315407,43.356892,AZ,Azerbaijan,country,Europe and Central Asia,40.143105,47.576927,428.050888651498,2005,71636,0,50,67872,0,0,0,0,362,2,0,0,0,0,0,3350,0,0,0,0,0,0,0,0
DE,Germany,country,Europe and Central Asia,51.165691,10.451526,AZ,Azerbaijan,country,Europe and Central Asia,40.143105,47.576927,3097.23243744496,2005,8301,2736,66,18,4,0,4,14,285,0,0,53,93,2941,11,398,12,38,1640,0,0,0,0,0
GR,Greece,country,Europe and Central Asia,39.074208,21.824312,AZ,Azerbaijan,country,Europe and Central Asia,40.143105,47.576927,2204.08262058151,2005,2790,0,0,0,0,0,0,0,18,0,0,0,0,157,2615,0,0,0,0,0,0,0,0,0
GT,Guatemala,country,Latin America and the Caribbean,15.783471,-90.230759,AZ,Azerbaijan,country,Europe and Central Asia,40.143105,47.576927,12433.7448245411,2005,0,0,0,0,0,0,0,0,0,0,0,0,0,0,0,0,0,0,0,0,0,0,0,0
HU,Hungary,country,Europe and Central Asia,47.162494,19.503304,AZ,Azerbaijan,country,Europe and Central Asia,40.143105,47.576927,2377.05190634764,2005,2923,1307,0,0,0,0,0,1327,54,0,0,16,42,2,150,0,0,24,1,0,0,0,0,0
IN,India,country,South Asia,20.593684,78.96288,AZ,Azerbaijan,country,Europe and Central Asia,40.143105,47.576927,3685.50875725944,2005,8182,12,0,1,2,8,0,24,0,0,60,0,2926,623,0,0,0,4526,0,0,0,0,0,0
ID,Indonesia,country,East Asia and Pacific,-0.789275,113.921327,AZ,Azerbaijan,country,Europe and Central Asia,40.143105,47.576927,8090.01170498133,2005,2495,0,0,0,0,0,13,0,0,0,0,0,0,0,2482,0,0,0,0,0,0,0,0,0
IR,Iran,country,Middle East and North Africa,32.427908,53.688046,AZ,Azerbaijan,country,Europe and Central Asia,40.143105,47.576927,1018.35123776435,2005,40318,1041,16709,469,18,0,3,9307,10525,0,1,494,27,445,994,0,2483,0,285,0,0,0,0,0
IQ,Iraq,country,Middle East and North Africa,33.223191,43.679291,AZ,Azerbaijan,country,Europe and Central Asia,40.143105,47.576927,845.018929939421,2005,362,0,0,0,0,0,0,0,0,0,0,0,0,362,0,0,0,0,0,0,0,0,0,0
IE,Ireland,country,Europe and Central Asia,53.41291,-8.24389,AZ,Azerbaijan,country,Europe and Central Asia,40.143105,47.576927,4376.95562615247,2005,3721,46,0,0,0,0,0,0,0,0,0,0,0,80,0,23,0,0,3572,0,0,0,0,0
IL,Israel,country,Middle East and North Africa,31.046051,34.851612,AZ,Azerbaijan,country,Europe and Central Asia,40.143105,47.576927,1530.83231969651,2005,104,16,0,0,0,0,0,0,11,0,0,0,0,76,0,1,0,0,0,0,0,0,0,0
IT,Italy,country,Europe and Central Asia,41.87194,12.56738,AZ,Azerbaijan,country,Europe and Central Asia,40.143105,47.576927,2926.83770017887,2005,1439,184,0,27,0,40,0,81,103,0,0,0,211,452,172,21,0,146,2,0,0,0,0,0
JP,Japan,country,East Asia and Pacific,36.204824,138.252924,AZ,Azerbaijan,country,Europe and Central Asia,40.143105,47.576927,7577.13514487228,2005,5,0,0,0,0,0,0,0,0,0,0,0,0,0,0,0,0,0,5,0,0,0,0,0
KZ,Kazakhstan,country,Europe and Central Asia,48.019573,66.923684,AZ,Azerbaijan,country,Europe and Central Asia,40.143105,47.576927,1771.11807407358,2005,109461,109347,0,0,0,0,0,8,0,0,0,0,2,104,0,0,0,0,0,0,0,0,0,0
KE,Kenya,country,Sub-Saharan Africa,-0.023559,37.906193,AZ,Azerbaijan,country,Europe and Central Asia,40.143105,47.576927,4577.70513046821,2005,239,0,0,0,0,0,0,0,0,0,0,0,0,238,0,0,0,1,0,0,0,0,0,0
KG,Kyrgyz Rep.,country,Europe and Central Asia,41.20438,74.766098,AZ,Azerbaijan,country,Europe and Central Asia,40.143105,47.576927,2289.22478548816,2005,77,11,0,0,45,20,0,0,1,0,0,0,0,0,0,0,0,0,0,0,0,0,0,0
LV,Latvia,country,Europe and Central Asia,56.879635,24.603189,AZ,Azerbaijan,country,Europe and Central Asia,40.143105,47.576927,2494.1647941503,2005,616,0,0,0,124,0,0,57,0,0,0,0,0,223,0,0,0,0,212,0,0,0,0,0
LB,Lebanon,country,Middle East and North Africa,33.854721,35.862285,AZ,Azerbaijan,country,Europe and Central Asia,40.143105,47.576927,1253.16032409148,2005,1,0,0,0,0,0,0,0,0,0,0,0,0,0,1,0,0,0,0,0,0,0,0,0
LT,Lithuania,country,Europe and Central Asia,55.169438,23.881275,AZ,Azerbaijan,country,Europe and Central Asia,40.143105,47.576927,2417.95999320652,2005,129,36,0,0,0,0,0,0,1,0,0,0,0,13,0,1,0,0,78,0,0,0,0,0
MY,Malaysia,country,East Asia and Pacific,4.210484,101.975766,AZ,Azerbaijan,country,Europe and Central Asia,40.143105,47.576927,6744.21769174505,2005,7220,2,0,0,47,0,0,13,0,0,0,0,57,13,7088,0,0,0,0,0,0,0,0,0
MX,Mexico,country,Latin America and the Caribbean,23.634501,-102.552784,AZ,Azerbaijan,country,Europe and Central Asia,40.143105,47.576927,12291.3796872703,2005,13,0,0,0,0,0,0,0,0,0,0,0,0,0,0,13,0,0,0,0,0,0,0,0
MA,Morocco,country,Middle East and North Africa,31.791702,-7.09262,AZ,Azerbaijan,country,Europe and Central Asia,40.143105,47.576927,4934.20140104403,2005,74,0,0,0,0,0,0,0,74,0,0,0,0,0,0,0,0,0,0,0,0,0,0,0
NL,Netherlands,country,Europe and Central Asia,52.132633,5.291266,AZ,Azerbaijan,country,Europe and Central Asia,40.143105,47.576927,3464.22828266153,2005,931,185,0,30,3,20,1,34,32,0,0,322,7,41,2,31,0,34,189,0,0,0,0,0
NZ,New Zealand,country,East Asia and Pacific,-40.900557,174.885971,AZ,Azerbaijan,country,Europe and Central Asia,40.143105,47.576927,15647.4301755373,2005,5638,579,0,0,239,0,0,2489,0,0,0,0,0,0,19,0,0,1,2311,0,0,0,0,0
NO,Norway,country,Europe and Central Asia,60.472024,8.468946,AZ,Azerbaijan,country,Europe and Central Asia,40.143105,47.576927,3498.43040418108,2005,5428,0,1,0,0,0,0,0,0,0,0,486,0,1,4939,0,0,1,0,0,0,0,0,0
OM,Oman,country,Middle East and North Africa,21.512583,55.923255,AZ,Azerbaijan,country,Europe and Central Asia,40.143105,47.576927,2219.41578165623,2005,13,0,0,0,0,0,0,0,3,0,0,0,0,8,0,0,0,2,0,0,0,0,0,0
PK,Pakistan,country,South Asia,30.375321,69.345116,AZ,Azerbaijan,country,Europe and Central Asia,40.143105,47.576927,2248.97771709702,2005,2346,2346,0,0,0,0,0,0,0,0,0,0,0,0,0,0,0,0,0,0,0,0,0,0
PY,Paraguay,country,Latin America and the Caribbean,-23.442503,-58.443832,AZ,Azerbaijan,country,Europe and Central Asia,40.143105,47.576927,12996.1285680919,2005,73,0,0,0,0,0,0,0,0,0,0,0,0,0,0,0,0,73,0,0,0,0,0,0
PH,Philippines,country,East Asia and Pacific,12.879721,121.774017,AZ,Azerbaijan,country,Europe and Central Asia,40.143105,47.576927,7760.92945543457,2005,114,0,0,0,0,0,0,0,0,0,0,0,0,114,0,0,0,0,0,0,0,0,0,0
PL,Poland,country,Europe and Central Asia,51.919438,19.145136,AZ,Azerbaijan,country,Europe and Central Asia,40.143105,47.576927,2534.4484127554,2005,8434,1365,149,5180,49,0,2,159,144,0,5,0,273,21,117,0,0,941,29,0,0,0,0,0
PT,Portugal,country,Europe and Central Asia,39.399872,-8.224454,AZ,Azerbaijan,country,Europe and Central Asia,40.143105,47.576927,4693.70148760501,2005,13228,0,0,0,0,0,0,0,0,0,0,0,15,0,13213,0,0,0,0,0,0,0,0,0
KR,"Korea, Rep.",country,East Asia and Pacific,35.907757,127.766922,AZ,Azerbaijan,country,Europe and Central Asia,40.143105,47.576927,6799.31696323287,2005,123,0,0,0,0,0,0,0,79,0,0,0,0,44,0,0,0,0,0,0,0,0,0,0
MD,Moldova,country,Europe and Central Asia,47.411631,28.369885,AZ,Azerbaijan,country,Europe and Central Asia,40.143105,47.576927,1736.44883725284,2005,99,0,0,15,0,0,0,0,55,0,0,0,29,0,0,0,0,0,0,0,0,0,0,0
RO,Romania,country,Europe and Central Asia,45.943161,24.96676,AZ,Azerbaijan,country,Europe and Central Asia,40.143105,47.576927,1941.53805660076,2005,3014,0,0,11,0,0,0,0,0,0,0,0,0,12,2985,6,0,0,0,0,0,0,0,0
RU,Russian Federation,country,Europe and Central Asia,61.52401,105.318756,AZ,Azerbaijan,country,Europe and Central Asia,40.143105,47.576927,4500.29166851173,2005,1004020,861970,14371,72297,649,0,3972,1755,2529,0,0,20190,3876,6513,3208,6817,0,1444,4429,0,0,0,0,0
KN,St. Kitts and Nevis,country,Latin America and the Caribbean,17.357822,-62.782998,AZ,Azerbaijan,country,Europe and Central Asia,40.143105,47.576927,10411.3205989679,2005,300,0,0,0,0,0,0,0,0,0,0,0,0,0,0,0,0,0,300,0,0,0,0,0
SA,Saudi Arabia,country,Middle East and North Africa,23.885942,45.079162,AZ,Azerbaijan,country,Europe and Central Asia,40.143105,47.576927,1824.80775122552,2005,52,0,0,0,0,0,0,0,0,0,0,0,0,2,0,0,0,50,0,0,0,0,0,0
SG,Singapore,country,East Asia and Pacific,1.352083,103.819836,AZ,Azerbaijan,country,Europe and Central Asia,40.143105,47.576927,7113.79966119796,2005,227,7,0,0,6,0,0,2,0,0,0,0,178,0,10,0,0,0,24,0,0,0,0,0
SK,Slovak Rep.,country,Europe and Central Asia,48.669026,19.699024,AZ,Azerbaijan,country,Europe and Central Asia,40.143105,47.576927,2394.3667521138,2005,231,164,0,0,0,0,0,0,11,0,0,0,0,56,0,0,0,0,0,0,0,0,0,0
SI,Slovenia,country,Europe and Central Asia,46.151241,14.995463,AZ,Azerbaijan,country,Europe and Central Asia,40.143105,47.576927,2708.72324137424,2005,23,20,0,0,0,0,0,0,0,0,0,0,0,3,0,0,0,0,0,0,0,0,0,0
ZA,S. Africa,country,Sub-Saharan Africa,-30.559482,22.937506,AZ,Azerbaijan,country,Europe and Central Asia,40.143105,47.576927,8271.45803791728,2005,1475,0,0,0,0,0,0,0,98,0,0,0,0,1377,0,0,0,0,0,0,0,0,0,0
ES,Spain,country,Europe and Central Asia,40.463667,-3.74922,AZ,Azerbaijan,country,Europe and Central Asia,40.143105,47.576927,4293.8745295562,2005,14196,0,0,0,7,0,3,0,1,0,0,0,8,213,13720,19,0,223,2,0,0,0,0,0
LK,Sri Lanka,country,South Asia,7.873054,80.771797,AZ,Azerbaijan,country,Europe and Central Asia,40.143105,47.576927,4873.85087234324,2005,4455,0,0,0,0,0,0,0,0,0,0,0,4455,0,0,0,0,0,0,0,0,0,0,0
SE,Sweden,country,Europe and Central Asia,60.128161,18.643501,AZ,Azerbaijan,country,Europe and Central Asia,40.143105,47.576927,2987.97954051659,2005,59,0,0,0,0,0,0,0,0,0,0,0,0,0,59,0,0,0,0,0,0,0,0,0
CH,Switzerland,country,Europe and Central Asia,46.818188,8.227512,AZ,Azerbaijan,country,Europe and Central Asia,40.143105,47.576927,3228.16147297209,2005,601,75,0,0,0,0,0,0,0,0,0,0,13,474,19,20,0,0,0,0,0,0,0,0
SY,Syrian Arab Rep.,country,Middle East and North Africa,34.802075,38.996815,AZ,Azerbaijan,country,Europe and Central Asia,40.143105,47.576927,962.586943096407,2005,205,0,0,0,0,0,0,0,0,0,0,0,0,205,0,0,0,0,0,0,0,0,0,0
TH,Thailand,country,East Asia and Pacific,15.870032,100.992541,AZ,Azerbaijan,country,Europe and Central Asia,40.143105,47.576927,5797.68596314424,2005,6813,6238,0,0,0,0,0,60,127,0,0,0,201,187,0,0,0,0,0,0,0,0,0,0
TN,Tunisia,country,Middle East and North Africa,33.886917,9.537499,AZ,Azerbaijan,country,Europe and Central Asia,40.143105,47.576927,3425.03078141929,2005,0,0,0,0,0,0,0,0,0,0,0,0,0,0,0,0,0,0,0,0,0,0,0,0
TR,Turkey,country,Europe and Central Asia,38.963745,35.243322,AZ,Azerbaijan,country,Europe and Central Asia,40.143105,47.576927,1065.83179986328,2005,39376,8336,455,5692,73,65,1633,3369,3708,0,20,316,1029,4338,2796,611,79,5858,1077,0,0,0,0,0
TM,Turkmenistan,country,Europe and Central Asia,38.969719,59.556278,AZ,Azerbaijan,country,Europe and Central Asia,40.143105,47.576927,1035.60743533656,2005,972,0,0,0,0,0,0,0,0,812,0,0,0,0,160,0,0,0,0,0,0,0,0,0
UA,Ukraine,country,Europe and Central Asia,48.379433,31.16558,AZ,Azerbaijan,country,Europe and Central Asia,40.143105,47.576927,1592.28795630754,2005,66122,10312,0,9303,571,327,1,10,12149,0,4,4200,10293,1668,9340,1773,0,101,6070,0,0,0,0,0
AE,United Arab Emirates,country,Middle East and North Africa,23.424076,53.847818,AZ,Azerbaijan,country,Europe and Central Asia,40.143105,47.576927,1952.05237367175,2005,3933,167,2,2044,110,0,4,189,465,0,54,0,30,191,27,284,0,277,89,0,0,0,0,0
GB,United Kingdom,country,Europe and Central Asia,55.378051,-3.435973,AZ,Azerbaijan,country,Europe and Central Asia,40.143105,47.576927,4063.91844956798,2005,203,28,0,4,0,0,0,44,14,0,4,0,24,63,0,22,0,0,0,0,0,0,0,0
US,USA,country,North America,37.09024,-95.712891,AZ,Azerbaijan,country,Europe and Central Asia,40.143105,47.576927,10657.9097561196,2005,24879,3690,0,1,51,25,2,23,5,31,1,58,8,259,4953,1,12,15271,500,0,0,0,0,0
UY,Uruguay,country,Latin America and the Caribbean,-32.522779,-55.765835,AZ,Azerbaijan,country,Europe and Central Asia,40.143105,47.576927,13324.2233938634,2005,6,0,0,0,0,0,0,0,0,0,0,0,0,0,0,0,0,6,0,0,0,0,0,0
UZ,Uzbekistan,country,Europe and Central Asia,41.377491,64.585262,AZ,Azerbaijan,country,Europe and Central Asia,40.143105,47.576927,1438.35457142921,2005,2670,11,0,0,590,210,945,216,582,109,7,0,0,0,0,0,0,0,0,0,0,0,0,0
VN,Vietnam,country,East Asia and Pacific,14.058324,108.277199,AZ,Azerbaijan,country,Europe and Central Asia,40.143105,47.576927,6534.61525908746,2005,193,19,0,0,0,0,0,0,20,0,3,0,111,0,0,40,0,0,0,0,0,0,0,0
