sourceCode,sourceName,sourceGrouping,sourceRegion,sourceLat,sourceLong,destCode,destName,destGrouping,destRegion,destLat,destLong,distance,year,totalTons,cereals,roots,sugarCrops,pulses,nuts,oilCrops,vegetables,fruits,fibers,spices,fodderCrops,coffeeTea,tobaccoRubber,oilsFats,beverages,livestock,animalMeats,animalProducts,animalHides,nimalOther,pesticides,fertilizers,machinery
AR,Argentina,country,Latin America and the Caribbean,-38.416097,-63.616672,OM,Oman,country,Middle East and North Africa,21.512583,55.923255,14022.0109396693,1986,15,0,0,0,0,0,0,0,0,0,0,15,0,0,0,0,0,0,0,0,0,0,0,0
AU,Australia,country,East Asia and Pacific,-25.274398,133.775136,OM,Oman,country,Middle East and North Africa,21.512583,55.923255,9888.17091862246,1986,168080,152721,31,227,0,0,0,368,396,0,2,4544,28,132,69,2317,0,6809,436,0,0,0,0,0
AT,Austria,country,Europe and Central Asia,47.516231,14.550072,OM,Oman,country,Middle East and North Africa,21.512583,55.923255,4686.82220900003,1986,327,0,0,0,0,0,0,17,71,0,0,0,0,0,0,81,0,13,145,0,0,0,0,0
BH,Bahrain,country,Middle East and North Africa,25.930414,50.637772,OM,Oman,country,Middle East and North Africa,21.512583,55.923255,729.218079260173,1986,12,0,0,2,0,0,0,0,0,0,2,0,0,8,0,0,0,0,0,0,0,0,0,0
BD,Bangladesh,country,South Asia,23.684994,90.356331,OM,Oman,country,Middle East and North Africa,21.512583,55.923255,3538.60307695496,1986,487,0,0,0,0,0,0,479,7,0,1,0,0,0,0,0,0,0,0,0,0,0,0,0
BE,Belgium,country,Europe and Central Asia,50.503887,4.469936,OM,Oman,country,Middle East and North Africa,21.512583,55.923255,5491.35648836076,1986,1685,42,28,1089,0,0,0,48,25,0,0,240,24,63,48,0,0,14,64,0,0,0,0,0
BW,Botswana,country,Sub-Saharan Africa,-22.328474,24.684866,OM,Oman,country,Middle East and North Africa,21.512583,55.923255,5942.31934662134,1986,0,0,0,0,0,0,0,0,0,0,0,0,0,0,0,0,38,0,0,0,0,0,0,0
BR,Brazil,country,Latin America and the Caribbean,-14.235004,-51.92528,OM,Oman,country,Middle East and North Africa,21.512583,55.923255,12412.5757282605,1986,7629,0,0,76,0,0,0,0,2,0,0,0,0,0,0,12,0,7539,0,0,0,0,0,0
CA,Canada,country,North America,56.130366,-106.346771,OM,Oman,country,Middle East and North Africa,21.512583,55.923255,11233.9620076981,1986,16,0,0,0,0,0,0,0,0,0,0,2,0,14,0,0,0,0,0,0,0,0,0,0
CL,Chile,country,Latin America and the Caribbean,-35.675147,-71.542969,OM,Oman,country,Middle East and North Africa,21.512583,55.923255,14732.4173052424,1986,200,0,0,0,0,0,0,0,0,0,0,200,0,0,0,0,0,0,0,0,0,0,0,0
HK,Hong Kong,country,East Asia and Pacific,22.396428,114.109497,OM,Oman,country,Middle East and North Africa,21.512583,55.923255,5968.75914253481,1986,120,5,0,25,0,17,0,0,17,0,0,0,0,1,0,48,0,7,0,0,0,0,0,0
CN,China,country,East Asia and Pacific,35.86166,104.195397,OM,Oman,country,Middle East and North Africa,21.512583,55.923255,4922.53173948043,1986,4155,3246,1,51,0,73,0,677,29,5,50,0,0,9,8,6,0,0,0,0,0,0,0,0
TW,Taiwan,country,East Asia and Pacific,23.69781,120.960515,OM,Oman,country,Middle East and North Africa,21.512583,55.923255,6628.19422819738,1986,203,4,0,18,0,0,0,127,13,0,0,17,0,24,0,0,0,0,0,0,0,0,0,0
CR,Costa Rica,country,Latin America and the Caribbean,9.748917,-83.753428,OM,Oman,country,Middle East and North Africa,21.512583,55.923255,14423.1361477311,1986,39,0,0,0,0,0,0,0,0,0,4,0,35,0,0,0,0,0,0,0,0,0,0,0
CI,Ivory Coast,country,Sub-Saharan Africa,7.539989,-5.54708,OM,Oman,country,Middle East and North Africa,21.512583,55.923255,6762.6816384374,1986,7,0,0,0,0,0,0,0,0,0,0,0,7,0,0,0,0,0,0,0,0,0,0,0
CY,Cyprus,country,Europe and Central Asia,35.126413,33.429859,OM,Oman,country,Middle East and North Africa,21.512583,55.923255,2664.26256622778,1986,287,0,0,65,0,0,0,16,38,0,0,0,0,39,0,123,0,1,5,0,0,0,0,0
DK,Denmark,country,Europe and Central Asia,56.26392,9.501785,OM,Oman,country,Middle East and North Africa,21.512583,55.923255,5411.70624087667,1986,4974,363,31,4,0,0,0,309,81,0,0,42,0,179,1058,407,0,1724,776,0,0,0,0,0
EG,Egypt,country,Middle East and North Africa,26.820553,30.802498,OM,Oman,country,Middle East and North Africa,21.512583,55.923255,2614.05376902867,1986,30,3,0,12,0,0,0,12,0,0,0,0,0,3,0,0,0,0,0,0,0,0,0,0
FI,Finland,country,Europe and Central Asia,61.92411,25.748151,OM,Oman,country,Middle East and North Africa,21.512583,55.923255,5054.59785900908,1986,1378,0,0,0,0,0,0,0,0,0,0,0,0,0,0,2,0,4,1372,0,0,0,0,0
FR,France,country,Europe and Central Asia,46.227638,2.213749,OM,Oman,country,Middle East and North Africa,21.512583,55.923255,5541.42830139283,1986,15292,279,15,542,0,0,0,24,56,1,13,20,0,191,1,550,0,11778,1822,0,0,0,0,0
GH,Ghana,country,Sub-Saharan Africa,7.946527,-1.023194,OM,Oman,country,Middle East and North Africa,21.512583,55.923255,6279.49571551478,1986,1,0,0,0,0,0,0,1,0,0,0,0,0,0,0,0,0,0,0,0,0,0,0,0
GR,Greece,country,Europe and Central Asia,39.074208,21.824312,OM,Oman,country,Middle East and North Africa,21.512583,55.923255,3782.81304947776,1986,1063,24,0,99,0,0,0,582,156,0,0,0,0,66,0,136,0,0,0,0,0,0,0,0
GT,Guatemala,country,Latin America and the Caribbean,15.783471,-90.230759,OM,Oman,country,Middle East and North Africa,21.512583,55.923255,14479.9876536801,1986,68,0,0,0,0,0,0,0,0,0,27,0,41,0,0,0,0,0,0,0,0,0,0,0
IN,India,country,South Asia,20.593684,78.96288,OM,Oman,country,Middle East and North Africa,21.512583,55.923255,2393.59498923766,1986,21392,8459,17,42,0,39,0,1187,326,4,959,3674,1121,464,0,28,82,5019,52,1,0,0,0,0
ID,Indonesia,country,East Asia and Pacific,-0.789275,113.921327,OM,Oman,country,Middle East and North Africa,21.512583,55.923255,6767.69700646654,1986,427,0,0,0,0,0,0,0,0,0,7,0,420,0,0,0,0,0,0,0,0,0,0,0
IE,Ireland,country,Europe and Central Asia,53.41291,-8.24389,OM,Oman,country,Middle East and North Africa,21.512583,55.923255,6410.10295861924,1986,498,140,0,14,0,0,0,0,0,0,0,0,0,74,11,25,0,26,208,0,0,0,0,0
IT,Italy,country,Europe and Central Asia,41.87194,12.56738,OM,Oman,country,Middle East and North Africa,21.512583,55.923255,4624.37467399731,1986,1772,109,33,18,0,0,0,1148,30,0,0,0,9,297,36,38,0,54,0,0,0,0,0,0
JM,Jamaica,country,Latin America and the Caribbean,18.109581,-77.297508,OM,Oman,country,Middle East and North Africa,21.512583,55.923255,13296.3555910576,1986,17,0,0,0,0,0,0,0,5,0,0,0,0,0,0,12,0,0,0,0,0,0,0,0
JP,Japan,country,East Asia and Pacific,36.204824,138.252924,OM,Oman,country,Middle East and North Africa,21.512583,55.923255,7962.72854447021,1986,1454,17,0,272,0,14,0,0,63,18,0,0,0,147,0,902,0,15,6,0,0,0,0,0
JO,Jordan,country,Middle East and North Africa,30.585164,36.238414,OM,Oman,country,Middle East and North Africa,21.512583,55.923255,2207.82078999215,1986,9,0,0,0,0,0,0,0,6,0,0,0,0,0,2,0,0,0,1,0,0,0,0,0
KE,Kenya,country,Sub-Saharan Africa,-0.023559,37.906193,OM,Oman,country,Middle East and North Africa,21.512583,55.923255,3094.87826406551,1986,47,0,0,0,0,0,0,1,12,0,0,0,32,2,0,0,0,0,0,0,0,0,0,0
KW,Kuwait,country,Middle East and North Africa,29.31166,47.481766,OM,Oman,country,Middle East and North Africa,21.512583,55.923255,1213.2903060681,1986,507,1,27,13,0,0,0,3,147,4,0,0,0,36,0,272,0,4,0,0,0,0,0,0
LB,Lebanon,country,Middle East and North Africa,33.854721,35.862285,OM,Oman,country,Middle East and North Africa,21.512583,55.923255,2400.39124145012,1986,170,0,17,41,0,1,0,56,1,0,0,0,6,10,0,14,0,0,24,0,0,0,0,0
MG,Madagascar,country,Sub-Saharan Africa,-18.766947,46.869107,OM,Oman,country,Middle East and North Africa,21.512583,55.923255,4591.11740719136,1986,2,0,0,0,0,0,0,0,0,0,2,0,0,0,0,0,0,0,0,0,0,0,0,0
MY,Malaysia,country,East Asia and Pacific,4.210484,101.975766,OM,Oman,country,Middle East and North Africa,21.512583,55.923255,5328.70078488928,1986,12835,198,0,11,0,31,0,0,149,0,7,44,210,131,11817,0,0,0,237,0,0,0,0,0
MT,Malta,country,Middle East and North Africa,35.937496,14.375416,OM,Oman,country,Middle East and North Africa,21.512583,55.923255,4323.06501863858,1986,169,3,16,2,0,0,0,0,17,0,0,0,0,89,0,42,0,0,0,0,0,0,0,0
MX,Mexico,country,Latin America and the Caribbean,23.634501,-102.552784,OM,Oman,country,Middle East and North Africa,21.512583,55.923255,14497.1020781752,1986,2,0,0,0,0,0,0,0,0,0,0,0,0,0,0,2,0,0,0,0,0,0,0,0
NP,Nepal,country,South Asia,28.394857,84.124008,OM,Oman,country,Middle East and North Africa,21.512583,55.923255,2939.76322452672,1986,20,0,0,0,0,0,0,20,0,0,0,0,0,0,0,0,0,0,0,0,0,0,0,0
NL,Netherlands,country,Europe and Central Asia,52.132633,5.291266,OM,Oman,country,Middle East and North Africa,21.512583,55.923255,5491.22131202927,1986,28991,170,969,53,0,0,0,320,528,11,0,924,20,203,164,3210,11,345,22074,0,0,0,0,0
NZ,New Zealand,country,East Asia and Pacific,-40.900557,174.885971,OM,Oman,country,Middle East and North Africa,21.512583,55.923255,13969.8993700863,1986,4741,2,0,0,0,0,0,47,0,0,0,0,0,10,0,0,0,3649,1033,0,0,0,0,0
NO,Norway,country,Europe and Central Asia,60.472024,8.468946,OM,Oman,country,Middle East and North Africa,21.512583,55.923255,5678.98838558594,1986,24,0,0,0,0,0,0,2,0,0,0,0,0,0,22,0,0,0,0,0,0,0,0,0
PK,Pakistan,country,South Asia,30.375321,69.345116,OM,Oman,country,Middle East and North Africa,21.512583,55.923255,1664.54786661874,1986,51046,48490,0,171,0,0,0,334,41,98,74,1738,0,96,0,2,338,2,0,0,0,0,0,0
PG,Papua New Guinea,country,East Asia and Pacific,-6.314993,143.95555,OM,Oman,country,Middle East and North Africa,21.512583,55.923255,10073.5122251208,1986,10,0,0,0,0,0,0,0,0,0,10,0,0,0,0,0,0,0,0,0,0,0,0,0
PH,Philippines,country,East Asia and Pacific,12.879721,121.774017,OM,Oman,country,Middle East and North Africa,21.512583,55.923255,7021.79755581681,1986,450,0,0,0,0,0,0,0,14,0,0,0,411,25,0,0,0,0,0,0,0,0,0,0
PT,Portugal,country,Europe and Central Asia,39.399872,-8.224454,OM,Oman,country,Middle East and North Africa,21.512583,55.923255,6333.03923165743,1986,36,0,0,0,0,0,0,0,0,0,0,0,0,0,0,36,0,0,0,0,0,0,0,0
QA,Qatar,country,Middle East and North Africa,25.354826,51.183884,OM,Oman,country,Middle East and North Africa,21.512583,55.923255,645.837727578887,1986,45,0,0,0,0,0,0,0,0,0,0,0,0,0,0,0,0,0,45,0,0,0,0,0
KR,"Korea, Rep.",country,East Asia and Pacific,35.907757,127.766922,OM,Oman,country,Middle East and North Africa,21.512583,55.923255,7042.54095251856,1986,311,152,0,99,0,0,0,0,19,0,0,5,0,36,0,0,0,0,0,0,0,0,0,0
SA,Saudi Arabia,country,Middle East and North Africa,23.885942,45.079162,OM,Oman,country,Middle East and North Africa,21.512583,55.923255,1144.20650446303,1986,2924,1,0,216,0,0,0,0,432,0,3,0,0,35,0,1939,0,0,298,0,0,0,0,0
SG,Singapore,country,East Asia and Pacific,1.352083,103.819836,OM,Oman,country,Middle East and North Africa,21.512583,55.923255,5653.27053962043,1986,3507,202,7,226,0,64,0,38,131,0,87,4,717,238,1430,276,0,0,87,0,0,0,0,0
ES,Spain,country,Europe and Central Asia,40.463667,-3.74922,OM,Oman,country,Middle East and North Africa,21.512583,55.923255,5951.12258086635,1986,1167,0,0,10,0,17,0,585,173,0,16,12,114,98,65,77,0,0,0,0,0,0,0,0
LK,Sri Lanka,country,South Asia,7.873054,80.771797,OM,Oman,country,Middle East and North Africa,21.512583,55.923255,3068.59032985906,1986,586,5,5,0,0,30,0,316,42,0,6,0,108,71,3,0,0,0,0,0,0,0,0,0
SE,Sweden,country,Europe and Central Asia,60.128161,18.643501,OM,Oman,country,Middle East and North Africa,21.512583,55.923255,5191.06852111848,1986,476,2,0,0,0,0,0,0,21,0,0,0,0,51,7,1,0,14,380,0,0,0,0,0
CH,Switzerland,country,Europe and Central Asia,46.818188,8.227512,OM,Oman,country,Middle East and North Africa,21.512583,55.923255,5109.66914205266,1986,497,7,1,29,0,0,0,354,7,0,0,0,27,66,0,5,0,1,0,0,0,0,0,0
SY,Syrian Arab Rep.,country,Middle East and North Africa,34.802075,38.996815,OM,Oman,country,Middle East and North Africa,21.512583,55.923255,2218.27045836542,1986,18,0,0,0,0,0,0,0,0,0,0,0,0,0,0,18,0,0,0,0,0,0,0,0
TH,Thailand,country,East Asia and Pacific,15.870032,100.992541,OM,Oman,country,Middle East and North Africa,21.512583,55.923255,4778.01588276839,1986,24289,23204,0,0,0,0,0,39,41,0,0,971,0,34,0,0,0,0,0,0,0,0,0,0
TN,Tunisia,country,Middle East and North Africa,33.886917,9.537499,OM,Oman,country,Middle East and North Africa,21.512583,55.923255,4731.83132731994,1986,93,0,0,80,0,0,0,0,0,0,0,0,0,13,0,0,0,0,0,0,0,0,0,0
TR,Turkey,country,Europe and Central Asia,38.963745,35.243322,OM,Oman,country,Middle East and North Africa,21.512583,55.923255,2767.00300704356,1986,21,0,0,0,0,0,0,21,0,0,0,0,0,0,0,0,0,0,0,0,0,0,0,0
AE,United Arab Emirates,country,Middle East and North Africa,23.424076,53.847818,OM,Oman,country,Middle East and North Africa,21.512583,55.923255,301.417786949232,1986,135325,17503,9290,9005,0,355,0,17805,41470,28,613,324,861,6294,848,18870,70,6771,5288,0,0,0,0,0
GB,United Kingdom,country,Europe and Central Asia,55.378051,-3.435973,OM,Oman,country,Middle East and North Africa,21.512583,55.923255,6141.35690780383,1986,9208,552,38,1735,0,0,0,270,176,1,4,659,370,2456,110,1975,2,361,501,0,0,0,0,0
TZ,Tanzania,country,Sub-Saharan Africa,-6.369028,34.888822,OM,Oman,country,Middle East and North Africa,21.512583,55.923255,3860.97953406752,1986,73,5,0,0,0,0,0,37,23,0,4,0,0,4,0,0,0,0,0,0,0,0,0,0
US,USA,country,North America,37.09024,-95.712891,OM,Oman,country,Middle East and North Africa,21.512583,55.923255,12867.044315304,1986,4918,928,119,7,0,53,0,440,777,0,66,15,110,1486,544,119,0,56,198,0,0,0,0,0
BA,Bosnia & Herzegovina,country,Europe and Central Asia,43.915886,17.679076,OM,Oman,country,Middle East and North Africa,21.512583,55.923255,4305.40872088064,1986,62,11,0,25,0,0,0,0,0,0,0,0,26,0,0,0,0,0,0,0,0,0,0,0
ZM,Zambia,country,Sub-Saharan Africa,-13.133897,27.849332,OM,Oman,country,Middle East and North Africa,21.512583,55.923255,4927.94866432211,1986,2,0,0,0,0,0,0,0,0,0,2,0,0,0,0,0,0,0,0,0,0,0,0,0
AR,Argentina,country,Latin America and the Caribbean,-38.416097,-63.616672,OM,Oman,country,Middle East and North Africa,21.512583,55.923255,14022.0109396693,1987,5,0,0,0,0,0,0,0,0,0,0,0,0,0,0,0,0,5,0,0,0,0,0,0
AU,Australia,country,East Asia and Pacific,-25.274398,133.775136,OM,Oman,country,Middle East and North Africa,21.512583,55.923255,9888.17091862246,1987,174873,166271,2,164,1,0,0,437,326,0,2,77,16,78,20,2673,0,4420,386,0,0,0,0,0
AT,Austria,country,Europe and Central Asia,47.516231,14.550072,OM,Oman,country,Middle East and North Africa,21.512583,55.923255,4686.82220900003,1987,595,500,0,0,0,0,0,0,14,0,0,0,0,0,0,22,0,17,42,0,0,0,0,0
BH,Bahrain,country,Middle East and North Africa,25.930414,50.637772,OM,Oman,country,Middle East and North Africa,21.512583,55.923255,729.218079260173,1987,2,0,0,2,0,0,0,0,0,0,0,0,0,0,0,0,0,0,0,0,0,0,0,0
BE,Belgium,country,Europe and Central Asia,50.503887,4.469936,OM,Oman,country,Middle East and North Africa,21.512583,55.923255,5491.35648836076,1987,610,107,56,21,0,2,0,109,17,0,0,180,3,12,31,0,0,0,72,0,0,0,0,0
BO,Bolivia,country,Latin America and the Caribbean,-16.290154,-63.588653,OM,Oman,country,Middle East and North Africa,21.512583,55.923255,13677.9496564669,1987,73,0,0,0,0,0,0,0,0,0,0,0,73,0,0,0,0,0,0,0,0,0,0,0
BW,Botswana,country,Sub-Saharan Africa,-22.328474,24.684866,OM,Oman,country,Middle East and North Africa,21.512583,55.923255,5942.31934662134,1987,0,0,0,0,0,0,0,0,0,0,0,0,0,0,0,0,20,0,0,0,0,0,0,0
BR,Brazil,country,Latin America and the Caribbean,-14.235004,-51.92528,OM,Oman,country,Middle East and North Africa,21.512583,55.923255,12412.5757282605,1987,2097,0,0,109,0,0,0,213,0,0,0,0,264,0,8,4,0,1499,0,0,0,0,0,0
BI,Burundi,country,Sub-Saharan Africa,-3.373056,29.918886,OM,Oman,country,Middle East and North Africa,21.512583,55.923255,3962.6980369638,1987,10,0,0,0,0,0,0,0,0,0,0,0,10,0,0,0,0,0,0,0,0,0,0,0
CA,Canada,country,North America,56.130366,-106.346771,OM,Oman,country,Middle East and North Africa,21.512583,55.923255,11233.9620076981,1987,2,0,0,0,0,0,0,2,0,0,0,0,0,0,0,0,0,0,0,0,0,0,0,0
HK,Hong Kong,country,East Asia and Pacific,22.396428,114.109497,OM,Oman,country,Middle East and North Africa,21.512583,55.923255,5968.75914253481,1987,57,10,0,4,0,0,0,18,15,0,0,0,10,0,0,0,0,0,0,0,0,0,0,0
CN,China,country,East Asia and Pacific,35.86166,104.195397,OM,Oman,country,Middle East and North Africa,21.512583,55.923255,4922.53173948043,1987,4286,2517,0,96,0,84,0,1300,0,0,41,0,146,81,21,0,0,0,0,0,0,0,0,0
KM,Comoros,country,Sub-Saharan Africa,-11.875001,43.872219,OM,Oman,country,Middle East and North Africa,21.512583,55.923255,3943.18261329708,1987,5,0,0,0,0,0,0,0,0,0,5,0,0,0,0,0,0,0,0,0,0,0,0,0
CG,"Congo, Rep.",country,Sub-Saharan Africa,-0.228021,15.827659,OM,Oman,country,Middle East and North Africa,21.512583,55.923255,4981.27186993759,1987,6,0,0,0,0,0,0,0,0,0,0,0,6,0,0,0,0,0,0,0,0,0,0,0
CR,Costa Rica,country,Latin America and the Caribbean,9.748917,-83.753428,OM,Oman,country,Middle East and North Africa,21.512583,55.923255,14423.1361477311,1987,250,0,0,0,0,0,0,0,0,0,19,0,231,0,0,0,0,0,0,0,0,0,0,0
CI,Ivory Coast,country,Sub-Saharan Africa,7.539989,-5.54708,OM,Oman,country,Middle East and North Africa,21.512583,55.923255,6762.6816384374,1987,3,0,0,0,0,0,0,0,0,0,0,0,3,0,0,0,0,0,0,0,0,0,0,0
CY,Cyprus,country,Europe and Central Asia,35.126413,33.429859,OM,Oman,country,Middle East and North Africa,21.512583,55.923255,2664.26256622778,1987,184,0,3,26,0,0,0,7,38,0,0,0,2,71,0,19,0,0,18,0,0,0,0,0
DK,Denmark,country,Europe and Central Asia,56.26392,9.501785,OM,Oman,country,Middle East and North Africa,21.512583,55.923255,5411.70624087667,1987,3926,249,5,32,0,0,0,136,19,0,0,91,0,70,851,329,0,1515,629,0,0,0,0,0
EC,Ecuador,country,Latin America and the Caribbean,-1.831239,-78.183406,OM,Oman,country,Middle East and North Africa,21.512583,55.923255,14606.8917210826,1987,35,0,0,0,0,0,0,0,0,0,0,0,35,0,0,0,0,0,0,0,0,0,0,0
EG,Egypt,country,Middle East and North Africa,26.820553,30.802498,OM,Oman,country,Middle East and North Africa,21.512583,55.923255,2614.05376902867,1987,28,0,2,0,0,0,0,8,0,0,0,0,0,17,0,0,0,0,1,0,0,0,0,0
FI,Finland,country,Europe and Central Asia,61.92411,25.748151,OM,Oman,country,Middle East and North Africa,21.512583,55.923255,5054.59785900908,1987,1955,0,0,0,0,0,0,0,0,0,0,0,0,0,0,0,0,0,1955,0,0,0,0,0
FR,France,country,Europe and Central Asia,46.227638,2.213749,OM,Oman,country,Middle East and North Africa,21.512583,55.923255,5541.42830139283,1987,20199,1044,40,9882,63,0,0,9,15,0,1,20,15,162,26,636,0,7119,1167,0,0,0,0,0
GR,Greece,country,Europe and Central Asia,39.074208,21.824312,OM,Oman,country,Middle East and North Africa,21.512583,55.923255,3782.81304947776,1987,431,4,0,32,0,0,0,287,104,0,0,0,0,0,0,0,0,0,4,0,0,0,0,0
GT,Guatemala,country,Latin America and the Caribbean,15.783471,-90.230759,OM,Oman,country,Middle East and North Africa,21.512583,55.923255,14479.9876536801,1987,465,0,0,0,0,0,7,0,0,0,235,0,223,0,0,0,0,0,0,0,0,0,0,0
GY,Guyana,country,Latin America and the Caribbean,4.860416,-58.93018,OM,Oman,country,Middle East and North Africa,21.512583,55.923255,12357.6578597734,1987,37,0,0,0,0,0,0,0,0,0,0,0,37,0,0,0,0,0,0,0,0,0,0,0
HN,Honduras,country,Latin America and the Caribbean,15.199999,-86.241905,OM,Oman,country,Middle East and North Africa,21.512583,55.923255,14226.6772935728,1987,36,0,0,0,0,0,0,0,0,0,0,0,36,0,0,0,0,0,0,0,0,0,0,0
HU,Hungary,country,Europe and Central Asia,47.162494,19.503304,OM,Oman,country,Middle East and North Africa,21.512583,55.923255,4333.71665145868,1987,576,0,0,0,0,0,0,0,0,0,0,0,0,0,0,0,0,576,0,0,0,0,0,0
IN,India,country,South Asia,20.593684,78.96288,OM,Oman,country,Middle East and North Africa,21.512583,55.923255,2393.59498923766,1987,49160,39196,16,51,0,22,99,521,307,12,741,1864,1483,836,27,140,79,3782,63,0,0,0,0,0
ID,Indonesia,country,East Asia and Pacific,-0.789275,113.921327,OM,Oman,country,Middle East and North Africa,21.512583,55.923255,6767.69700646654,1987,328,0,0,0,0,0,0,32,0,0,18,0,278,0,0,0,0,0,0,0,0,0,0,0
IE,Ireland,country,Europe and Central Asia,53.41291,-8.24389,OM,Oman,country,Middle East and North Africa,21.512583,55.923255,6410.10295861924,1987,254,108,0,0,0,0,0,0,0,0,0,0,0,1,0,0,0,7,138,0,0,0,0,0
IT,Italy,country,Europe and Central Asia,41.87194,12.56738,OM,Oman,country,Middle East and North Africa,21.512583,55.923255,4624.37467399731,1987,920,200,0,47,0,0,0,587,0,0,0,0,4,35,16,31,0,0,0,0,0,0,0,0
JM,Jamaica,country,Latin America and the Caribbean,18.109581,-77.297508,OM,Oman,country,Middle East and North Africa,21.512583,55.923255,13296.3555910576,1987,1,0,0,0,0,0,0,0,0,0,0,0,0,0,0,1,0,0,0,0,0,0,0,0
JP,Japan,country,East Asia and Pacific,36.204824,138.252924,OM,Oman,country,Middle East and North Africa,21.512583,55.923255,7962.72854447021,1987,517,15,0,84,0,0,0,27,52,53,0,0,13,195,0,78,0,0,0,0,0,0,0,0
JO,Jordan,country,Middle East and North Africa,30.585164,36.238414,OM,Oman,country,Middle East and North Africa,21.512583,55.923255,2207.82078999215,1987,2,0,0,0,0,0,0,0,2,0,0,0,0,0,0,0,0,0,0,0,0,0,0,0
KE,Kenya,country,Sub-Saharan Africa,-0.023559,37.906193,OM,Oman,country,Middle East and North Africa,21.512583,55.923255,3094.87826406551,1987,666,4,0,39,9,0,0,0,4,0,0,0,85,3,522,0,0,0,0,0,0,0,0,0
KW,Kuwait,country,Middle East and North Africa,29.31166,47.481766,OM,Oman,country,Middle East and North Africa,21.512583,55.923255,1213.2903060681,1987,127,27,0,0,0,0,0,20,0,0,0,0,5,43,0,20,0,3,9,0,0,0,0,0
LB,Lebanon,country,Middle East and North Africa,33.854721,35.862285,OM,Oman,country,Middle East and North Africa,21.512583,55.923255,2400.39124145012,1987,151,2,0,8,0,0,0,15,6,0,0,0,6,5,0,88,0,0,21,0,0,0,0,0
MG,Madagascar,country,Sub-Saharan Africa,-18.766947,46.869107,OM,Oman,country,Middle East and North Africa,21.512583,55.923255,4591.11740719136,1987,6,0,0,0,0,0,0,0,0,0,4,0,0,2,0,0,0,0,0,0,0,0,0,0
MW,Malawi,country,Sub-Saharan Africa,-13.254308,34.301525,OM,Oman,country,Middle East and North Africa,21.512583,55.923255,4534.35228949369,1987,11,0,0,0,0,0,0,0,0,0,0,0,10,1,0,0,0,0,0,0,0,0,0,0
MY,Malaysia,country,East Asia and Pacific,4.210484,101.975766,OM,Oman,country,Middle East and North Africa,21.512583,55.923255,5328.70078488928,1987,7415,51,4,12,0,0,20,19,80,0,8,0,37,28,7142,14,0,0,0,0,0,0,0,0
MT,Malta,country,Middle East and North Africa,35.937496,14.375416,OM,Oman,country,Middle East and North Africa,21.512583,55.923255,4323.06501863858,1987,25,7,0,3,0,0,0,0,3,0,0,0,0,6,0,6,0,0,0,0,0,0,0,0
MM,Myanmar,country,East Asia and Pacific,21.913965,95.956223,OM,Oman,country,Middle East and North Africa,21.512583,55.923255,4128.45729995065,1987,13771,13771,0,0,0,0,0,0,0,0,0,0,0,0,0,0,0,0,0,0,0,0,0,0
NL,Netherlands,country,Europe and Central Asia,52.132633,5.291266,OM,Oman,country,Middle East and North Africa,21.512583,55.923255,5491.22131202927,1987,28776,4546,1171,82,0,0,1,168,118,29,5,956,49,160,130,1706,57,176,19479,0,0,0,0,0
NZ,New Zealand,country,East Asia and Pacific,-40.900557,174.885971,OM,Oman,country,Middle East and North Africa,21.512583,55.923255,13969.8993700863,1987,4926,0,0,0,0,0,0,12,0,0,11,0,0,0,0,0,0,4174,729,0,0,0,0,0
NG,Nigeria,country,Sub-Saharan Africa,9.081999,8.675277,OM,Oman,country,Middle East and North Africa,21.512583,55.923255,5236.32628251408,1987,7,0,0,0,0,0,0,0,0,0,0,0,7,0,0,0,0,0,0,0,0,0,0,0
NO,Norway,country,Europe and Central Asia,60.472024,8.468946,OM,Oman,country,Middle East and North Africa,21.512583,55.923255,5678.98838558594,1987,285,0,0,0,0,0,0,0,0,0,0,0,0,0,236,0,0,16,33,0,0,0,0,0
PK,Pakistan,country,South Asia,30.375321,69.345116,OM,Oman,country,Middle East and North Africa,21.512583,55.923255,1664.54786661874,1987,11961,10983,63,188,0,0,0,440,105,66,53,0,10,50,0,0,327,3,0,0,0,0,0,0
PG,Papua New Guinea,country,East Asia and Pacific,-6.314993,143.95555,OM,Oman,country,Middle East and North Africa,21.512583,55.923255,10073.5122251208,1987,31,0,0,0,0,0,0,0,0,0,31,0,0,0,0,0,0,0,0,0,0,0,0,0
PH,Philippines,country,East Asia and Pacific,12.879721,121.774017,OM,Oman,country,Middle East and North Africa,21.512583,55.923255,7021.79755581681,1987,480,0,0,7,0,0,0,0,0,0,0,0,411,62,0,0,0,0,0,0,0,0,0,0
PT,Portugal,country,Europe and Central Asia,39.399872,-8.224454,OM,Oman,country,Middle East and North Africa,21.512583,55.923255,6333.03923165743,1987,11,0,0,0,0,0,0,6,0,0,0,0,0,0,0,5,0,0,0,0,0,0,0,0
QA,Qatar,country,Middle East and North Africa,25.354826,51.183884,OM,Oman,country,Middle East and North Africa,21.512583,55.923255,645.837727578887,1987,46,15,0,0,0,0,0,0,0,0,0,0,0,31,0,0,0,0,0,0,0,0,0,0
KR,"Korea, Rep.",country,East Asia and Pacific,35.907757,127.766922,OM,Oman,country,Middle East and North Africa,21.512583,55.923255,7042.54095251856,1987,843,132,0,122,0,0,0,0,182,0,0,5,0,5,15,382,3,0,0,0,0,0,0,0
RO,Romania,country,Europe and Central Asia,45.943161,24.96676,OM,Oman,country,Middle East and North Africa,21.512583,55.923255,3905.50101925525,1987,0,0,0,0,0,0,0,0,0,0,0,0,0,0,0,0,0,0,0,0,0,0,0,0
RW,Rwanda,country,Sub-Saharan Africa,-1.940278,29.873888,OM,Oman,country,Middle East and North Africa,21.512583,55.923255,3853.9194664099,1987,11,0,0,0,0,0,0,0,0,0,0,0,11,0,0,0,0,0,0,0,0,0,0,0
SA,Saudi Arabia,country,Middle East and North Africa,23.885942,45.079162,OM,Oman,country,Middle East and North Africa,21.512583,55.923255,1144.20650446303,1987,1387,8,0,29,0,0,0,34,248,0,0,0,0,0,0,694,0,0,374,0,0,0,0,0
SG,Singapore,country,East Asia and Pacific,1.352083,103.819836,OM,Oman,country,Middle East and North Africa,21.512583,55.923255,5653.27053962043,1987,4387,257,0,186,0,0,26,8,38,0,85,0,324,271,2890,298,0,0,4,0,0,0,0,0
SO,Somalia,country,Sub-Saharan Africa,5.152149,46.199616,OM,Oman,country,Middle East and North Africa,21.512583,55.923255,2101.73159070231,1987,2,0,0,0,0,0,0,0,0,0,0,0,2,0,0,0,0,0,0,0,0,0,0,0
ES,Spain,country,Europe and Central Asia,40.463667,-3.74922,OM,Oman,country,Middle East and North Africa,21.512583,55.923255,5951.12258086635,1987,3040,2205,0,14,0,0,0,629,53,0,7,0,47,22,55,8,0,0,0,0,0,0,0,0
LK,Sri Lanka,country,South Asia,7.873054,80.771797,OM,Oman,country,Middle East and North Africa,21.512583,55.923255,3068.59032985906,1987,693,29,0,0,0,2,61,261,40,0,50,63,70,116,1,0,0,0,0,0,0,0,0,0
SE,Sweden,country,Europe and Central Asia,60.128161,18.643501,OM,Oman,country,Middle East and North Africa,21.512583,55.923255,5191.06852111848,1987,823,0,0,0,0,0,0,0,0,0,0,0,0,25,0,21,0,30,747,0,0,0,0,0
CH,Switzerland,country,Europe and Central Asia,46.818188,8.227512,OM,Oman,country,Middle East and North Africa,21.512583,55.923255,5109.66914205266,1987,154,5,5,26,0,0,0,36,5,0,0,0,19,43,0,13,0,2,0,0,0,0,0,0
SY,Syrian Arab Rep.,country,Middle East and North Africa,34.802075,38.996815,OM,Oman,country,Middle East and North Africa,21.512583,55.923255,2218.27045836542,1987,5,0,0,0,0,0,0,4,1,0,0,0,0,0,0,0,0,0,0,0,0,0,0,0
TH,Thailand,country,East Asia and Pacific,15.870032,100.992541,OM,Oman,country,Middle East and North Africa,21.512583,55.923255,4778.01588276839,1987,16420,16342,0,26,0,0,0,18,0,0,0,0,0,34,0,0,0,0,0,0,0,0,0,0
TT,Trinidad and Tobago,country,Latin America and the Caribbean,10.691803,-61.222503,OM,Oman,country,Middle East and North Africa,21.512583,55.923255,12293.0542802915,1987,0,0,0,0,0,0,0,0,0,0,0,0,0,0,0,0,0,0,0,0,0,0,0,0
TN,Tunisia,country,Middle East and North Africa,33.886917,9.537499,OM,Oman,country,Middle East and North Africa,21.512583,55.923255,4731.83132731994,1987,45,10,0,0,0,0,0,0,21,0,0,0,0,14,0,0,0,0,0,0,0,0,0,0
TR,Turkey,country,Europe and Central Asia,38.963745,35.243322,OM,Oman,country,Middle East and North Africa,21.512583,55.923255,2767.00300704356,1987,70,10,0,49,0,0,0,9,0,0,0,0,0,0,0,0,0,2,0,0,0,0,0,0
AE,United Arab Emirates,country,Middle East and North Africa,23.424076,53.847818,OM,Oman,country,Middle East and North Africa,21.512583,55.923255,301.417786949232,1987,124340,16614,8366,8211,0,200,612,17792,25320,23,615,472,1254,12057,1669,11170,126,14563,5402,0,0,0,0,0
GB,United Kingdom,country,Europe and Central Asia,55.378051,-3.435973,OM,Oman,country,Middle East and North Africa,21.512583,55.923255,6141.35690780383,1987,8069,499,0,706,2,2,0,281,208,0,2,1221,387,2043,104,1943,6,228,443,0,0,0,0,0
TZ,Tanzania,country,Sub-Saharan Africa,-6.369028,34.888822,OM,Oman,country,Middle East and North Africa,21.512583,55.923255,3860.97953406752,1987,46,0,0,0,0,0,0,15,10,0,4,0,17,0,0,0,0,0,0,0,0,0,0,0
US,USA,country,North America,37.09024,-95.712891,OM,Oman,country,Middle East and North Africa,21.512583,55.923255,12867.044315304,1987,15343,11539,20,7,0,0,0,482,615,0,23,0,293,2203,9,71,0,6,75,0,0,0,0,0
BA,Bosnia & Herzegovina,country,Europe and Central Asia,43.915886,17.679076,OM,Oman,country,Middle East and North Africa,21.512583,55.923255,4305.40872088064,1987,5600,5500,0,57,0,0,0,0,0,0,0,0,43,0,0,0,0,0,0,0,0,0,0,0
AR,Argentina,country,Latin America and the Caribbean,-38.416097,-63.616672,OM,Oman,country,Middle East and North Africa,21.512583,55.923255,14022.0109396693,1988,13,0,0,0,0,0,0,0,0,0,0,0,0,0,0,0,0,13,0,0,0,0,0,0
AU,Australia,country,East Asia and Pacific,-25.274398,133.775136,OM,Oman,country,Middle East and North Africa,21.512583,55.923255,9888.17091862246,1988,144815,136967,1,218,0,0,13,298,243,0,0,203,7,102,37,2354,0,4032,340,0,0,0,0,0
AT,Austria,country,Europe and Central Asia,47.516231,14.550072,OM,Oman,country,Middle East and North Africa,21.512583,55.923255,4686.82220900003,1988,86,0,0,26,0,0,0,2,0,0,0,17,0,3,0,0,0,12,26,0,0,0,0,0
BH,Bahrain,country,Middle East and North Africa,25.930414,50.637772,OM,Oman,country,Middle East and North Africa,21.512583,55.923255,729.218079260173,1988,45,0,0,42,0,0,0,0,0,0,0,0,0,3,0,0,0,0,0,0,0,0,0,0
BE,Belgium,country,Europe and Central Asia,50.503887,4.469936,OM,Oman,country,Middle East and North Africa,21.512583,55.923255,5491.35648836076,1988,798,207,8,29,0,0,0,204,37,0,0,100,0,30,12,3,0,0,168,0,0,0,0,0
BO,Bolivia,country,Latin America and the Caribbean,-16.290154,-63.588653,OM,Oman,country,Middle East and North Africa,21.512583,55.923255,13677.9496564669,1988,88,0,0,0,0,0,0,0,0,0,0,0,88,0,0,0,0,0,0,0,0,0,0,0
BR,Brazil,country,Latin America and the Caribbean,-14.235004,-51.92528,OM,Oman,country,Middle East and North Africa,21.512583,55.923255,12412.5757282605,1988,1402,0,0,84,0,0,0,0,0,0,19,0,123,8,0,4,0,1164,0,0,0,0,0,0
BG,Bulgaria,country,Europe and Central Asia,42.733883,25.48583,OM,Oman,country,Middle East and North Africa,21.512583,55.923255,3681.24017145279,1988,58,0,0,0,0,0,0,58,0,0,0,0,0,0,0,0,0,0,0,0,0,0,0,0
BI,Burundi,country,Sub-Saharan Africa,-3.373056,29.918886,OM,Oman,country,Middle East and North Africa,21.512583,55.923255,3962.6980369638,1988,336,0,0,0,0,0,0,0,0,0,0,0,336,0,0,0,0,0,0,0,0,0,0,0
CA,Canada,country,North America,56.130366,-106.346771,OM,Oman,country,Middle East and North Africa,21.512583,55.923255,11233.9620076981,1988,9,0,9,0,0,0,0,0,0,0,0,0,0,0,0,0,0,0,0,0,0,0,0,0
CL,Chile,country,Latin America and the Caribbean,-35.675147,-71.542969,OM,Oman,country,Middle East and North Africa,21.512583,55.923255,14732.4173052424,1988,11,0,0,11,0,0,0,0,0,0,0,0,0,0,0,0,0,0,0,0,0,0,0,0
HK,Hong Kong,country,East Asia and Pacific,22.396428,114.109497,OM,Oman,country,Middle East and North Africa,21.512583,55.923255,5968.75914253481,1988,41,5,0,4,0,0,0,0,30,0,2,0,0,0,0,0,0,0,0,0,0,0,0,0
CN,China,country,East Asia and Pacific,35.86166,104.195397,OM,Oman,country,Middle East and North Africa,21.512583,55.923255,4922.53173948043,1988,4617,2588,0,78,0,20,0,1789,43,0,14,5,53,27,0,0,0,0,0,0,0,0,0,0
CR,Costa Rica,country,Latin America and the Caribbean,9.748917,-83.753428,OM,Oman,country,Middle East and North Africa,21.512583,55.923255,14423.1361477311,1988,619,0,0,0,0,0,0,0,0,0,50,0,569,0,0,0,0,0,0,0,0,0,0,0
CI,Ivory Coast,country,Sub-Saharan Africa,7.539989,-5.54708,OM,Oman,country,Middle East and North Africa,21.512583,55.923255,6762.6816384374,1988,3,0,0,0,0,0,0,0,0,0,0,0,3,0,0,0,0,0,0,0,0,0,0,0
CU,Cuba,country,Latin America and the Caribbean,21.521757,-77.781167,OM,Oman,country,Middle East and North Africa,21.512583,55.923255,13092.3548765881,1988,0,0,0,0,0,0,0,0,0,0,0,0,0,0,0,0,0,0,0,0,0,0,0,0
CY,Cyprus,country,Europe and Central Asia,35.126413,33.429859,OM,Oman,country,Middle East and North Africa,21.512583,55.923255,2664.26256622778,1988,175,0,0,107,0,0,0,0,19,0,0,0,2,43,0,0,0,0,4,0,0,0,0,0
DK,Denmark,country,Europe and Central Asia,56.26392,9.501785,OM,Oman,country,Middle East and North Africa,21.512583,55.923255,5411.70624087667,1988,4708,109,16,5,0,0,0,261,33,0,0,181,0,2,653,224,0,2358,866,0,0,0,0,0
EC,Ecuador,country,Latin America and the Caribbean,-1.831239,-78.183406,OM,Oman,country,Middle East and North Africa,21.512583,55.923255,14606.8917210826,1988,90,0,0,0,0,0,0,0,0,0,0,0,90,0,0,0,0,0,0,0,0,0,0,0
EG,Egypt,country,Middle East and North Africa,26.820553,30.802498,OM,Oman,country,Middle East and North Africa,21.512583,55.923255,2614.05376902867,1988,127,13,0,2,0,0,0,54,40,0,0,0,0,18,0,0,0,0,0,0,0,0,0,0
FI,Finland,country,Europe and Central Asia,61.92411,25.748151,OM,Oman,country,Middle East and North Africa,21.512583,55.923255,5054.59785900908,1988,1749,0,0,0,0,0,0,0,0,0,0,0,0,0,0,0,0,40,1709,0,0,0,0,0
FR,France,country,Europe and Central Asia,46.227638,2.213749,OM,Oman,country,Middle East and North Africa,21.512583,55.923255,5541.42830139283,1988,28485,16486,87,71,0,0,0,10,39,0,0,41,2,121,129,568,0,9375,1556,0,0,0,0,0
GR,Greece,country,Europe and Central Asia,39.074208,21.824312,OM,Oman,country,Middle East and North Africa,21.512583,55.923255,3782.81304947776,1988,262,7,0,63,0,0,0,0,171,0,0,0,0,0,0,0,0,0,21,0,0,0,0,0
GT,Guatemala,country,Latin America and the Caribbean,15.783471,-90.230759,OM,Oman,country,Middle East and North Africa,21.512583,55.923255,14479.9876536801,1988,651,0,0,0,0,0,0,0,0,0,132,0,519,0,0,0,0,0,0,0,0,0,0,0
HN,Honduras,country,Latin America and the Caribbean,15.199999,-86.241905,OM,Oman,country,Middle East and North Africa,21.512583,55.923255,14226.6772935728,1988,18,0,0,0,0,0,0,0,0,0,0,0,18,0,0,0,0,0,0,0,0,0,0,0
HU,Hungary,country,Europe and Central Asia,47.162494,19.503304,OM,Oman,country,Middle East and North Africa,21.512583,55.923255,4333.71665145868,1988,68,0,0,0,0,0,0,0,0,0,0,0,0,0,0,0,0,68,0,0,0,0,0,0
IN,India,country,South Asia,20.593684,78.96288,OM,Oman,country,Middle East and North Africa,21.512583,55.923255,2393.59498923766,1988,53223,42136,0,59,0,11,3373,830,322,2,861,122,1168,458,0,202,13,3609,70,0,0,0,0,0
ID,Indonesia,country,East Asia and Pacific,-0.789275,113.921327,OM,Oman,country,Middle East and North Africa,21.512583,55.923255,6767.69700646654,1988,547,0,0,0,0,0,11,0,0,0,3,0,533,0,0,0,0,0,0,0,0,0,0,0
IR,Iran,country,Middle East and North Africa,32.427908,53.688046,OM,Oman,country,Middle East and North Africa,21.512583,55.923255,1235.05132525251,1988,0,0,0,0,0,0,0,0,0,0,0,0,0,0,0,0,0,0,0,0,0,0,0,0
IE,Ireland,country,Europe and Central Asia,53.41291,-8.24389,OM,Oman,country,Middle East and North Africa,21.512583,55.923255,6410.10295861924,1988,203,86,0,0,0,0,0,0,0,0,0,0,0,5,0,0,0,14,98,0,0,0,0,0
IT,Italy,country,Europe and Central Asia,41.87194,12.56738,OM,Oman,country,Middle East and North Africa,21.512583,55.923255,4624.37467399731,1988,1916,376,0,65,0,0,0,1263,0,0,0,108,24,32,37,11,0,0,0,0,0,0,0,0
JM,Jamaica,country,Latin America and the Caribbean,18.109581,-77.297508,OM,Oman,country,Middle East and North Africa,21.512583,55.923255,13296.3555910576,1988,1,0,0,0,0,0,0,0,0,0,0,0,0,0,0,1,0,0,0,0,0,0,0,0
JP,Japan,country,East Asia and Pacific,36.204824,138.252924,OM,Oman,country,Middle East and North Africa,21.512583,55.923255,7962.72854447021,1988,303,61,13,130,0,0,0,2,0,17,0,0,6,16,0,58,0,0,0,0,0,0,0,0
JO,Jordan,country,Middle East and North Africa,30.585164,36.238414,OM,Oman,country,Middle East and North Africa,21.512583,55.923255,2207.82078999215,1988,2,0,0,0,0,0,0,0,0,0,0,0,0,2,0,0,0,0,0,0,0,0,0,0
KE,Kenya,country,Sub-Saharan Africa,-0.023559,37.906193,OM,Oman,country,Middle East and North Africa,21.512583,55.923255,3094.87826406551,1988,567,0,0,500,15,0,0,0,14,0,0,0,18,20,0,0,0,0,0,0,0,0,0,0
KW,Kuwait,country,Middle East and North Africa,29.31166,47.481766,OM,Oman,country,Middle East and North Africa,21.512583,55.923255,1213.2903060681,1988,234,45,10,12,0,0,0,102,7,0,0,0,0,3,0,0,0,5,50,0,0,0,0,0
LB,Lebanon,country,Middle East and North Africa,33.854721,35.862285,OM,Oman,country,Middle East and North Africa,21.512583,55.923255,2400.39124145012,1988,235,0,0,0,0,0,0,46,39,0,0,0,2,49,0,99,0,0,0,0,0,0,0,0
MG,Madagascar,country,Sub-Saharan Africa,-18.766947,46.869107,OM,Oman,country,Middle East and North Africa,21.512583,55.923255,4591.11740719136,1988,6,0,0,0,0,0,0,0,0,0,6,0,0,0,0,0,0,0,0,0,0,0,0,0
MY,Malaysia,country,East Asia and Pacific,4.210484,101.975766,OM,Oman,country,Middle East and North Africa,21.512583,55.923255,5328.70078488928,1988,11890,80,44,107,0,0,59,224,105,0,21,0,135,85,10692,330,0,8,0,0,0,0,0,0
MT,Malta,country,Middle East and North Africa,35.937496,14.375416,OM,Oman,country,Middle East and North Africa,21.512583,55.923255,4323.06501863858,1988,215,24,0,131,0,0,0,0,27,0,0,0,0,33,0,0,0,0,0,0,0,0,0,0
MX,Mexico,country,Latin America and the Caribbean,23.634501,-102.552784,OM,Oman,country,Middle East and North Africa,21.512583,55.923255,14497.1020781752,1988,45,0,0,9,0,0,0,0,0,0,0,0,36,0,0,0,0,0,0,0,0,0,0,0
NL,Netherlands,country,Europe and Central Asia,52.132633,5.291266,OM,Oman,country,Middle East and North Africa,21.512583,55.923255,5491.22131202927,1988,24890,205,831,172,0,0,751,183,113,11,0,300,31,127,570,1373,137,265,19958,0,0,0,0,0
NZ,New Zealand,country,East Asia and Pacific,-40.900557,174.885971,OM,Oman,country,Middle East and North Africa,21.512583,55.923255,13969.8993700863,1988,5570,0,0,0,0,0,0,38,2,0,0,24,0,2,0,0,0,5080,424,0,0,0,0,0
NG,Nigeria,country,Sub-Saharan Africa,9.081999,8.675277,OM,Oman,country,Middle East and North Africa,21.512583,55.923255,5236.32628251408,1988,2,0,0,0,0,0,0,0,0,0,0,0,2,0,0,0,0,0,0,0,0,0,0,0
NO,Norway,country,Europe and Central Asia,60.472024,8.468946,OM,Oman,country,Middle East and North Africa,21.512583,55.923255,5678.98838558594,1988,16,0,0,0,0,0,0,0,0,0,0,0,0,0,0,0,0,0,16,0,0,0,0,0
PK,Pakistan,country,South Asia,30.375321,69.345116,OM,Oman,country,Middle East and North Africa,21.512583,55.923255,1664.54786661874,1988,37407,36642,0,136,0,0,0,332,68,88,99,0,9,14,0,19,150,0,0,0,0,0,0,0
PY,Paraguay,country,Latin America and the Caribbean,-23.442503,-58.443832,OM,Oman,country,Middle East and North Africa,21.512583,55.923255,13343.9378197555,1988,899,0,0,0,0,0,0,0,0,0,0,0,899,0,0,0,0,0,0,0,0,0,0,0
PH,Philippines,country,East Asia and Pacific,12.879721,121.774017,OM,Oman,country,Middle East and North Africa,21.512583,55.923255,7021.79755581681,1988,640,0,0,0,0,0,0,0,15,0,0,0,532,76,0,17,0,0,0,0,0,0,0,0
PT,Portugal,country,Europe and Central Asia,39.399872,-8.224454,OM,Oman,country,Middle East and North Africa,21.512583,55.923255,6333.03923165743,1988,10,0,0,0,0,0,0,0,0,0,0,0,0,0,0,10,0,0,0,0,0,0,0,0
QA,Qatar,country,Middle East and North Africa,25.354826,51.183884,OM,Oman,country,Middle East and North Africa,21.512583,55.923255,645.837727578887,1988,0,0,0,0,0,0,0,0,0,0,0,0,0,0,0,0,0,0,0,0,0,0,0,0
KR,"Korea, Rep.",country,East Asia and Pacific,35.907757,127.766922,OM,Oman,country,Middle East and North Africa,21.512583,55.923255,7042.54095251856,1988,302,74,0,59,0,0,0,0,75,0,0,0,17,18,0,59,0,0,0,0,0,0,0,0
RO,Romania,country,Europe and Central Asia,45.943161,24.96676,OM,Oman,country,Middle East and North Africa,21.512583,55.923255,3905.50101925525,1988,0,0,0,0,0,0,0,0,0,0,0,0,0,0,0,0,0,0,0,0,0,0,0,0
RW,Rwanda,country,Sub-Saharan Africa,-1.940278,29.873888,OM,Oman,country,Middle East and North Africa,21.512583,55.923255,3853.9194664099,1988,21,0,0,0,0,0,0,0,0,0,0,0,21,0,0,0,0,0,0,0,0,0,0,0
SA,Saudi Arabia,country,Middle East and North Africa,23.885942,45.079162,OM,Oman,country,Middle East and North Africa,21.512583,55.923255,1144.20650446303,1988,6702,5483,0,73,0,0,0,66,626,0,0,7,0,6,0,278,0,0,163,0,0,0,0,0
SG,Singapore,country,East Asia and Pacific,1.352083,103.819836,OM,Oman,country,Middle East and North Africa,21.512583,55.923255,5653.27053962043,1988,4413,284,3,243,0,0,12,13,86,0,33,0,10,170,1919,1614,0,0,26,0,0,0,0,0
SO,Somalia,country,Sub-Saharan Africa,5.152149,46.199616,OM,Oman,country,Middle East and North Africa,21.512583,55.923255,2101.73159070231,1988,1,0,0,1,0,0,0,0,0,0,0,0,0,0,0,0,0,0,0,0,0,0,0,0
ES,Spain,country,Europe and Central Asia,40.463667,-3.74922,OM,Oman,country,Middle East and North Africa,21.512583,55.923255,5951.12258086635,1988,537,0,0,107,0,0,0,128,17,0,6,0,46,197,32,4,0,0,0,0,0,0,0,0
LK,Sri Lanka,country,South Asia,7.873054,80.771797,OM,Oman,country,Middle East and North Africa,21.512583,55.923255,3068.59032985906,1988,582,3,0,1,0,0,7,332,73,0,5,0,58,98,0,0,0,0,5,0,0,0,0,0
SZ,Swaziland,country,Sub-Saharan Africa,-26.522503,31.465866,OM,Oman,country,Middle East and North Africa,21.512583,55.923255,5962.2676115932,1988,10,5,0,0,0,0,0,0,0,0,0,0,0,5,0,0,0,0,0,0,0,0,0,0
SE,Sweden,country,Europe and Central Asia,60.128161,18.643501,OM,Oman,country,Middle East and North Africa,21.512583,55.923255,5191.06852111848,1988,966,0,0,0,0,0,0,0,0,0,0,0,0,17,0,0,0,11,938,0,0,0,0,0
CH,Switzerland,country,Europe and Central Asia,46.818188,8.227512,OM,Oman,country,Middle East and North Africa,21.512583,55.923255,5109.66914205266,1988,474,2,12,21,0,0,0,118,2,0,0,0,14,98,0,0,0,0,207,0,0,0,0,0
SY,Syrian Arab Rep.,country,Middle East and North Africa,34.802075,38.996815,OM,Oman,country,Middle East and North Africa,21.512583,55.923255,2218.27045836542,1988,0,0,0,0,0,0,0,0,0,0,0,0,0,0,0,0,0,0,0,0,0,0,0,0
TH,Thailand,country,East Asia and Pacific,15.870032,100.992541,OM,Oman,country,Middle East and North Africa,21.512583,55.923255,4778.01588276839,1988,22323,21247,0,565,0,0,0,0,71,0,0,400,0,40,0,0,0,0,0,0,0,0,0,0
TN,Tunisia,country,Middle East and North Africa,33.886917,9.537499,OM,Oman,country,Middle East and North Africa,21.512583,55.923255,4731.83132731994,1988,124,41,0,73,2,0,0,0,0,0,0,0,0,8,0,0,0,0,0,0,0,0,0,0
TR,Turkey,country,Europe and Central Asia,38.963745,35.243322,OM,Oman,country,Middle East and North Africa,21.512583,55.923255,2767.00300704356,1988,146,15,0,78,0,0,0,34,0,0,0,0,19,0,0,0,0,0,0,0,0,0,0,0
AE,United Arab Emirates,country,Middle East and North Africa,23.424076,53.847818,OM,Oman,country,Middle East and North Africa,21.512583,55.923255,301.417786949232,1988,140130,17296,9146,10603,0,185,418,31871,27945,19,925,3227,1396,6637,468,13768,25,12503,3723,0,0,0,0,0
GB,United Kingdom,country,Europe and Central Asia,55.378051,-3.435973,OM,Oman,country,Middle East and North Africa,21.512583,55.923255,6141.35690780383,1988,14259,395,3,8727,0,0,0,251,128,0,1,400,316,1646,56,1646,0,159,531,0,0,0,0,0
TZ,Tanzania,country,Sub-Saharan Africa,-6.369028,34.888822,OM,Oman,country,Middle East and North Africa,21.512583,55.923255,3860.97953406752,1988,34,0,0,0,0,0,0,5,15,0,10,0,0,4,0,0,0,0,0,0,0,0,0,0
US,USA,country,North America,37.09024,-95.712891,OM,Oman,country,Middle East and North Africa,21.512583,55.923255,12867.044315304,1988,25945,23919,8,5,0,0,0,247,430,0,1,2,145,822,36,73,0,42,215,0,0,0,0,0
BA,Bosnia & Herzegovina,country,Europe and Central Asia,43.915886,17.679076,OM,Oman,country,Middle East and North Africa,21.512583,55.923255,4305.40872088064,1988,126,0,0,126,0,0,0,0,0,0,0,0,0,0,0,0,0,0,0,0,0,0,0,0
ZM,Zambia,country,Sub-Saharan Africa,-13.133897,27.849332,OM,Oman,country,Middle East and North Africa,21.512583,55.923255,4927.94866432211,1988,2,0,0,0,0,0,0,0,0,0,0,0,0,2,0,0,0,0,0,0,0,0,0,0
ZW,Zimbabwe,country,Sub-Saharan Africa,-19.015438,29.154857,OM,Oman,country,Middle East and North Africa,21.512583,55.923255,5371.61862239672,1988,33,0,0,0,0,0,0,0,0,0,0,0,33,0,0,0,0,0,0,0,0,0,0,0
AR,Argentina,country,Latin America and the Caribbean,-38.416097,-63.616672,OM,Oman,country,Middle East and North Africa,21.512583,55.923255,14022.0109396693,1989,16,0,0,0,0,0,0,0,0,0,0,16,0,0,0,0,0,0,0,0,0,0,0,0
AU,Australia,country,East Asia and Pacific,-25.274398,133.775136,OM,Oman,country,Middle East and North Africa,21.512583,55.923255,9888.17091862246,1989,168111,162077,5,59,88,0,0,285,361,0,0,56,0,10,126,2119,0,2787,138,0,0,0,0,0
AT,Austria,country,Europe and Central Asia,47.516231,14.550072,OM,Oman,country,Middle East and North Africa,21.512583,55.923255,4686.82220900003,1989,122,0,0,52,0,0,0,0,12,0,0,0,17,0,0,0,0,6,35,0,0,0,0,0
BS,The Bahamas,country,Latin America and the Caribbean,25.03428,-77.39628,OM,Oman,country,Middle East and North Africa,21.512583,55.923255,12805.3788551659,1989,2,0,0,0,0,0,0,0,0,0,0,0,0,0,0,2,0,0,0,0,0,0,0,0
BH,Bahrain,country,Middle East and North Africa,25.930414,50.637772,OM,Oman,country,Middle East and North Africa,21.512583,55.923255,729.218079260173,1989,10,0,0,0,0,0,0,0,0,0,0,0,0,0,0,10,0,0,0,0,0,0,0,0
BE,Belgium,country,Europe and Central Asia,50.503887,4.469936,OM,Oman,country,Middle East and North Africa,21.512583,55.923255,5491.35648836076,1989,1561,291,40,37,0,0,0,252,0,0,0,140,17,15,506,0,0,2,261,0,0,0,0,0
BO,Bolivia,country,Latin America and the Caribbean,-16.290154,-63.588653,OM,Oman,country,Middle East and North Africa,21.512583,55.923255,13677.9496564669,1989,53,0,0,0,0,0,0,0,0,0,0,0,53,0,0,0,0,0,0,0,0,0,0,0
BR,Brazil,country,Latin America and the Caribbean,-14.235004,-51.92528,OM,Oman,country,Middle East and North Africa,21.512583,55.923255,12412.5757282605,1989,391,0,0,141,0,0,0,0,17,0,0,0,0,0,0,3,0,230,0,0,0,0,0,0
BG,Bulgaria,country,Europe and Central Asia,42.733883,25.48583,OM,Oman,country,Middle East and North Africa,21.512583,55.923255,3681.24017145279,1989,30,0,0,0,0,0,0,15,0,0,0,0,0,15,0,0,0,0,0,0,0,0,0,0
BI,Burundi,country,Sub-Saharan Africa,-3.373056,29.918886,OM,Oman,country,Middle East and North Africa,21.512583,55.923255,3962.6980369638,1989,277,0,0,0,0,0,0,0,0,0,0,0,277,0,0,0,0,0,0,0,0,0,0,0
CL,Chile,country,Latin America and the Caribbean,-35.675147,-71.542969,OM,Oman,country,Middle East and North Africa,21.512583,55.923255,14732.4173052424,1989,21,0,0,21,0,0,0,0,0,0,0,0,0,0,0,0,0,0,0,0,0,0,0,0
HK,Hong Kong,country,East Asia and Pacific,22.396428,114.109497,OM,Oman,country,Middle East and North Africa,21.512583,55.923255,5968.75914253481,1989,55,7,0,48,0,0,0,0,0,0,0,0,0,0,0,0,0,0,0,0,0,0,0,0
CN,China,country,East Asia and Pacific,35.86166,104.195397,OM,Oman,country,Middle East and North Africa,21.512583,55.923255,4922.53173948043,1989,5589,3507,0,31,0,0,0,1548,27,0,35,10,125,306,0,0,0,0,0,0,0,0,0,0
CR,Costa Rica,country,Latin America and the Caribbean,9.748917,-83.753428,OM,Oman,country,Middle East and North Africa,21.512583,55.923255,14423.1361477311,1989,812,0,0,0,0,0,0,0,0,0,50,0,762,0,0,0,0,0,0,0,0,0,0,0
CI,Ivory Coast,country,Sub-Saharan Africa,7.539989,-5.54708,OM,Oman,country,Middle East and North Africa,21.512583,55.923255,6762.6816384374,1989,4,0,0,0,0,0,0,0,0,0,0,0,4,0,0,0,0,0,0,0,0,0,0,0
CU,Cuba,country,Latin America and the Caribbean,21.521757,-77.781167,OM,Oman,country,Middle East and North Africa,21.512583,55.923255,13092.3548765881,1989,0,0,0,0,0,0,0,0,0,0,0,0,0,0,0,0,0,0,0,0,0,0,0,0
CY,Cyprus,country,Europe and Central Asia,35.126413,33.429859,OM,Oman,country,Middle East and North Africa,21.512583,55.923255,2664.26256622778,1989,407,15,0,224,0,0,0,18,54,0,0,0,2,25,46,18,0,0,5,0,0,0,0,0
CZ,Czech Republic,country,Europe and Central Asia,49.817492,15.472962,OM,Oman,country,Middle East and North Africa,21.512583,55.923255,4734.14743263653,1989,76,0,0,0,0,0,0,0,0,0,0,0,0,0,0,0,0,0,76,0,0,0,0,0
DK,Denmark,country,Europe and Central Asia,56.26392,9.501785,OM,Oman,country,Middle East and North Africa,21.512583,55.923255,5411.70624087667,1989,6252,96,4,10,0,0,0,165,30,0,0,360,0,0,1068,486,0,3053,980,0,0,0,0,0
EG,Egypt,country,Middle East and North Africa,26.820553,30.802498,OM,Oman,country,Middle East and North Africa,21.512583,55.923255,2614.05376902867,1989,176,21,0,60,0,0,0,22,36,0,0,0,0,37,0,0,0,0,0,0,0,0,0,0
FI,Finland,country,Europe and Central Asia,61.92411,25.748151,OM,Oman,country,Middle East and North Africa,21.512583,55.923255,5054.59785900908,1989,1079,6,0,0,0,0,0,0,0,0,0,0,0,0,0,0,0,17,1056,0,0,0,0,0
FR,France,country,Europe and Central Asia,46.227638,2.213749,OM,Oman,country,Middle East and North Africa,21.512583,55.923255,5541.42830139283,1989,16262,1297,153,48,0,0,0,14,38,0,0,75,3,93,188,520,0,12434,1399,0,0,0,0,0
GR,Greece,country,Europe and Central Asia,39.074208,21.824312,OM,Oman,country,Middle East and North Africa,21.512583,55.923255,3782.81304947776,1989,244,6,0,110,0,0,0,8,95,0,0,0,0,9,0,0,0,0,16,0,0,0,0,0
GT,Guatemala,country,Latin America and the Caribbean,15.783471,-90.230759,OM,Oman,country,Middle East and North Africa,21.512583,55.923255,14479.9876536801,1989,593,0,0,0,0,0,0,0,0,0,96,0,497,0,0,0,0,0,0,0,0,0,0,0
GY,Guyana,country,Latin America and the Caribbean,4.860416,-58.93018,OM,Oman,country,Middle East and North Africa,21.512583,55.923255,12357.6578597734,1989,10,0,0,0,0,0,0,0,0,0,0,0,10,0,0,0,0,0,0,0,0,0,0,0
HN,Honduras,country,Latin America and the Caribbean,15.199999,-86.241905,OM,Oman,country,Middle East and North Africa,21.512583,55.923255,14226.6772935728,1989,143,0,0,0,0,0,0,0,0,0,0,0,143,0,0,0,0,0,0,0,0,0,0,0
HU,Hungary,country,Europe and Central Asia,47.162494,19.503304,OM,Oman,country,Middle East and North Africa,21.512583,55.923255,4333.71665145868,1989,37,0,0,0,0,0,0,0,0,0,0,0,0,0,3,0,0,34,0,0,0,0,0,0
IN,India,country,South Asia,20.593684,78.96288,OM,Oman,country,Middle East and North Africa,21.512583,55.923255,2393.59498923766,1989,40037,20869,1,101,411,17,5678,804,617,1,958,5144,1024,358,105,260,85,3575,114,0,0,0,0,0
ID,Indonesia,country,East Asia and Pacific,-0.789275,113.921327,OM,Oman,country,Middle East and North Africa,21.512583,55.923255,6767.69700646654,1989,609,7,0,13,0,0,0,0,0,0,0,0,542,32,0,0,0,15,0,0,0,0,0,0
IR,Iran,country,Middle East and North Africa,32.427908,53.688046,OM,Oman,country,Middle East and North Africa,21.512583,55.923255,1235.05132525251,1989,42,41,0,0,0,1,0,0,0,0,0,0,0,0,0,0,0,0,0,0,0,0,0,0
IQ,Iraq,country,Middle East and North Africa,33.223191,43.679291,OM,Oman,country,Middle East and North Africa,21.512583,55.923255,1775.99835622297,1989,107,0,0,0,0,0,0,0,0,0,0,0,0,0,0,0,0,0,107,0,0,0,0,0
IE,Ireland,country,Europe and Central Asia,53.41291,-8.24389,OM,Oman,country,Middle East and North Africa,21.512583,55.923255,6410.10295861924,1989,311,105,0,0,0,0,0,0,0,0,0,0,0,3,0,0,0,0,203,0,0,0,0,0
IT,Italy,country,Europe and Central Asia,41.87194,12.56738,OM,Oman,country,Middle East and North Africa,21.512583,55.923255,4624.37467399731,1989,2029,509,0,46,17,0,0,896,69,0,0,0,11,414,34,33,0,0,0,0,0,0,0,0
JM,Jamaica,country,Latin America and the Caribbean,18.109581,-77.297508,OM,Oman,country,Middle East and North Africa,21.512583,55.923255,13296.3555910576,1989,1,0,0,0,0,0,0,0,0,0,0,0,0,0,0,1,0,0,0,0,0,0,0,0
JP,Japan,country,East Asia and Pacific,36.204824,138.252924,OM,Oman,country,Middle East and North Africa,21.512583,55.923255,7962.72854447021,1989,193,39,26,2,0,0,0,14,0,33,1,36,0,7,0,35,0,0,0,0,0,0,0,0
KE,Kenya,country,Sub-Saharan Africa,-0.023559,37.906193,OM,Oman,country,Middle East and North Africa,21.512583,55.923255,3094.87826406551,1989,211,0,0,0,55,0,0,0,1,0,0,0,149,6,0,0,0,0,0,0,0,0,0,0
KW,Kuwait,country,Middle East and North Africa,29.31166,47.481766,OM,Oman,country,Middle East and North Africa,21.512583,55.923255,1213.2903060681,1989,400,85,31,0,0,0,0,88,90,0,0,0,0,69,0,0,0,14,23,0,0,0,0,0
LB,Lebanon,country,Middle East and North Africa,33.854721,35.862285,OM,Oman,country,Middle East and North Africa,21.512583,55.923255,2400.39124145012,1989,88,0,0,0,15,0,0,33,7,0,0,0,0,17,0,0,0,0,16,0,0,0,0,0
LR,Liberia,country,Sub-Saharan Africa,6.428055,-9.429499,OM,Oman,country,Middle East and North Africa,21.512583,55.923255,7207.75598981358,1989,47,0,0,0,0,0,0,0,0,0,0,0,47,0,0,0,0,0,0,0,0,0,0,0
MG,Madagascar,country,Sub-Saharan Africa,-18.766947,46.869107,OM,Oman,country,Middle East and North Africa,21.512583,55.923255,4591.11740719136,1989,7,0,0,0,0,0,0,0,0,0,7,0,0,0,0,0,0,0,0,0,0,0,0,0
MW,Malawi,country,Sub-Saharan Africa,-13.254308,34.301525,OM,Oman,country,Middle East and North Africa,21.512583,55.923255,4534.35228949369,1989,33,0,0,0,0,0,0,0,0,0,0,0,30,3,0,0,0,0,0,0,0,0,0,0
MY,Malaysia,country,East Asia and Pacific,4.210484,101.975766,OM,Oman,country,Middle East and North Africa,21.512583,55.923255,5328.70078488928,1989,14583,96,0,124,0,0,227,225,99,0,3,0,17,165,12829,795,0,0,3,0,0,0,0,0
MT,Malta,country,Middle East and North Africa,35.937496,14.375416,OM,Oman,country,Middle East and North Africa,21.512583,55.923255,4323.06501863858,1989,307,35,0,228,0,0,0,0,25,0,0,0,0,19,0,0,0,0,0,0,0,0,0,0
MU,Mauritius,country,Sub-Saharan Africa,-20.348404,57.552152,OM,Oman,country,Middle East and North Africa,21.512583,55.923255,4663.31171521028,1989,18,0,0,18,0,0,0,0,0,0,0,0,0,0,0,0,0,0,0,0,0,0,0,0
MM,Myanmar,country,East Asia and Pacific,21.913965,95.956223,OM,Oman,country,Middle East and North Africa,21.512583,55.923255,4128.45729995065,1989,1236,1236,0,0,0,0,0,0,0,0,0,0,0,0,0,0,0,0,0,0,0,0,0,0
NP,Nepal,country,South Asia,28.394857,84.124008,OM,Oman,country,Middle East and North Africa,21.512583,55.923255,2939.76322452672,1989,0,0,0,0,0,0,0,0,0,0,0,0,0,0,0,0,0,0,0,0,0,0,0,0
NL,Netherlands,country,Europe and Central Asia,52.132633,5.291266,OM,Oman,country,Middle East and North Africa,21.512583,55.923255,5491.22131202927,1989,23776,215,1310,91,0,0,3,132,179,10,0,442,25,286,815,1641,419,394,18233,0,0,0,0,0
NZ,New Zealand,country,East Asia and Pacific,-40.900557,174.885971,OM,Oman,country,Middle East and North Africa,21.512583,55.923255,13969.8993700863,1989,5901,0,0,0,0,0,0,10,0,0,0,16,0,7,0,0,0,5010,858,0,0,0,0,0
PK,Pakistan,country,South Asia,30.375321,69.345116,OM,Oman,country,Middle East and North Africa,21.512583,55.923255,1664.54786661874,1989,14872,14247,0,67,0,0,0,287,123,104,39,0,0,5,0,0,0,0,0,0,0,0,0,0
PG,Papua New Guinea,country,East Asia and Pacific,-6.314993,143.95555,OM,Oman,country,Middle East and North Africa,21.512583,55.923255,10073.5122251208,1989,34,0,0,0,0,0,0,0,0,0,0,0,34,0,0,0,0,0,0,0,0,0,0,0
PY,Paraguay,country,Latin America and the Caribbean,-23.442503,-58.443832,OM,Oman,country,Middle East and North Africa,21.512583,55.923255,13343.9378197555,1989,300,0,0,0,0,0,0,0,0,0,0,0,300,0,0,0,0,0,0,0,0,0,0,0
PE,Peru,country,Latin America and the Caribbean,-9.189967,-75.015152,OM,Oman,country,Middle East and North Africa,21.512583,55.923255,14619.1401350185,1989,17,0,0,0,0,0,0,0,0,0,0,0,17,0,0,0,0,0,0,0,0,0,0,0
PH,Philippines,country,East Asia and Pacific,12.879721,121.774017,OM,Oman,country,Middle East and North Africa,21.512583,55.923255,7021.79755581681,1989,728,1,0,0,0,0,0,0,0,0,0,0,580,65,0,82,0,0,0,0,0,0,0,0
PL,Poland,country,Europe and Central Asia,51.919438,19.145136,OM,Oman,country,Middle East and North Africa,21.512583,55.923255,4626.61097148738,1989,55,0,0,39,0,0,0,0,0,0,0,0,0,0,0,0,0,0,16,0,0,0,0,0
PT,Portugal,country,Europe and Central Asia,39.399872,-8.224454,OM,Oman,country,Middle East and North Africa,21.512583,55.923255,6333.03923165743,1989,22,0,0,0,0,0,0,20,0,0,0,0,0,0,0,2,0,0,0,0,0,0,0,0
QA,Qatar,country,Middle East and North Africa,25.354826,51.183884,OM,Oman,country,Middle East and North Africa,21.512583,55.923255,645.837727578887,1989,36,0,0,0,0,0,0,0,11,0,0,0,0,0,0,25,0,0,0,0,0,0,0,0
KR,"Korea, Rep.",country,East Asia and Pacific,35.907757,127.766922,OM,Oman,country,Middle East and North Africa,21.512583,55.923255,7042.54095251856,1989,110,43,0,29,0,0,0,0,0,0,0,0,0,35,0,0,0,3,0,0,0,0,0,0
RW,Rwanda,country,Sub-Saharan Africa,-1.940278,29.873888,OM,Oman,country,Middle East and North Africa,21.512583,55.923255,3853.9194664099,1989,90,0,0,0,0,0,0,0,0,0,0,0,90,0,0,0,0,0,0,0,0,0,0,0
SA,Saudi Arabia,country,Middle East and North Africa,23.885942,45.079162,OM,Oman,country,Middle East and North Africa,21.512583,55.923255,1144.20650446303,1989,4523,94,0,662,0,0,0,186,1167,0,0,0,4,0,55,1289,0,1,1065,0,0,0,0,0
SG,Singapore,country,East Asia and Pacific,1.352083,103.819836,OM,Oman,country,Middle East and North Africa,21.512583,55.923255,5653.27053962043,1989,4212,269,26,226,7,0,4,0,50,0,60,0,25,195,2756,585,0,0,9,0,0,0,0,0
SO,Somalia,country,Sub-Saharan Africa,5.152149,46.199616,OM,Oman,country,Middle East and North Africa,21.512583,55.923255,2101.73159070231,1989,0,0,0,0,0,0,0,0,0,0,0,0,0,0,0,0,0,0,0,0,0,0,0,0
ES,Spain,country,Europe and Central Asia,40.463667,-3.74922,OM,Oman,country,Middle East and North Africa,21.512583,55.923255,5951.12258086635,1989,266,3,0,9,0,0,0,129,12,0,6,0,36,0,50,21,0,0,0,0,0,0,0,0
LK,Sri Lanka,country,South Asia,7.873054,80.771797,OM,Oman,country,Middle East and North Africa,21.512583,55.923255,3068.59032985906,1989,605,2,0,11,0,0,26,229,124,0,1,0,41,153,0,0,0,0,18,0,0,0,0,0
SZ,Swaziland,country,Sub-Saharan Africa,-26.522503,31.465866,OM,Oman,country,Middle East and North Africa,21.512583,55.923255,5962.2676115932,1989,2,0,0,0,0,0,0,0,0,0,0,0,0,2,0,0,0,0,0,0,0,0,0,0
SE,Sweden,country,Europe and Central Asia,60.128161,18.643501,OM,Oman,country,Middle East and North Africa,21.512583,55.923255,5191.06852111848,1989,2044,13,0,0,0,0,0,0,6,0,0,0,0,5,0,0,0,9,2011,0,0,0,0,0
CH,Switzerland,country,Europe and Central Asia,46.818188,8.227512,OM,Oman,country,Middle East and North Africa,21.512583,55.923255,5109.66914205266,1989,204,0,0,22,0,0,0,0,0,0,0,0,4,161,0,0,0,0,17,0,0,0,0,0
TH,Thailand,country,East Asia and Pacific,15.870032,100.992541,OM,Oman,country,Middle East and North Africa,21.512583,55.923255,4778.01588276839,1989,12958,12775,0,7,0,0,0,0,87,0,6,0,16,67,0,0,0,0,0,0,0,0,0,0
TN,Tunisia,country,Middle East and North Africa,33.886917,9.537499,OM,Oman,country,Middle East and North Africa,21.512583,55.923255,4731.83132731994,1989,65,4,0,47,0,0,0,0,0,0,0,0,0,14,0,0,0,0,0,0,0,0,0,0
TR,Turkey,country,Europe and Central Asia,38.963745,35.243322,OM,Oman,country,Middle East and North Africa,21.512583,55.923255,2767.00300704356,1989,9819,9112,0,43,572,0,0,0,0,0,0,0,19,55,18,0,0,0,0,0,0,0,0,0
AE,United Arab Emirates,country,Middle East and North Africa,23.424076,53.847818,OM,Oman,country,Middle East and North Africa,21.512583,55.923255,301.417786949232,1989,142834,17769,8850,16255,3722,157,83,24636,35703,7,1121,712,1515,3155,220,13654,20,11480,3795,0,0,0,0,0
GB,United Kingdom,country,Europe and Central Asia,55.378051,-3.435973,OM,Oman,country,Middle East and North Africa,21.512583,55.923255,6141.35690780383,1989,6152,461,8,638,0,0,0,474,37,0,1,603,229,1440,111,1629,0,145,376,0,0,0,0,0
TZ,Tanzania,country,Sub-Saharan Africa,-6.369028,34.888822,OM,Oman,country,Middle East and North Africa,21.512583,55.923255,3860.97953406752,1989,5365,5317,0,0,40,0,0,0,0,0,6,0,0,2,0,0,0,0,0,0,0,0,0,0
US,USA,country,North America,37.09024,-95.712891,OM,Oman,country,Middle East and North Africa,21.512583,55.923255,12867.044315304,1989,2543,54,9,54,18,0,0,116,564,0,2,0,3,1506,9,72,0,10,126,0,0,0,0,0
VE,Venezuela,country,Latin America and the Caribbean,6.42375,-66.58973,OM,Oman,country,Middle East and North Africa,21.512583,55.923255,13037.9186956953,1989,17,0,0,0,0,0,0,0,0,0,0,0,17,0,0,0,0,0,0,0,0,0,0,0
BA,Bosnia & Herzegovina,country,Europe and Central Asia,43.915886,17.679076,OM,Oman,country,Middle East and North Africa,21.512583,55.923255,4305.40872088064,1989,987,11,0,44,0,0,0,0,0,0,0,0,0,0,0,0,0,917,15,0,0,0,0,0
AR,Argentina,country,Latin America and the Caribbean,-38.416097,-63.616672,OM,Oman,country,Middle East and North Africa,21.512583,55.923255,14022.0109396693,1990,8200,7700,0,0,0,0,0,0,0,0,0,0,0,0,500,0,0,0,0,0,0,0,0,0
AU,Australia,country,East Asia and Pacific,-25.274398,133.775136,OM,Oman,country,Middle East and North Africa,21.512583,55.923255,9888.17091862246,1990,164283,158145,0,119,448,0,0,266,334,0,0,31,0,43,114,1895,0,2638,250,0,0,0,0,0
AT,Austria,country,Europe and Central Asia,47.516231,14.550072,OM,Oman,country,Middle East and North Africa,21.512583,55.923255,4686.82220900003,1990,126,8,0,12,0,0,0,0,80,0,0,0,0,2,0,0,0,0,24,0,0,0,0,0
BH,Bahrain,country,Middle East and North Africa,25.930414,50.637772,OM,Oman,country,Middle East and North Africa,21.512583,55.923255,729.218079260173,1990,14,6,4,2,0,0,0,0,0,0,0,0,0,2,0,0,0,0,0,0,0,0,0,0
BE,Belgium,country,Europe and Central Asia,50.503887,4.469936,OM,Oman,country,Middle East and North Africa,21.512583,55.923255,5491.35648836076,1990,1554,320,109,595,0,0,0,221,0,0,0,81,3,8,55,0,0,0,162,0,0,0,0,0
BO,Bolivia,country,Latin America and the Caribbean,-16.290154,-63.588653,OM,Oman,country,Middle East and North Africa,21.512583,55.923255,13677.9496564669,1990,208,0,0,0,0,0,0,0,0,0,0,0,208,0,0,0,0,0,0,0,0,0,0,0
BW,Botswana,country,Sub-Saharan Africa,-22.328474,24.684866,OM,Oman,country,Middle East and North Africa,21.512583,55.923255,5942.31934662134,1990,13,0,0,0,0,0,0,0,13,0,0,0,0,0,0,0,0,0,0,0,0,0,0,0
BR,Brazil,country,Latin America and the Caribbean,-14.235004,-51.92528,OM,Oman,country,Middle East and North Africa,21.512583,55.923255,12412.5757282605,1990,158,0,0,77,0,0,0,0,0,0,0,0,18,0,0,0,0,63,0,0,0,0,0,0
BG,Bulgaria,country,Europe and Central Asia,42.733883,25.48583,OM,Oman,country,Middle East and North Africa,21.512583,55.923255,3681.24017145279,1990,43,0,0,0,0,0,0,43,0,0,0,0,0,0,0,0,0,0,0,0,0,0,0,0
BI,Burundi,country,Sub-Saharan Africa,-3.373056,29.918886,OM,Oman,country,Middle East and North Africa,21.512583,55.923255,3962.6980369638,1990,137,0,0,0,0,0,0,0,0,0,0,0,137,0,0,0,0,0,0,0,0,0,0,0
CA,Canada,country,North America,56.130366,-106.346771,OM,Oman,country,Middle East and North Africa,21.512583,55.923255,11233.9620076981,1990,40,0,40,0,0,0,0,0,0,0,0,0,0,0,0,0,0,0,0,0,0,0,0,0
CL,Chile,country,Latin America and the Caribbean,-35.675147,-71.542969,OM,Oman,country,Middle East and North Africa,21.512583,55.923255,14732.4173052424,1990,251,0,0,11,0,0,0,0,0,0,0,240,0,0,0,0,0,0,0,0,0,0,0,0
HK,Hong Kong,country,East Asia and Pacific,22.396428,114.109497,OM,Oman,country,Middle East and North Africa,21.512583,55.923255,5968.75914253481,1990,17,0,0,17,0,0,0,0,0,0,0,0,0,0,0,0,0,0,0,0,0,0,0,0
CN,China,country,East Asia and Pacific,35.86166,104.195397,OM,Oman,country,Middle East and North Africa,21.512583,55.923255,4922.53173948043,1990,3212,841,0,66,0,0,0,1792,0,0,12,0,59,428,0,0,0,14,0,0,0,0,0,0
CR,Costa Rica,country,Latin America and the Caribbean,9.748917,-83.753428,OM,Oman,country,Middle East and North Africa,21.512583,55.923255,14423.1361477311,1990,380,0,0,0,0,0,0,0,0,0,20,0,360,0,0,0,0,0,0,0,0,0,0,0
CI,Ivory Coast,country,Sub-Saharan Africa,7.539989,-5.54708,OM,Oman,country,Middle East and North Africa,21.512583,55.923255,6762.6816384374,1990,2,0,0,0,0,0,0,0,0,0,0,0,2,0,0,0,0,0,0,0,0,0,0,0
CU,Cuba,country,Latin America and the Caribbean,21.521757,-77.781167,OM,Oman,country,Middle East and North Africa,21.512583,55.923255,13092.3548765881,1990,0,0,0,0,0,0,0,0,0,0,0,0,0,0,0,0,0,0,0,0,0,0,0,0
CY,Cyprus,country,Europe and Central Asia,35.126413,33.429859,OM,Oman,country,Middle East and North Africa,21.512583,55.923255,2664.26256622778,1990,312,12,0,131,0,0,0,2,104,0,0,0,2,26,19,0,0,0,16,0,0,0,0,0
CZ,Czech Republic,country,Europe and Central Asia,49.817492,15.472962,OM,Oman,country,Middle East and North Africa,21.512583,55.923255,4734.14743263653,1990,285,0,0,0,0,0,0,0,0,0,0,0,0,0,0,0,0,0,285,0,0,0,0,0
DK,Denmark,country,Europe and Central Asia,56.26392,9.501785,OM,Oman,country,Middle East and North Africa,21.512583,55.923255,5411.70624087667,1990,5477,29,5,50,0,0,0,201,12,0,0,160,0,8,328,827,0,3034,823,0,0,0,0,0
EG,Egypt,country,Middle East and North Africa,26.820553,30.802498,OM,Oman,country,Middle East and North Africa,21.512583,55.923255,2614.05376902867,1990,114,0,0,34,0,0,0,19,27,0,0,0,9,21,0,0,0,0,4,0,0,0,0,0
FI,Finland,country,Europe and Central Asia,61.92411,25.748151,OM,Oman,country,Middle East and North Africa,21.512583,55.923255,5054.59785900908,1990,780,0,0,0,0,0,0,0,0,0,0,0,0,0,0,0,0,25,755,0,0,0,0,0
FR,France,country,Europe and Central Asia,46.227638,2.213749,OM,Oman,country,Middle East and North Africa,21.512583,55.923255,5541.42830139283,1990,16529,1132,129,1792,0,0,0,11,39,0,0,364,2,126,164,575,0,10786,1409,0,0,0,0,0
GR,Greece,country,Europe and Central Asia,39.074208,21.824312,OM,Oman,country,Middle East and North Africa,21.512583,55.923255,3782.81304947776,1990,306,0,0,75,0,0,0,0,198,0,0,0,0,16,0,17,0,0,0,0,0,0,0,0
GT,Guatemala,country,Latin America and the Caribbean,15.783471,-90.230759,OM,Oman,country,Middle East and North Africa,21.512583,55.923255,14479.9876536801,1990,105,0,0,0,0,0,0,0,0,0,105,0,0,0,0,0,0,0,0,0,0,0,0,0
HU,Hungary,country,Europe and Central Asia,47.162494,19.503304,OM,Oman,country,Middle East and North Africa,21.512583,55.923255,4333.71665145868,1990,46,0,0,0,0,0,0,0,0,0,0,0,0,1,0,0,0,45,0,0,0,0,0,0
IN,India,country,South Asia,20.593684,78.96288,OM,Oman,country,Middle East and North Africa,21.512583,55.923255,2393.59498923766,1990,52305,27127,8,156,173,7,5387,1071,249,6,827,12217,850,277,0,358,19,3430,162,0,0,0,0,0
ID,Indonesia,country,East Asia and Pacific,-0.789275,113.921327,OM,Oman,country,Middle East and North Africa,21.512583,55.923255,6767.69700646654,1990,572,18,0,58,0,0,0,10,0,0,2,0,479,5,0,0,0,0,0,0,0,0,0,0
IR,Iran,country,Middle East and North Africa,32.427908,53.688046,OM,Oman,country,Middle East and North Africa,21.512583,55.923255,1235.05132525251,1990,23,0,0,0,0,0,0,0,23,0,0,0,0,0,0,0,0,0,0,0,0,0,0,0
IE,Ireland,country,Europe and Central Asia,53.41291,-8.24389,OM,Oman,country,Middle East and North Africa,21.512583,55.923255,6410.10295861924,1990,236,54,0,24,0,0,0,0,0,0,0,0,0,6,0,0,0,14,138,0,0,0,0,0
IT,Italy,country,Europe and Central Asia,41.87194,12.56738,OM,Oman,country,Middle East and North Africa,21.512583,55.923255,4624.37467399731,1990,2032,537,0,37,0,0,0,659,10,0,0,18,0,677,16,78,0,0,0,0,0,0,0,0
JM,Jamaica,country,Latin America and the Caribbean,18.109581,-77.297508,OM,Oman,country,Middle East and North Africa,21.512583,55.923255,13296.3555910576,1990,3,0,0,0,0,0,0,0,2,0,0,0,0,0,0,1,0,0,0,0,0,0,0,0
JP,Japan,country,East Asia and Pacific,36.204824,138.252924,OM,Oman,country,Middle East and North Africa,21.512583,55.923255,7962.72854447021,1990,523,0,57,6,0,0,0,0,3,49,0,337,0,20,0,51,0,0,0,0,0,0,0,0
JO,Jordan,country,Middle East and North Africa,30.585164,36.238414,OM,Oman,country,Middle East and North Africa,21.512583,55.923255,2207.82078999215,1990,0,0,0,0,0,0,0,0,0,0,0,0,0,0,0,0,0,0,0,0,0,0,0,0
KE,Kenya,country,Sub-Saharan Africa,-0.023559,37.906193,OM,Oman,country,Middle East and North Africa,21.512583,55.923255,3094.87826406551,1990,18619,17691,0,0,0,0,0,0,0,0,0,761,154,2,0,11,0,0,0,0,0,0,0,0
KW,Kuwait,country,Middle East and North Africa,29.31166,47.481766,OM,Oman,country,Middle East and North Africa,21.512583,55.923255,1213.2903060681,1990,595,73,12,0,40,0,0,257,72,0,0,0,0,53,0,25,0,8,55,0,0,0,0,0
LB,Lebanon,country,Middle East and North Africa,33.854721,35.862285,OM,Oman,country,Middle East and North Africa,21.512583,55.923255,2400.39124145012,1990,14,0,0,0,0,0,0,0,5,0,0,0,0,0,0,0,0,9,0,0,0,0,0,0
MG,Madagascar,country,Sub-Saharan Africa,-18.766947,46.869107,OM,Oman,country,Middle East and North Africa,21.512583,55.923255,4591.11740719136,1990,6,0,0,0,0,0,0,0,0,0,6,0,0,0,0,0,0,0,0,0,0,0,0,0
MY,Malaysia,country,East Asia and Pacific,4.210484,101.975766,OM,Oman,country,Middle East and North Africa,21.512583,55.923255,5328.70078488928,1990,21228,91,0,213,1,0,144,221,16,0,9,0,17,560,17875,2081,0,0,0,0,0,0,0,0
MT,Malta,country,Middle East and North Africa,35.937496,14.375416,OM,Oman,country,Middle East and North Africa,21.512583,55.923255,4323.06501863858,1990,375,41,0,295,0,0,0,0,11,0,0,0,0,27,0,0,0,0,1,0,0,0,0,0
MM,Myanmar,country,East Asia and Pacific,21.913965,95.956223,OM,Oman,country,Middle East and North Africa,21.512583,55.923255,4128.45729995065,1990,5298,5298,0,0,0,0,0,0,0,0,0,0,0,0,0,0,0,0,0,0,0,0,0,0
NL,Netherlands,country,Europe and Central Asia,52.132633,5.291266,OM,Oman,country,Middle East and North Africa,21.512583,55.923255,5491.22131202927,1990,22368,258,1450,140,0,0,0,161,116,0,0,396,59,433,683,1914,238,138,16620,0,0,0,0,0
NZ,New Zealand,country,East Asia and Pacific,-40.900557,174.885971,OM,Oman,country,Middle East and North Africa,21.512583,55.923255,13969.8993700863,1990,4251,0,0,0,0,0,0,0,0,0,0,18,0,1,0,0,0,3602,630,0,0,0,0,0
PK,Pakistan,country,South Asia,30.375321,69.345116,OM,Oman,country,Middle East and North Africa,21.512583,55.923255,1664.54786661874,1990,31850,31179,0,148,0,0,0,257,82,116,65,0,0,3,0,0,0,0,0,0,0,0,0,0
PE,Peru,country,Latin America and the Caribbean,-9.189967,-75.015152,OM,Oman,country,Middle East and North Africa,21.512583,55.923255,14619.1401350185,1990,17,0,0,0,0,0,0,0,0,0,0,0,17,0,0,0,0,0,0,0,0,0,0,0
PH,Philippines,country,East Asia and Pacific,12.879721,121.774017,OM,Oman,country,Middle East and North Africa,21.512583,55.923255,7021.79755581681,1990,738,4,0,0,0,0,0,0,0,0,0,0,541,140,0,53,0,0,0,0,0,0,0,0
PL,Poland,country,Europe and Central Asia,51.919438,19.145136,OM,Oman,country,Middle East and North Africa,21.512583,55.923255,4626.61097148738,1990,164,0,0,0,0,0,0,0,0,0,0,0,0,0,0,0,0,0,164,0,0,0,0,0
PT,Portugal,country,Europe and Central Asia,39.399872,-8.224454,OM,Oman,country,Middle East and North Africa,21.512583,55.923255,6333.03923165743,1990,6,0,0,0,0,0,0,0,0,0,0,0,0,0,0,6,0,0,0,0,0,0,0,0
QA,Qatar,country,Middle East and North Africa,25.354826,51.183884,OM,Oman,country,Middle East and North Africa,21.512583,55.923255,645.837727578887,1990,47,0,0,0,0,0,0,0,12,0,0,0,0,0,0,20,0,15,0,0,0,0,0,0
KR,"Korea, Rep.",country,East Asia and Pacific,35.907757,127.766922,OM,Oman,country,Middle East and North Africa,21.512583,55.923255,7042.54095251856,1990,73,2,0,23,0,0,0,0,0,0,0,15,0,33,0,0,0,0,0,0,0,0,0,0
SA,Saudi Arabia,country,Middle East and North Africa,23.885942,45.079162,OM,Oman,country,Middle East and North Africa,21.512583,55.923255,1144.20650446303,1990,23149,16732,0,1141,0,0,0,262,1083,0,0,0,4,0,633,875,0,37,2382,0,0,0,0,0
SG,Singapore,country,East Asia and Pacific,1.352083,103.819836,OM,Oman,country,Middle East and North Africa,21.512583,55.923255,5653.27053962043,1990,1786,227,7,247,0,2,8,0,0,0,36,0,48,116,628,446,0,0,21,0,0,0,0,0
ES,Spain,country,Europe and Central Asia,40.463667,-3.74922,OM,Oman,country,Middle East and North Africa,21.512583,55.923255,5951.12258086635,1990,275,5,0,11,0,0,0,79,13,0,6,0,32,20,86,23,0,0,0,0,0,0,0,0
LK,Sri Lanka,country,South Asia,7.873054,80.771797,OM,Oman,country,Middle East and North Africa,21.512583,55.923255,3068.59032985906,1990,736,3,67,4,0,1,11,228,130,0,0,0,51,224,0,17,0,0,0,0,0,0,0,0
SE,Sweden,country,Europe and Central Asia,60.128161,18.643501,OM,Oman,country,Middle East and North Africa,21.512583,55.923255,5191.06852111848,1990,1143,0,0,0,0,0,0,24,0,0,0,0,0,3,0,0,0,17,1099,0,0,0,0,0
CH,Switzerland,country,Europe and Central Asia,46.818188,8.227512,OM,Oman,country,Middle East and North Africa,21.512583,55.923255,5109.66914205266,1990,254,0,0,9,0,0,0,100,17,0,0,0,2,77,0,0,0,0,49,0,0,0,0,0
SY,Syrian Arab Rep.,country,Middle East and North Africa,34.802075,38.996815,OM,Oman,country,Middle East and North Africa,21.512583,55.923255,2218.27045836542,1990,98,0,0,0,81,0,0,0,0,0,0,0,0,17,0,0,0,0,0,0,0,0,0,0
TH,Thailand,country,East Asia and Pacific,15.870032,100.992541,OM,Oman,country,Middle East and North Africa,21.512583,55.923255,4778.01588276839,1990,16962,16560,0,85,0,0,0,38,81,0,92,0,17,55,0,34,4,0,0,0,0,0,0,0
TN,Tunisia,country,Middle East and North Africa,33.886917,9.537499,OM,Oman,country,Middle East and North Africa,21.512583,55.923255,4731.83132731994,1990,131,0,0,116,0,0,0,0,0,0,0,0,0,15,0,0,0,0,0,0,0,0,0,0
TR,Turkey,country,Europe and Central Asia,38.963745,35.243322,OM,Oman,country,Middle East and North Africa,21.512583,55.923255,2767.00300704356,1990,155,131,0,21,0,0,0,0,0,0,0,0,3,0,0,0,0,0,0,0,0,0,0,0
AE,United Arab Emirates,country,Middle East and North Africa,23.424076,53.847818,OM,Oman,country,Middle East and North Africa,21.512583,55.923255,301.417786949232,1990,198283,22590,10322,11012,4930,179,194,47065,41172,112,1440,3909,1256,3155,508,33517,55,12175,4747,0,0,0,0,0
GB,United Kingdom,country,Europe and Central Asia,55.378051,-3.435973,OM,Oman,country,Middle East and North Africa,21.512583,55.923255,6141.35690780383,1990,11417,421,2,4189,0,2,0,684,43,0,2,696,196,1416,29,1687,0,96,1954,0,0,0,0,0
TZ,Tanzania,country,Sub-Saharan Africa,-6.369028,34.888822,OM,Oman,country,Middle East and North Africa,21.512583,55.923255,3860.97953406752,1990,34156,33748,0,0,2,0,0,10,0,0,0,372,20,4,0,0,0,0,0,0,0,0,0,0
US,USA,country,North America,37.09024,-95.712891,OM,Oman,country,Middle East and North Africa,21.512583,55.923255,12867.044315304,1990,2699,89,33,44,0,0,0,167,287,0,2,0,9,1027,6,18,0,996,21,0,0,0,0,0
BA,Bosnia & Herzegovina,country,Europe and Central Asia,43.915886,17.679076,OM,Oman,country,Middle East and North Africa,21.512583,55.923255,4305.40872088064,1990,375,0,0,118,0,0,0,0,0,0,0,0,16,0,0,0,0,184,57,0,0,0,0,0
ZW,Zimbabwe,country,Sub-Saharan Africa,-19.015438,29.154857,OM,Oman,country,Middle East and North Africa,21.512583,55.923255,5371.61862239672,1990,8,8,0,0,0,0,0,0,0,0,0,0,0,0,0,0,0,0,0,0,0,0,0,0
AR,Argentina,country,Latin America and the Caribbean,-38.416097,-63.616672,OM,Oman,country,Middle East and North Africa,21.512583,55.923255,14022.0109396693,1991,16315,13926,0,0,0,0,0,0,0,0,0,0,0,0,2375,0,0,0,14,0,0,0,0,0
AU,Australia,country,East Asia and Pacific,-25.274398,133.775136,OM,Oman,country,Middle East and North Africa,21.512583,55.923255,9888.17091862246,1991,215284,207867,0,319,687,0,0,190,445,0,0,42,0,6,138,2179,0,3062,349,0,0,0,0,0
AT,Austria,country,Europe and Central Asia,47.516231,14.550072,OM,Oman,country,Middle East and North Africa,21.512583,55.923255,4686.82220900003,1991,93,18,0,0,0,0,0,0,40,0,0,0,0,1,0,34,0,0,0,0,0,0,0,0
BH,Bahrain,country,Middle East and North Africa,25.930414,50.637772,OM,Oman,country,Middle East and North Africa,21.512583,55.923255,729.218079260173,1991,241,29,2,0,0,0,0,0,2,0,0,0,0,6,30,172,0,0,0,0,0,0,0,0
BD,Bangladesh,country,South Asia,23.684994,90.356331,OM,Oman,country,Middle East and North Africa,21.512583,55.923255,3538.60307695496,1991,528,0,5,0,0,0,0,356,39,0,0,0,128,0,0,0,0,0,0,0,0,0,0,0
BE,Belgium,country,Europe and Central Asia,50.503887,4.469936,OM,Oman,country,Middle East and North Africa,21.512583,55.923255,5491.35648836076,1991,1425,336,21,28,0,0,0,276,31,0,0,270,16,53,103,76,0,4,211,0,0,0,0,0
BO,Bolivia,country,Latin America and the Caribbean,-16.290154,-63.588653,OM,Oman,country,Middle East and North Africa,21.512583,55.923255,13677.9496564669,1991,53,0,0,0,0,0,0,0,0,0,0,0,53,0,0,0,0,0,0,0,0,0,0,0
BW,Botswana,country,Sub-Saharan Africa,-22.328474,24.684866,OM,Oman,country,Middle East and North Africa,21.512583,55.923255,5942.31934662134,1991,44,0,0,0,0,0,0,0,44,0,0,0,0,0,0,0,0,0,0,0,0,0,0,0
BR,Brazil,country,Latin America and the Caribbean,-14.235004,-51.92528,OM,Oman,country,Middle East and North Africa,21.512583,55.923255,12412.5757282605,1991,94,0,0,11,0,0,0,0,0,0,0,0,0,0,0,19,0,64,0,0,0,0,0,0
BI,Burundi,country,Sub-Saharan Africa,-3.373056,29.918886,OM,Oman,country,Middle East and North Africa,21.512583,55.923255,3962.6980369638,1991,222,0,0,0,0,0,0,0,0,0,0,0,222,0,0,0,0,0,0,0,0,0,0,0
CA,Canada,country,North America,56.130366,-106.346771,OM,Oman,country,Middle East and North Africa,21.512583,55.923255,11233.9620076981,1991,9,0,0,0,0,0,0,0,0,0,0,0,0,9,0,0,0,0,0,0,0,0,0,0
CL,Chile,country,Latin America and the Caribbean,-35.675147,-71.542969,OM,Oman,country,Middle East and North Africa,21.512583,55.923255,14732.4173052424,1991,36,0,0,13,0,0,0,0,0,0,0,0,23,0,0,0,0,0,0,0,0,0,0,0
HK,Hong Kong,country,East Asia and Pacific,22.396428,114.109497,OM,Oman,country,Middle East and North Africa,21.512583,55.923255,5968.75914253481,1991,85,0,0,36,0,0,0,48,0,1,0,0,0,0,0,0,0,0,0,0,0,0,0,0
CN,China,country,East Asia and Pacific,35.86166,104.195397,OM,Oman,country,Middle East and North Africa,21.512583,55.923255,4922.53173948043,1991,1947,43,0,74,0,0,16,1647,11,0,48,0,26,15,0,0,0,67,0,0,0,0,0,0
CR,Costa Rica,country,Latin America and the Caribbean,9.748917,-83.753428,OM,Oman,country,Middle East and North Africa,21.512583,55.923255,14423.1361477311,1991,806,0,0,0,0,0,0,0,0,0,0,0,806,0,0,0,0,0,0,0,0,0,0,0
CI,Ivory Coast,country,Sub-Saharan Africa,7.539989,-5.54708,OM,Oman,country,Middle East and North Africa,21.512583,55.923255,6762.6816384374,1991,0,0,0,0,0,0,0,0,0,0,0,0,0,0,0,0,0,0,0,0,0,0,0,0
CU,Cuba,country,Latin America and the Caribbean,21.521757,-77.781167,OM,Oman,country,Middle East and North Africa,21.512583,55.923255,13092.3548765881,1991,0,0,0,0,0,0,0,0,0,0,0,0,0,0,0,0,0,0,0,0,0,0,0,0
CY,Cyprus,country,Europe and Central Asia,35.126413,33.429859,OM,Oman,country,Middle East and North Africa,21.512583,55.923255,2664.26256622778,1991,403,20,0,175,0,0,0,5,113,0,0,0,13,56,0,12,0,3,6,0,0,0,0,0
CZ,Czech Republic,country,Europe and Central Asia,49.817492,15.472962,OM,Oman,country,Middle East and North Africa,21.512583,55.923255,4734.14743263653,1991,38,0,0,0,0,0,0,4,0,0,0,0,0,0,0,0,0,0,34,0,0,0,0,0
DK,Denmark,country,Europe and Central Asia,56.26392,9.501785,OM,Oman,country,Middle East and North Africa,21.512583,55.923255,5411.70624087667,1991,9154,86,48,219,0,0,0,199,6,0,0,897,2,8,537,872,0,5076,1204,0,0,0,0,0
EG,Egypt,country,Middle East and North Africa,26.820553,30.802498,OM,Oman,country,Middle East and North Africa,21.512583,55.923255,2614.05376902867,1991,290,15,0,47,0,0,0,30,23,0,0,0,80,72,0,2,0,19,2,0,0,0,0,0
FI,Finland,country,Europe and Central Asia,61.92411,25.748151,OM,Oman,country,Middle East and North Africa,21.512583,55.923255,5054.59785900908,1991,489,0,0,0,0,0,0,0,0,0,0,0,0,0,0,0,0,17,472,0,0,0,0,0
FR,France,country,Europe and Central Asia,46.227638,2.213749,OM,Oman,country,Middle East and North Africa,21.512583,55.923255,5541.42830139283,1991,14118,1495,152,533,0,0,0,27,33,0,0,198,1,134,227,560,0,8881,1877,0,0,0,0,0
DE,Germany,country,Europe and Central Asia,51.165691,10.451526,OM,Oman,country,Middle East and North Africa,21.512583,55.923255,5119.82739423066,1991,21804,347,0,16532,0,2,0,2,0,0,0,25,34,52,0,606,0,115,4089,0,0,0,0,0
GR,Greece,country,Europe and Central Asia,39.074208,21.824312,OM,Oman,country,Middle East and North Africa,21.512583,55.923255,3782.81304947776,1991,204,0,0,29,0,0,0,0,139,0,0,0,0,0,0,36,0,0,0,0,0,0,0,0
GT,Guatemala,country,Latin America and the Caribbean,15.783471,-90.230759,OM,Oman,country,Middle East and North Africa,21.512583,55.923255,14479.9876536801,1991,194,0,0,0,0,0,0,0,0,0,194,0,0,0,0,0,0,0,0,0,0,0,0,0
HU,Hungary,country,Europe and Central Asia,47.162494,19.503304,OM,Oman,country,Middle East and North Africa,21.512583,55.923255,4333.71665145868,1991,360,0,0,0,0,0,0,0,0,0,0,0,0,0,0,0,0,331,29,0,0,0,0,0
IN,India,country,South Asia,20.593684,78.96288,OM,Oman,country,Middle East and North Africa,21.512583,55.923255,2393.59498923766,1991,35674,7304,17,313,313,16,1837,777,511,0,727,15608,1269,321,37,305,9,5740,579,0,0,0,0,0
ID,Indonesia,country,East Asia and Pacific,-0.789275,113.921327,OM,Oman,country,Middle East and North Africa,21.512583,55.923255,6767.69700646654,1991,865,64,0,34,0,25,0,0,0,0,0,0,739,3,0,0,0,0,0,0,0,0,0,0
IR,Iran,country,Middle East and North Africa,32.427908,53.688046,OM,Oman,country,Middle East and North Africa,21.512583,55.923255,1235.05132525251,1991,44,0,0,0,0,0,0,4,40,0,0,0,0,0,0,0,0,0,0,0,0,0,0,0
IE,Ireland,country,Europe and Central Asia,53.41291,-8.24389,OM,Oman,country,Middle East and North Africa,21.512583,55.923255,6410.10295861924,1991,260,107,0,14,0,0,0,0,0,0,0,0,0,2,23,17,0,15,82,0,0,0,0,0
IT,Italy,country,Europe and Central Asia,41.87194,12.56738,OM,Oman,country,Middle East and North Africa,21.512583,55.923255,4624.37467399731,1991,3102,541,0,0,0,0,0,2367,68,0,0,0,42,7,0,61,0,0,16,0,0,0,0,0
JM,Jamaica,country,Latin America and the Caribbean,18.109581,-77.297508,OM,Oman,country,Middle East and North Africa,21.512583,55.923255,13296.3555910576,1991,1,0,0,0,0,0,0,0,0,0,0,0,0,0,0,1,0,0,0,0,0,0,0,0
JP,Japan,country,East Asia and Pacific,36.204824,138.252924,OM,Oman,country,Middle East and North Africa,21.512583,55.923255,7962.72854447021,1991,122,17,26,0,0,0,0,0,0,17,0,0,0,57,2,0,0,3,0,0,0,0,0,0
JO,Jordan,country,Middle East and North Africa,30.585164,36.238414,OM,Oman,country,Middle East and North Africa,21.512583,55.923255,2207.82078999215,1991,0,0,0,0,0,0,0,0,0,0,0,0,0,0,0,0,0,0,0,0,0,0,0,0
KE,Kenya,country,Sub-Saharan Africa,-0.023559,37.906193,OM,Oman,country,Middle East and North Africa,21.512583,55.923255,3094.87826406551,1991,2863,0,0,0,0,0,2615,3,1,0,10,1,233,0,0,0,0,0,0,0,0,0,0,0
LB,Lebanon,country,Middle East and North Africa,33.854721,35.862285,OM,Oman,country,Middle East and North Africa,21.512583,55.923255,2400.39124145012,1991,36,0,0,0,0,0,0,0,28,0,0,0,1,7,0,0,0,0,0,0,0,0,0,0
MG,Madagascar,country,Sub-Saharan Africa,-18.766947,46.869107,OM,Oman,country,Middle East and North Africa,21.512583,55.923255,4591.11740719136,1991,9,0,0,0,0,0,0,0,0,0,9,0,0,0,0,0,0,0,0,0,0,0,0,0
MY,Malaysia,country,East Asia and Pacific,4.210484,101.975766,OM,Oman,country,Middle East and North Africa,21.512583,55.923255,5328.70078488928,1991,30653,266,5,98,0,0,110,244,466,0,17,0,249,402,25710,3086,0,0,0,0,0,0,0,0
MT,Malta,country,Middle East and North Africa,35.937496,14.375416,OM,Oman,country,Middle East and North Africa,21.512583,55.923255,4323.06501863858,1991,465,181,0,62,0,0,0,0,54,0,0,0,0,115,0,53,0,0,0,0,0,0,0,0
MU,Mauritius,country,Sub-Saharan Africa,-20.348404,57.552152,OM,Oman,country,Middle East and North Africa,21.512583,55.923255,4663.31171521028,1991,20,0,0,20,0,0,0,0,0,0,0,0,0,0,0,0,0,0,0,0,0,0,0,0
NP,Nepal,country,South Asia,28.394857,84.124008,OM,Oman,country,Middle East and North Africa,21.512583,55.923255,2939.76322452672,1991,5,0,0,0,5,0,0,0,0,0,0,0,0,0,0,0,0,0,0,0,0,0,0,0
NL,Netherlands,country,Europe and Central Asia,52.132633,5.291266,OM,Oman,country,Middle East and North Africa,21.512583,55.923255,5491.22131202927,1991,25020,258,931,16,0,0,0,329,169,0,0,76,78,362,1710,2586,230,221,18284,0,0,0,0,0
NZ,New Zealand,country,East Asia and Pacific,-40.900557,174.885971,OM,Oman,country,Middle East and North Africa,21.512583,55.923255,13969.8993700863,1991,4347,10,0,0,0,0,0,2,0,0,0,0,0,0,0,0,0,3613,722,0,0,0,0,0
PK,Pakistan,country,South Asia,30.375321,69.345116,OM,Oman,country,Middle East and North Africa,21.512583,55.923255,1664.54786661874,1991,43062,42452,0,19,0,0,0,187,70,65,98,0,113,39,8,11,0,0,0,0,0,0,0,0
PH,Philippines,country,East Asia and Pacific,12.879721,121.774017,OM,Oman,country,Middle East and North Africa,21.512583,55.923255,7021.79755581681,1991,753,28,0,0,0,0,0,0,15,0,0,0,573,101,0,36,0,0,0,0,0,0,0,0
PL,Poland,country,Europe and Central Asia,51.919438,19.145136,OM,Oman,country,Middle East and North Africa,21.512583,55.923255,4626.61097148738,1991,163,0,0,56,0,0,0,0,0,0,0,0,21,0,0,0,0,0,86,0,0,0,0,0
QA,Qatar,country,Middle East and North Africa,25.354826,51.183884,OM,Oman,country,Middle East and North Africa,21.512583,55.923255,645.837727578887,1991,3,0,0,0,0,0,0,0,2,0,1,0,0,0,0,0,0,0,0,0,0,0,0,0
KR,"Korea, Rep.",country,East Asia and Pacific,35.907757,127.766922,OM,Oman,country,Middle East and North Africa,21.512583,55.923255,7042.54095251856,1991,1093,7,0,1032,0,0,0,8,0,0,0,0,0,18,0,28,0,0,0,0,0,0,0,0
RW,Rwanda,country,Sub-Saharan Africa,-1.940278,29.873888,OM,Oman,country,Middle East and North Africa,21.512583,55.923255,3853.9194664099,1991,21,0,0,0,0,0,0,0,0,0,0,0,21,0,0,0,0,0,0,0,0,0,0,0
SA,Saudi Arabia,country,Middle East and North Africa,23.885942,45.079162,OM,Oman,country,Middle East and North Africa,21.512583,55.923255,1144.20650446303,1991,23907,16364,2,954,0,0,0,217,1569,21,0,0,39,0,675,1355,0,24,2687,0,0,0,0,0
SG,Singapore,country,East Asia and Pacific,1.352083,103.819836,OM,Oman,country,Middle East and North Africa,21.512583,55.923255,5653.27053962043,1991,2489,401,13,218,0,5,50,12,73,0,26,0,118,117,942,470,0,0,44,0,0,0,0,0
SO,Somalia,country,Sub-Saharan Africa,5.152149,46.199616,OM,Oman,country,Middle East and North Africa,21.512583,55.923255,2101.73159070231,1991,0,0,0,0,0,0,0,0,0,0,0,0,0,0,0,0,0,0,0,0,0,0,0,0
ES,Spain,country,Europe and Central Asia,40.463667,-3.74922,OM,Oman,country,Middle East and North Africa,21.512583,55.923255,5951.12258086635,1991,335,1,0,21,0,0,0,83,11,0,4,0,35,16,146,18,0,0,0,0,0,0,0,0
LK,Sri Lanka,country,South Asia,7.873054,80.771797,OM,Oman,country,Middle East and North Africa,21.512583,55.923255,3068.59032985906,1991,703,32,17,0,0,1,36,134,103,0,0,0,88,292,0,0,0,0,0,0,0,0,0,0
SD,Sudan,country,Sub-Saharan Africa,12.862807,30.217636,OM,Oman,country,Middle East and North Africa,21.512583,55.923255,2893.27044997598,1991,0,0,0,0,0,0,0,0,0,0,0,0,0,0,0,0,0,0,0,0,0,0,0,0
SE,Sweden,country,Europe and Central Asia,60.128161,18.643501,OM,Oman,country,Middle East and North Africa,21.512583,55.923255,5191.06852111848,1991,0,0,0,0,0,0,0,0,0,0,0,0,0,0,0,0,0,0,0,0,0,0,0,0
CH,Switzerland,country,Europe and Central Asia,46.818188,8.227512,OM,Oman,country,Middle East and North Africa,21.512583,55.923255,5109.66914205266,1991,288,18,0,0,0,0,0,101,16,0,0,0,18,98,0,0,0,0,37,0,0,0,0,0
TH,Thailand,country,East Asia and Pacific,15.870032,100.992541,OM,Oman,country,Middle East and North Africa,21.512583,55.923255,4778.01588276839,1991,29645,29347,5,59,21,0,0,20,103,0,36,0,27,27,0,0,0,0,0,0,0,0,0,0
TN,Tunisia,country,Middle East and North Africa,33.886917,9.537499,OM,Oman,country,Middle East and North Africa,21.512583,55.923255,4731.83132731994,1991,137,43,0,36,0,0,0,0,56,0,0,0,0,2,0,0,0,0,0,0,0,0,0,0
TR,Turkey,country,Europe and Central Asia,38.963745,35.243322,OM,Oman,country,Middle East and North Africa,21.512583,55.923255,2767.00300704356,1991,704,0,0,7,680,0,0,0,0,0,0,0,17,0,0,0,0,0,0,0,0,0,0,0
UG,Uganda,country,Sub-Saharan Africa,1.373333,32.290275,OM,Oman,country,Middle East and North Africa,21.512583,55.923255,3404.95263010719,1991,3,0,0,1,2,0,0,0,0,0,0,0,0,0,0,0,0,0,0,0,0,0,0,0
AE,United Arab Emirates,country,Middle East and North Africa,23.424076,53.847818,OM,Oman,country,Middle East and North Africa,21.512583,55.923255,301.417786949232,1991,260699,28434,11259,10031,4960,475,138,55037,58076,15,1294,3684,2383,5714,471,60695,136,12172,5861,0,0,0,0,0
GB,United Kingdom,country,Europe and Central Asia,55.378051,-3.435973,OM,Oman,country,Middle East and North Africa,21.512583,55.923255,6141.35690780383,1991,8863,417,6,1893,0,0,0,401,63,0,0,916,362,1548,77,1671,6,73,1436,0,0,0,0,0
TZ,Tanzania,country,Sub-Saharan Africa,-6.369028,34.888822,OM,Oman,country,Middle East and North Africa,21.512583,55.923255,3860.97953406752,1991,74,0,0,1,25,0,0,0,8,0,17,0,15,0,0,0,0,8,0,0,0,0,0,0
US,USA,country,North America,37.09024,-95.712891,OM,Oman,country,Middle East and North Africa,21.512583,55.923255,12867.044315304,1991,7508,177,63,35,187,2,0,982,643,0,12,3,37,1498,5,248,0,3321,295,0,0,0,0,0
UY,Uruguay,country,Latin America and the Caribbean,-32.522779,-55.765835,OM,Oman,country,Middle East and North Africa,21.512583,55.923255,13263.4337279623,1991,116,0,0,0,0,0,0,0,0,0,0,0,0,0,0,0,0,0,116,0,0,0,0,0
RU,Russian Federation,country,Europe and Central Asia,61.52401,105.318756,OM,Oman,country,Middle East and North Africa,21.512583,55.923255,5825.97832654927,1991,92,0,0,0,0,0,0,0,0,0,0,0,0,0,0,0,0,0,92,0,0,0,0,0
BA,Bosnia & Herzegovina,country,Europe and Central Asia,43.915886,17.679076,OM,Oman,country,Middle East and North Africa,21.512583,55.923255,4305.40872088064,1991,64,0,0,35,0,0,0,0,0,0,0,0,14,0,0,0,0,0,15,0,0,0,0,0
ZW,Zimbabwe,country,Sub-Saharan Africa,-19.015438,29.154857,OM,Oman,country,Middle East and North Africa,21.512583,55.923255,5371.61862239672,1991,3,0,0,3,0,0,0,0,0,0,0,0,0,0,0,0,0,0,0,0,0,0,0,0
AR,Argentina,country,Latin America and the Caribbean,-38.416097,-63.616672,OM,Oman,country,Middle East and North Africa,21.512583,55.923255,14022.0109396693,1992,10918,8400,0,17,0,0,0,0,0,0,0,0,0,0,2501,0,0,0,0,0,0,0,0,0
AU,Australia,country,East Asia and Pacific,-25.274398,133.775136,OM,Oman,country,Middle East and North Africa,21.512583,55.923255,9888.17091862246,1992,247453,237920,0,157,3059,0,0,490,399,0,0,118,16,58,21,1637,0,3304,274,0,0,0,0,0
AT,Austria,country,Europe and Central Asia,47.516231,14.550072,OM,Oman,country,Middle East and North Africa,21.512583,55.923255,4686.82220900003,1992,467,1,0,0,0,0,0,0,27,0,0,0,0,54,0,54,0,307,24,0,0,0,0,0
BH,Bahrain,country,Middle East and North Africa,25.930414,50.637772,OM,Oman,country,Middle East and North Africa,21.512583,55.923255,729.218079260173,1992,209,66,0,5,0,0,0,6,0,0,0,0,0,1,131,0,0,0,0,0,0,0,0,0
BD,Bangladesh,country,South Asia,23.684994,90.356331,OM,Oman,country,Middle East and North Africa,21.512583,55.923255,3538.60307695496,1992,705,0,1,0,0,0,0,480,41,0,0,0,181,2,0,0,0,0,0,0,0,0,0,0
BE,Belgium,country,Europe and Central Asia,50.503887,4.469936,OM,Oman,country,Middle East and North Africa,21.512583,55.923255,5491.35648836076,1992,1779,318,16,23,0,0,0,473,18,0,0,661,1,20,155,0,0,0,94,0,0,0,0,0
BO,Bolivia,country,Latin America and the Caribbean,-16.290154,-63.588653,OM,Oman,country,Middle East and North Africa,21.512583,55.923255,13677.9496564669,1992,88,0,0,0,0,0,0,0,0,0,0,0,88,0,0,0,0,0,0,0,0,0,0,0
BW,Botswana,country,Sub-Saharan Africa,-22.328474,24.684866,OM,Oman,country,Middle East and North Africa,21.512583,55.923255,5942.31934662134,1992,390,0,0,0,0,0,0,15,108,0,0,0,0,18,0,0,0,249,0,0,0,0,0,0
BR,Brazil,country,Latin America and the Caribbean,-14.235004,-51.92528,OM,Oman,country,Middle East and North Africa,21.512583,55.923255,12412.5757282605,1992,313,0,0,84,0,0,0,0,0,0,0,0,183,18,0,0,0,28,0,0,0,0,0,0
BG,Bulgaria,country,Europe and Central Asia,42.733883,25.48583,OM,Oman,country,Middle East and North Africa,21.512583,55.923255,3681.24017145279,1992,27,0,0,0,0,0,0,0,0,0,0,0,0,0,0,0,0,0,27,0,0,0,0,0
BI,Burundi,country,Sub-Saharan Africa,-3.373056,29.918886,OM,Oman,country,Middle East and North Africa,21.512583,55.923255,3962.6980369638,1992,140,0,0,0,0,0,0,0,0,0,0,0,140,0,0,0,0,0,0,0,0,0,0,0
CA,Canada,country,North America,56.130366,-106.346771,OM,Oman,country,Middle East and North Africa,21.512583,55.923255,11233.9620076981,1992,41,0,0,0,0,0,0,0,0,0,0,0,0,41,0,0,0,0,0,0,0,0,0,0
CL,Chile,country,Latin America and the Caribbean,-35.675147,-71.542969,OM,Oman,country,Middle East and North Africa,21.512583,55.923255,14732.4173052424,1992,531,0,0,12,0,0,0,0,0,0,0,506,13,0,0,0,0,0,0,0,0,0,0,0
HK,Hong Kong,country,East Asia and Pacific,22.396428,114.109497,OM,Oman,country,Middle East and North Africa,21.512583,55.923255,5968.75914253481,1992,124,5,0,42,0,0,0,0,0,0,0,0,0,17,0,0,0,60,0,0,0,0,0,0
CN,China,country,East Asia and Pacific,35.86166,104.195397,OM,Oman,country,Middle East and North Africa,21.512583,55.923255,4922.53173948043,1992,2534,120,14,129,86,9,0,2015,7,3,36,0,31,84,0,0,0,0,0,0,0,0,0,0
CR,Costa Rica,country,Latin America and the Caribbean,9.748917,-83.753428,OM,Oman,country,Middle East and North Africa,21.512583,55.923255,14423.1361477311,1992,1571,0,18,0,0,0,0,0,0,0,0,0,1553,0,0,0,0,0,0,0,0,0,0,0
CI,Ivory Coast,country,Sub-Saharan Africa,7.539989,-5.54708,OM,Oman,country,Middle East and North Africa,21.512583,55.923255,6762.6816384374,1992,2,0,0,0,0,0,0,0,0,0,0,0,2,0,0,0,0,0,0,0,0,0,0,0
CU,Cuba,country,Latin America and the Caribbean,21.521757,-77.781167,OM,Oman,country,Middle East and North Africa,21.512583,55.923255,13092.3548765881,1992,0,0,0,0,0,0,0,0,0,0,0,0,0,0,0,0,0,0,0,0,0,0,0,0
CY,Cyprus,country,Europe and Central Asia,35.126413,33.429859,OM,Oman,country,Middle East and North Africa,21.512583,55.923255,2664.26256622778,1992,383,10,0,127,0,0,0,60,90,0,0,0,14,69,0,0,0,0,13,0,0,0,0,0
CZ,Czech Republic,country,Europe and Central Asia,49.817492,15.472962,OM,Oman,country,Middle East and North Africa,21.512583,55.923255,4734.14743263653,1992,77,0,0,6,0,0,0,0,0,0,0,0,0,0,0,0,0,0,71,0,0,0,0,0
DK,Denmark,country,Europe and Central Asia,56.26392,9.501785,OM,Oman,country,Middle East and North Africa,21.512583,55.923255,5411.70624087667,1992,9204,78,1,40,0,0,0,274,59,0,0,124,41,375,449,868,0,5017,1878,0,0,0,0,0
EG,Egypt,country,Middle East and North Africa,26.820553,30.802498,OM,Oman,country,Middle East and North Africa,21.512583,55.923255,2614.05376902867,1992,384,100,0,37,0,0,0,43,43,0,0,0,57,102,0,0,0,0,2,0,0,0,0,0
FI,Finland,country,Europe and Central Asia,61.92411,25.748151,OM,Oman,country,Middle East and North Africa,21.512583,55.923255,5054.59785900908,1992,443,0,0,12,0,0,0,0,0,0,0,0,0,0,0,0,0,20,411,0,0,0,0,0
FR,France,country,Europe and Central Asia,46.227638,2.213749,OM,Oman,country,Middle East and North Africa,21.512583,55.923255,5541.42830139283,1992,12192,1646,111,433,0,0,0,63,145,0,0,16,40,87,169,674,0,5461,3347,0,0,0,0,0
DE,Germany,country,Europe and Central Asia,51.165691,10.451526,OM,Oman,country,Middle East and North Africa,21.512583,55.923255,5119.82739423066,1992,20621,277,0,14894,0,0,0,36,11,0,22,0,76,122,0,663,0,214,4306,0,0,0,0,0
GR,Greece,country,Europe and Central Asia,39.074208,21.824312,OM,Oman,country,Middle East and North Africa,21.512583,55.923255,3782.81304947776,1992,59,14,0,0,0,0,0,0,44,0,0,0,0,0,0,0,0,0,1,0,0,0,0,0
GT,Guatemala,country,Latin America and the Caribbean,15.783471,-90.230759,OM,Oman,country,Middle East and North Africa,21.512583,55.923255,14479.9876536801,1992,148,0,0,0,0,0,0,0,0,0,130,0,18,0,0,0,0,0,0,0,0,0,0,0
HU,Hungary,country,Europe and Central Asia,47.162494,19.503304,OM,Oman,country,Middle East and North Africa,21.512583,55.923255,4333.71665145868,1992,818,0,0,0,0,0,0,18,0,0,0,0,0,20,0,0,0,780,0,0,0,0,0,0
IN,India,country,South Asia,20.593684,78.96288,OM,Oman,country,Middle East and North Africa,21.512583,55.923255,2393.59498923766,1992,35248,4813,29,214,1791,54,302,965,576,20,624,16531,1441,629,0,586,156,5772,901,0,0,0,0,0
ID,Indonesia,country,East Asia and Pacific,-0.789275,113.921327,OM,Oman,country,Middle East and North Africa,21.512583,55.923255,6767.69700646654,1992,310,59,0,40,0,0,0,0,0,1,2,0,198,10,0,0,0,0,0,0,0,0,0,0
IR,Iran,country,Middle East and North Africa,32.427908,53.688046,OM,Oman,country,Middle East and North Africa,21.512583,55.923255,1235.05132525251,1992,74,0,0,0,0,0,0,48,26,0,0,0,0,0,0,0,0,0,0,0,0,0,0,0
IE,Ireland,country,Europe and Central Asia,53.41291,-8.24389,OM,Oman,country,Middle East and North Africa,21.512583,55.923255,6410.10295861924,1992,305,36,0,0,0,0,0,0,0,0,0,0,0,77,14,0,0,38,140,0,0,0,0,0
IT,Italy,country,Europe and Central Asia,41.87194,12.56738,OM,Oman,country,Middle East and North Africa,21.512583,55.923255,4624.37467399731,1992,2322,668,0,16,22,0,0,1383,56,2,0,0,42,88,15,30,0,0,0,0,0,0,0,0
JP,Japan,country,East Asia and Pacific,36.204824,138.252924,OM,Oman,country,Middle East and North Africa,21.512583,55.923255,7962.72854447021,1992,179,10,13,19,0,0,0,12,0,0,5,1,0,93,7,19,0,0,0,0,0,0,0,0
JO,Jordan,country,Middle East and North Africa,30.585164,36.238414,OM,Oman,country,Middle East and North Africa,21.512583,55.923255,2207.82078999215,1992,341,0,0,0,0,0,0,341,0,0,0,0,0,0,0,0,0,0,0,0,0,0,0,0
KE,Kenya,country,Sub-Saharan Africa,-0.023559,37.906193,OM,Oman,country,Middle East and North Africa,21.512583,55.923255,3094.87826406551,1992,8532,20,0,0,0,0,6597,0,0,0,0,1500,401,14,0,0,0,0,0,0,0,0,0,0
KW,Kuwait,country,Middle East and North Africa,29.31166,47.481766,OM,Oman,country,Middle East and North Africa,21.512583,55.923255,1213.2903060681,1992,255,40,0,0,0,20,0,150,5,0,0,0,0,20,0,0,0,0,20,0,0,0,0,0
LB,Lebanon,country,Middle East and North Africa,33.854721,35.862285,OM,Oman,country,Middle East and North Africa,21.512583,55.923255,2400.39124145012,1992,966,0,203,0,33,0,0,260,384,0,0,0,6,79,0,0,0,0,1,0,0,0,0,0
LY,Libya,country,Middle East and North Africa,26.3351,17.228331,OM,Oman,country,Middle East and North Africa,21.512583,55.923255,3959.3329033741,1992,7,0,0,0,0,0,0,2,5,0,0,0,0,0,0,0,0,0,0,0,0,0,0,0
MG,Madagascar,country,Sub-Saharan Africa,-18.766947,46.869107,OM,Oman,country,Middle East and North Africa,21.512583,55.923255,4591.11740719136,1992,512,0,0,0,0,0,0,0,0,0,12,0,0,0,500,0,0,0,0,0,0,0,0,0
MY,Malaysia,country,East Asia and Pacific,4.210484,101.975766,OM,Oman,country,Middle East and North Africa,21.512583,55.923255,5328.70078488928,1992,27402,388,0,13,0,0,132,336,461,0,9,0,67,547,23263,2127,0,0,59,0,0,0,0,0
MT,Malta,country,Middle East and North Africa,35.937496,14.375416,OM,Oman,country,Middle East and North Africa,21.512583,55.923255,4323.06501863858,1992,780,124,0,275,0,0,0,62,111,0,0,0,0,155,0,15,0,0,38,0,0,0,0,0
MU,Mauritius,country,Sub-Saharan Africa,-20.348404,57.552152,OM,Oman,country,Middle East and North Africa,21.512583,55.923255,4663.31171521028,1992,41,0,0,41,0,0,0,0,0,0,0,0,0,0,0,0,0,0,0,0,0,0,0,0
MX,Mexico,country,Latin America and the Caribbean,23.634501,-102.552784,OM,Oman,country,Middle East and North Africa,21.512583,55.923255,14497.1020781752,1992,25,0,0,25,0,0,0,0,0,0,0,0,0,0,0,0,0,0,0,0,0,0,0,0
MZ,Mozambique,country,Sub-Saharan Africa,-18.665695,35.529562,OM,Oman,country,Middle East and North Africa,21.512583,55.923255,4994.13432667361,1992,20,0,0,0,0,0,0,0,0,0,0,0,0,0,0,20,0,0,0,0,0,0,0,0
MM,Myanmar,country,East Asia and Pacific,21.913965,95.956223,OM,Oman,country,Middle East and North Africa,21.512583,55.923255,4128.45729995065,1992,4469,4462,0,0,0,0,0,0,0,0,7,0,0,0,0,0,0,0,0,0,0,0,0,0
NR,Nauru,country,East Asia and Pacific,-0.522778,166.931503,OM,Oman,country,Middle East and North Africa,21.512583,55.923255,12210.1542488594,1992,34,0,0,0,0,0,0,0,0,0,0,0,0,0,0,0,0,0,34,0,0,0,0,0
NL,Netherlands,country,Europe and Central Asia,52.132633,5.291266,OM,Oman,country,Middle East and North Africa,21.512583,55.923255,5491.22131202927,1992,26191,250,2087,16,0,0,0,219,169,0,0,462,40,324,2258,3331,200,378,16657,0,0,0,0,0
NZ,New Zealand,country,East Asia and Pacific,-40.900557,174.885971,OM,Oman,country,Middle East and North Africa,21.512583,55.923255,13969.8993700863,1992,3610,0,0,1,0,0,0,0,0,0,0,0,0,0,0,0,0,3069,540,0,0,0,0,0
NO,Norway,country,Europe and Central Asia,60.472024,8.468946,OM,Oman,country,Middle East and North Africa,21.512583,55.923255,5678.98838558594,1992,0,0,0,0,0,0,0,0,0,0,0,0,0,0,0,0,0,0,0,0,0,0,0,0
PK,Pakistan,country,South Asia,30.375321,69.345116,OM,Oman,country,Middle East and North Africa,21.512583,55.923255,1664.54786661874,1992,35097,34447,0,67,0,0,0,132,41,21,109,0,184,96,0,0,0,0,0,0,0,0,0,0
PG,Papua New Guinea,country,East Asia and Pacific,-6.314993,143.95555,OM,Oman,country,Middle East and North Africa,21.512583,55.923255,10073.5122251208,1992,2,0,0,0,0,0,0,0,0,0,2,0,0,0,0,0,0,0,0,0,0,0,0,0
PH,Philippines,country,East Asia and Pacific,12.879721,121.774017,OM,Oman,country,Middle East and North Africa,21.512583,55.923255,7021.79755581681,1992,481,7,0,0,0,0,0,5,21,0,0,0,250,108,0,90,0,0,0,0,0,0,0,0
PL,Poland,country,Europe and Central Asia,51.919438,19.145136,OM,Oman,country,Middle East and North Africa,21.512583,55.923255,4626.61097148738,1992,80,0,0,29,0,0,0,0,0,0,0,0,21,0,0,0,0,0,30,0,0,0,0,0
PT,Portugal,country,Europe and Central Asia,39.399872,-8.224454,OM,Oman,country,Middle East and North Africa,21.512583,55.923255,6333.03923165743,1992,135,0,0,0,0,0,0,0,0,0,0,0,0,0,0,2,0,0,133,0,0,0,0,0
QA,Qatar,country,Middle East and North Africa,25.354826,51.183884,OM,Oman,country,Middle East and North Africa,21.512583,55.923255,645.837727578887,1992,5,0,0,0,0,0,0,0,2,0,0,0,0,3,0,0,0,0,0,0,0,0,0,0
KR,"Korea, Rep.",country,East Asia and Pacific,35.907757,127.766922,OM,Oman,country,Middle East and North Africa,21.512583,55.923255,7042.54095251856,1992,310,0,0,13,0,0,0,21,63,0,0,3,0,16,0,161,0,0,33,0,0,0,0,0
RW,Rwanda,country,Sub-Saharan Africa,-1.940278,29.873888,OM,Oman,country,Middle East and North Africa,21.512583,55.923255,3853.9194664099,1992,45,0,0,0,0,0,0,0,0,0,0,0,45,0,0,0,0,0,0,0,0,0,0,0
SA,Saudi Arabia,country,Middle East and North Africa,23.885942,45.079162,OM,Oman,country,Middle East and North Africa,21.512583,55.923255,1144.20650446303,1992,18885,10496,0,157,0,3,0,172,1204,0,0,2,149,966,1797,1464,3,37,2438,0,0,0,0,0
SG,Singapore,country,East Asia and Pacific,1.352083,103.819836,OM,Oman,country,Middle East and North Africa,21.512583,55.923255,5653.27053962043,1992,4130,201,2,106,0,17,0,37,48,0,83,0,274,100,2777,480,0,0,5,0,0,0,0,0
SO,Somalia,country,Sub-Saharan Africa,5.152149,46.199616,OM,Oman,country,Middle East and North Africa,21.512583,55.923255,2101.73159070231,1992,1,0,0,1,0,0,0,0,0,0,0,0,0,0,0,0,0,0,0,0,0,0,0,0
ZA,S. Africa,country,Sub-Saharan Africa,-30.559482,22.937506,OM,Oman,country,Middle East and North Africa,21.512583,55.923255,6785.19833805587,1992,20,0,0,0,0,0,0,0,0,0,0,0,0,0,0,20,0,0,0,0,0,0,0,0
