sourceCode,sourceName,sourceGrouping,sourceRegion,sourceLat,sourceLong,destCode,destName,destGrouping,destRegion,destLat,destLong,distance,year,totalTons,cereals,roots,sugarCrops,pulses,nuts,oilCrops,vegetables,fruits,fibers,spices,fodderCrops,coffeeTea,tobaccoRubber,oilsFats,beverages,livestock,animalMeats,animalProducts,animalHides,nimalOther,pesticides,fertilizers,machinery
AF,Afghanistan,country,South Asia,33.93911,67.709953,ME,Montenegro,country,Europe and Central Asia,42.708678,19.37439,4272.09892934693,2006,2,0,0,0,0,0,0,0,0,0,0,0,0,0,0,0,0,2,0,0,0,0,0,0
AL,Albania,country,Europe and Central Asia,41.153332,20.168331,ME,Montenegro,country,Europe and Central Asia,42.708678,19.37439,185.202170776218,2006,686,0,0,20,0,0,0,622,6,0,0,0,38,0,0,0,0,0,0,0,0,0,0,0
AR,Argentina,country,Latin America and the Caribbean,-38.416097,-63.616672,ME,Montenegro,country,Europe and Central Asia,42.708678,19.37439,12307.576110154,2006,1367,74,0,0,0,1,0,91,1201,0,0,0,0,0,0,0,0,0,0,0,0,0,0,0
AU,Australia,country,East Asia and Pacific,-25.274398,133.775136,ME,Montenegro,country,Europe and Central Asia,42.708678,19.37439,13841.3997368716,2006,0,0,0,0,0,0,0,0,0,0,0,0,0,0,0,0,0,0,0,0,0,0,0,0
AT,Austria,country,Europe and Central Asia,47.516231,14.550072,ME,Montenegro,country,Europe and Central Asia,42.708678,19.37439,655.492179257799,2006,13499,209,9,45,0,0,0,533,616,0,1,62,496,49,23,2078,0,9378,0,0,0,0,0,0
BB,Barbados,country,Latin America and the Caribbean,13.193887,-59.543198,ME,Montenegro,country,Europe and Central Asia,42.708678,19.37439,8126.59463216734,2006,0,0,0,0,0,0,0,0,0,0,0,0,0,0,0,0,0,0,0,0,0,0,0,0
BE,Belgium,country,Europe and Central Asia,50.503887,4.469936,ME,Montenegro,country,Europe and Central Asia,42.708678,19.37439,1428.16674095218,2006,1266,0,11,1002,0,0,0,1,18,0,0,0,0,0,0,0,0,234,0,0,0,0,0,0
BO,Bolivia,country,Latin America and the Caribbean,-16.290154,-63.588653,ME,Montenegro,country,Europe and Central Asia,42.708678,19.37439,10682.3123670211,2006,0,0,0,0,0,0,0,0,0,0,0,0,0,0,0,0,0,0,0,0,0,0,0,0
BA,Bosnia & Herzegovina,country,Europe and Central Asia,43.915886,17.679076,ME,Montenegro,country,Europe and Central Asia,42.708678,19.37439,192.126869784016,2006,4968,1238,368,19,0,0,0,927,274,0,3,169,199,655,22,377,58,178,539,0,0,0,0,0
BR,Brazil,country,Latin America and the Caribbean,-14.235004,-51.92528,ME,Montenegro,country,Europe and Central Asia,42.708678,19.37439,9625.77929856153,2006,14896,0,0,5442,0,0,0,10,23,0,0,1196,8157,44,0,0,0,24,0,0,0,0,0,0
BG,Bulgaria,country,Europe and Central Asia,42.733883,25.48583,ME,Montenegro,country,Europe and Central Asia,42.708678,19.37439,499.706207629589,2006,519,384,0,4,0,0,0,1,0,5,0,0,79,37,0,0,0,0,9,0,0,0,0,0
KH,Cambodia,country,East Asia and Pacific,12.565679,104.990963,ME,Montenegro,country,Europe and Central Asia,42.708678,19.37439,8718.96510667227,2006,1,0,0,0,0,0,0,0,1,0,0,0,0,0,0,0,0,0,0,0,0,0,0,0
CA,Canada,country,North America,56.130366,-106.346771,ME,Montenegro,country,Europe and Central Asia,42.708678,19.37439,7913.70418630763,2006,563,0,0,1,288,0,0,274,0,0,0,0,0,0,0,0,0,0,0,0,0,0,0,0
CL,Chile,country,Latin America and the Caribbean,-35.675147,-71.542969,ME,Montenegro,country,Europe and Central Asia,42.708678,19.37439,12679.1174657337,2006,72,0,0,0,0,0,0,0,72,0,0,0,0,0,0,0,0,0,0,0,0,0,0,0
CN,China,country,East Asia and Pacific,35.86166,104.195397,ME,Montenegro,country,Europe and Central Asia,42.708678,19.37439,7033.74958738116,2006,557,0,0,17,0,6,16,476,18,0,0,0,19,5,0,0,0,0,0,0,0,0,0,0
CO,Colombia,country,Latin America and the Caribbean,4.570868,-74.297333,ME,Montenegro,country,Europe and Central Asia,42.708678,19.37439,9973.18010127026,2006,72,0,0,49,0,0,0,0,0,0,0,0,23,0,0,0,0,0,0,0,0,0,0,0
CR,Costa Rica,country,Latin America and the Caribbean,9.748917,-83.753428,ME,Montenegro,country,Europe and Central Asia,42.708678,19.37439,10335.4391689182,2006,285,0,0,0,0,0,0,4,281,0,0,0,0,0,0,0,0,0,0,0,0,0,0,0
CI,Ivory Coast,country,Sub-Saharan Africa,7.539989,-5.54708,ME,Montenegro,country,Europe and Central Asia,42.708678,19.37439,4613.26239583515,2006,18,0,0,0,0,0,0,0,11,0,0,0,0,7,0,0,0,0,0,0,0,0,0,0
HR,Croatia,country,Europe and Central Asia,45.1,15.2,ME,Montenegro,country,Europe and Central Asia,42.708678,19.37439,427.638498857229,2006,5692,575,0,93,0,11,25,108,140,0,5,0,202,1441,619,1296,90,40,1137,0,0,0,0,0
CU,Cuba,country,Latin America and the Caribbean,21.521757,-77.781167,ME,Montenegro,country,Europe and Central Asia,42.708678,19.37439,8970.07751342723,2006,1,0,0,0,0,0,0,0,0,0,0,0,0,0,0,1,0,0,0,0,0,0,0,0
CY,Cyprus,country,Europe and Central Asia,35.126413,33.429859,ME,Montenegro,country,Europe and Central Asia,42.708678,19.37439,1478.20414776711,2006,65,0,0,0,0,0,0,0,63,0,0,0,0,2,0,0,0,0,0,0,0,0,0,0
CZ,Czech Republic,country,Europe and Central Asia,49.817492,15.472962,ME,Montenegro,country,Europe and Central Asia,42.708678,19.37439,846.09364091471,2006,3495,2400,0,1073,0,0,0,0,0,0,0,0,20,0,0,2,0,0,0,0,0,0,0,0
DK,Denmark,country,Europe and Central Asia,56.26392,9.501785,ME,Montenegro,country,Europe and Central Asia,42.708678,19.37439,1665.46659390427,2006,47,0,5,0,0,0,0,0,0,0,0,0,0,0,0,0,0,0,42,0,0,0,0,0
DM,Dominica,country,Latin America and the Caribbean,15.414999,-61.370976,ME,Montenegro,country,Europe and Central Asia,42.708678,19.37439,8114.03742629544,2006,0,0,0,0,0,0,0,0,0,0,0,0,0,0,0,0,0,0,0,0,0,0,0,0
EC,Ecuador,country,Latin America and the Caribbean,-1.831239,-78.183406,ME,Montenegro,country,Europe and Central Asia,42.708678,19.37439,10774.8809889145,2006,7421,0,0,0,0,0,0,0,7420,0,0,0,1,0,0,0,0,0,0,0,0,0,0,0
EG,Egypt,country,Middle East and North Africa,26.820553,30.802498,ME,Montenegro,country,Europe and Central Asia,42.708678,19.37439,2049.87546190994,2006,656,123,0,0,23,0,2,127,381,0,0,0,0,0,0,0,0,0,0,0,0,0,0,0
FI,Finland,country,Europe and Central Asia,61.92411,25.748151,ME,Montenegro,country,Europe and Central Asia,42.708678,19.37439,2180.09935668298,2006,5,0,0,0,0,0,0,0,0,0,0,0,0,0,0,5,0,0,0,0,0,0,0,0
FR,France,country,Europe and Central Asia,46.227638,2.213749,ME,Montenegro,country,Europe and Central Asia,42.708678,19.37439,1415.22518036063,2006,2705,0,0,2578,0,0,0,7,27,0,0,3,2,29,0,59,0,0,0,0,0,0,0,0
GE,Georgia,country,Europe and Central Asia,42.315407,43.356892,ME,Montenegro,country,Europe and Central Asia,42.708678,19.37439,1961.80346452298,2006,2,2,0,0,0,0,0,0,0,0,0,0,0,0,0,0,0,0,0,0,0,0,0,0
DE,Germany,country,Europe and Central Asia,51.165691,10.451526,ME,Montenegro,country,Europe and Central Asia,42.708678,19.37439,1158.47543550597,2006,4405,748,17,1347,0,0,3,7,113,6,17,156,82,67,2,470,0,156,1214,0,0,0,0,0
GH,Ghana,country,Sub-Saharan Africa,7.946527,-1.023194,ME,Montenegro,country,Europe and Central Asia,42.708678,19.37439,4354.13991516237,2006,22,0,0,0,0,0,0,0,2,0,0,0,20,0,0,0,0,0,0,0,0,0,0,0
GR,Greece,country,Europe and Central Asia,39.074208,21.824312,ME,Montenegro,country,Europe and Central Asia,42.708678,19.37439,454.033347854666,2006,448,2,0,0,0,1,5,37,319,20,0,0,1,46,17,0,0,0,0,0,0,0,0,0
GD,Grenada,country,Latin America and the Caribbean,12.262776,-61.604171,ME,Montenegro,country,Europe and Central Asia,42.708678,19.37439,8363.25167073736,2006,2,2,0,0,0,0,0,0,0,0,0,0,0,0,0,0,0,0,0,0,0,0,0,0
GN,Guinea,country,Sub-Saharan Africa,9.945587,-9.696645,ME,Montenegro,country,Europe and Central Asia,42.708678,19.37439,4612.26760648035,2006,144,0,0,0,0,0,0,0,0,0,0,0,144,0,0,0,0,0,0,0,0,0,0,0
HN,Honduras,country,Latin America and the Caribbean,15.199999,-86.241905,ME,Montenegro,country,Europe and Central Asia,42.708678,19.37439,10102.0006745106,2006,9,0,0,0,0,0,0,0,9,0,0,0,0,0,0,0,0,0,0,0,0,0,0,0
HU,Hungary,country,Europe and Central Asia,47.162494,19.503304,ME,Montenegro,country,Europe and Central Asia,42.708678,19.37439,495.900386240049,2006,5761,67,0,4085,0,3,0,32,321,0,1,168,71,17,117,305,0,396,178,0,0,0,0,0
IN,India,country,South Asia,20.593684,78.96288,ME,Montenegro,country,Europe and Central Asia,42.708678,19.37439,6019.24028672277,2006,1016,0,0,1,0,0,11,0,0,0,2,0,1000,2,0,0,0,0,0,0,0,0,0,0
ID,Indonesia,country,East Asia and Pacific,-0.789275,113.921327,ME,Montenegro,country,Europe and Central Asia,42.708678,19.37439,10450.1840856712,2006,17,0,0,1,0,0,1,0,7,0,6,0,2,0,0,0,0,0,0,0,0,0,0,0
IR,Iran,country,Middle East and North Africa,32.427908,53.688046,ME,Montenegro,country,Europe and Central Asia,42.708678,19.37439,3210.02536661666,2006,110,0,0,0,1,23,3,0,83,0,0,0,0,0,0,0,0,0,0,0,0,0,0,0
IQ,Iraq,country,Middle East and North Africa,33.223191,43.679291,ME,Montenegro,country,Europe and Central Asia,42.708678,19.37439,2368.40011302939,2006,1,0,0,0,0,1,0,0,0,0,0,0,0,0,0,0,0,0,0,0,0,0,0,0
IE,Ireland,country,Europe and Central Asia,53.41291,-8.24389,ME,Montenegro,country,Europe and Central Asia,42.708678,19.37439,2353.43972829179,2006,10,0,0,0,0,0,0,0,0,0,0,0,0,0,0,10,0,0,0,0,0,0,0,0
IL,Israel,country,Middle East and North Africa,31.046051,34.851612,ME,Montenegro,country,Europe and Central Asia,42.708678,19.37439,1887.61680625052,2006,6,0,0,0,0,0,0,0,6,0,0,0,0,0,0,0,0,0,0,0,0,0,0,0
IT,Italy,country,Europe and Central Asia,41.87194,12.56738,ME,Montenegro,country,Europe and Central Asia,42.708678,19.37439,568.065635482276,2006,17625,2831,9,9807,0,36,11,690,2001,1,0,683,264,857,52,186,73,171,26,0,0,0,0,0
JP,Japan,country,East Asia and Pacific,36.204824,138.252924,ME,Montenegro,country,Europe and Central Asia,42.708678,19.37439,9288.26566157936,2006,0,0,0,0,0,0,0,0,0,0,0,0,0,0,0,0,0,0,0,0,0,0,0,0
KG,Kyrgyz Rep.,country,Europe and Central Asia,41.20438,74.766098,ME,Montenegro,country,Europe and Central Asia,42.708678,19.37439,4504.51732302493,2006,221,0,0,0,156,0,0,65,0,0,0,0,0,0,0,0,0,0,0,0,0,0,0,0
LB,Lebanon,country,Middle East and North Africa,33.854721,35.862285,ME,Montenegro,country,Europe and Central Asia,42.708678,19.37439,1740.64422987872,2006,6,0,0,0,0,0,0,0,0,0,0,0,6,0,0,0,0,0,0,0,0,0,0,0
LU,Luxembourg,country,Europe and Central Asia,49.815273,6.129583,ME,Montenegro,country,Europe and Central Asia,42.708678,19.37439,1287.16536438076,2006,23,0,23,0,0,0,0,0,0,0,0,0,0,0,0,0,0,0,0,0,0,0,0,0
MG,Madagascar,country,Sub-Saharan Africa,-18.766947,46.869107,ME,Montenegro,country,Europe and Central Asia,42.708678,19.37439,7401.34519307868,2006,0,0,0,0,0,0,0,0,0,0,0,0,0,0,0,0,0,0,0,0,0,0,0,0
MY,Malaysia,country,East Asia and Pacific,4.210484,101.975766,ME,Montenegro,country,Europe and Central Asia,42.708678,19.37439,9096.02338182583,2006,40,0,0,0,0,0,0,0,0,0,0,0,0,3,37,0,0,0,0,0,0,0,0,0
MT,Malta,country,Middle East and North Africa,35.937496,14.375416,ME,Montenegro,country,Europe and Central Asia,42.708678,19.37439,867.630331038579,2006,458,0,0,458,0,0,0,0,0,0,0,0,0,0,0,0,0,0,0,0,0,0,0,0
MU,Mauritius,country,Sub-Saharan Africa,-20.348404,57.552152,ME,Montenegro,country,Europe and Central Asia,42.708678,19.37439,8037.01692640245,2006,42,0,0,42,0,0,0,0,0,0,0,0,0,0,0,0,0,0,0,0,0,0,0,0
MX,Mexico,country,Latin America and the Caribbean,23.634501,-102.552784,ME,Montenegro,country,Europe and Central Asia,42.708678,19.37439,10555.6885286596,2006,11,0,0,0,0,0,0,0,0,0,0,0,0,0,0,11,0,0,0,0,0,0,0,0
MA,Morocco,country,Middle East and North Africa,31.791702,-7.09262,ME,Montenegro,country,Europe and Central Asia,42.708678,19.37439,2625.86968478445,2006,25,0,0,0,0,0,18,6,0,0,0,0,1,0,0,0,0,0,0,0,0,0,0,0
NR,Nauru,country,East Asia and Pacific,-0.522778,166.931503,ME,Montenegro,country,Europe and Central Asia,42.708678,19.37439,14335.3831884803,2006,6,0,0,0,0,0,0,0,0,0,0,0,0,0,0,0,0,6,0,0,0,0,0,0
NL,Netherlands,country,Europe and Central Asia,52.132633,5.291266,ME,Montenegro,country,Europe and Central Asia,42.708678,19.37439,1486.96989733313,2006,7386,15,963,1,0,0,3,357,0,0,0,372,44,201,0,1803,1,3567,60,0,0,0,0,0
NG,Nigeria,country,Sub-Saharan Africa,9.081999,8.675277,ME,Montenegro,country,Europe and Central Asia,42.708678,19.37439,3886.19241016594,2006,0,0,0,0,0,0,0,0,0,0,0,0,0,0,0,0,0,0,0,0,0,0,0,0
PK,Pakistan,country,South Asia,30.375321,69.345116,ME,Montenegro,country,Europe and Central Asia,42.708678,19.37439,4602.78657662835,2006,27,27,0,0,0,0,0,0,0,0,0,0,0,0,0,0,0,0,0,0,0,0,0,0
PA,Panama,country,Latin America and the Caribbean,8.537981,-80.782127,ME,Montenegro,country,Europe and Central Asia,42.708678,19.37439,10193.7896250138,2006,1019,0,0,0,0,2,0,0,545,0,1,0,471,0,0,0,0,0,0,0,0,0,0,0
PE,Peru,country,Latin America and the Caribbean,-9.189967,-75.015152,ME,Montenegro,country,Europe and Central Asia,42.708678,19.37439,11068.5063651247,2006,1,0,0,0,0,0,0,1,0,0,0,0,0,0,0,0,0,0,0,0,0,0,0,0
PH,Philippines,country,East Asia and Pacific,12.879721,121.774017,ME,Montenegro,country,Europe and Central Asia,42.708678,19.37439,10035.4998632763,2006,2,0,0,0,0,0,0,0,2,0,0,0,0,0,0,0,0,0,0,0,0,0,0,0
PL,Poland,country,Europe and Central Asia,51.919438,19.145136,ME,Montenegro,country,Europe and Central Asia,42.708678,19.37439,1025.48166347911,2006,1650,86,225,1068,0,0,0,0,1,0,0,17,73,159,0,0,0,0,21,0,0,0,0,0
PT,Portugal,country,Europe and Central Asia,39.399872,-8.224454,ME,Montenegro,country,Europe and Central Asia,42.708678,19.37439,2335.17107622906,2006,6,0,0,0,0,0,0,0,2,0,0,0,0,4,0,0,0,0,0,0,0,0,0,0
RO,Romania,country,Europe and Central Asia,45.943161,24.96676,ME,Montenegro,country,Europe and Central Asia,42.708678,19.37439,572.451393357355,2006,568,4,0,500,0,0,0,0,0,0,0,0,5,2,0,0,0,0,57,0,0,0,0,0
RU,Russian Federation,country,Europe and Central Asia,61.52401,105.318756,ME,Montenegro,country,Europe and Central Asia,42.708678,19.37439,5745.36705658054,2006,10563,10538,0,0,0,0,0,0,0,0,0,0,0,5,17,3,0,0,0,0,0,0,0,0
SN,Senegal,country,Sub-Saharan Africa,14.497401,-14.452362,ME,Montenegro,country,Europe and Central Asia,42.708678,19.37439,4504.71131475837,2006,0,0,0,0,0,0,0,0,0,0,0,0,0,0,0,0,0,0,0,0,0,0,0,0
RS,Serbia,country,Europe and Central Asia,44.016521,21.005859,ME,Montenegro,country,Europe and Central Asia,42.708678,19.37439,196.536570232739,2006,261536,95345,1214,486,2,0,309,1845,4662,27,137,39142,1858,4584,10836,72235,163,3949,24862,43,0,0,0,0
SG,Singapore,country,East Asia and Pacific,1.352083,103.819836,ME,Montenegro,country,Europe and Central Asia,42.708678,19.37439,9462.4512109679,2006,15,0,0,2,0,0,0,0,9,0,0,0,1,0,3,0,0,0,0,0,0,0,0,0
SK,Slovak Rep.,country,Europe and Central Asia,48.669026,19.699024,ME,Montenegro,country,Europe and Central Asia,42.708678,19.37439,663.981173489342,2006,6,0,0,0,0,0,0,0,0,0,0,0,0,6,0,0,0,0,0,0,0,0,0,0
SI,Slovenia,country,Europe and Central Asia,46.151241,14.995463,ME,Montenegro,country,Europe and Central Asia,42.708678,19.37439,517.55476115252,2006,1722,5,0,67,0,1,0,3,145,0,0,24,10,79,0,302,0,835,251,0,0,0,0,0
ZA,S. Africa,country,Sub-Saharan Africa,-30.559482,22.937506,ME,Montenegro,country,Europe and Central Asia,42.708678,19.37439,8164.31893098948,2006,61,0,0,0,0,0,0,0,60,0,0,0,0,1,0,0,0,0,0,0,0,0,0,0
ES,Spain,country,Europe and Central Asia,40.463667,-3.74922,ME,Montenegro,country,Europe and Central Asia,42.708678,19.37439,1935.31029498663,2006,1163,13,0,485,0,1,33,61,473,0,0,0,2,1,10,13,0,0,71,0,0,0,0,0
SD,Sudan,country,Sub-Saharan Africa,12.862807,30.217636,ME,Montenegro,country,Europe and Central Asia,42.708678,19.37439,3482.8508150698,2006,1,0,0,0,0,0,0,0,0,0,0,0,0,1,0,0,0,0,0,0,0,0,0,0
SR,Suriname,country,Latin America and the Caribbean,3.919305,-56.027783,ME,Montenegro,country,Europe and Central Asia,42.708678,19.37439,8531.16162371386,2006,1,1,0,0,0,0,0,0,0,0,0,0,0,0,0,0,0,0,0,0,0,0,0,0
SE,Sweden,country,Europe and Central Asia,60.128161,18.643501,ME,Montenegro,country,Europe and Central Asia,42.708678,19.37439,1939.76229180789,2006,0,0,0,0,0,0,0,0,0,0,0,0,0,0,0,0,0,0,0,0,0,0,0,0
CH,Switzerland,country,Europe and Central Asia,46.818188,8.227512,ME,Montenegro,country,Europe and Central Asia,42.708678,19.37439,991.452033301119,2006,232,86,0,2,0,0,0,1,1,0,0,0,72,70,0,0,0,0,0,0,0,0,0,0
TH,Thailand,country,East Asia and Pacific,15.870032,100.992541,ME,Montenegro,country,Europe and Central Asia,42.708678,19.37439,8152.07661481828,2006,111,1,0,0,0,7,3,11,88,0,0,0,0,1,0,0,0,0,0,0,0,0,0,0
MK,Macedonia,country,Europe and Central Asia,41.608635,21.745275,ME,Montenegro,country,Europe and Central Asia,42.708678,19.37439,230.794420306862,2006,16824,235,129,97,0,0,3,4384,6338,0,6,0,90,602,0,4920,0,0,20,0,0,0,0,0
TN,Tunisia,country,Middle East and North Africa,33.886917,9.537499,ME,Montenegro,country,Europe and Central Asia,42.708678,19.37439,1303.0892752474,2006,0,0,0,0,0,0,0,0,0,0,0,0,0,0,0,0,0,0,0,0,0,0,0,0
TR,Turkey,country,Europe and Central Asia,38.963745,35.243322,ME,Montenegro,country,Europe and Central Asia,42.708678,19.37439,1397.53819989542,2006,3869,625,2,221,0,11,22,424,2404,0,0,0,142,17,1,0,0,0,0,0,0,0,0,0
TC,Turks and Caicos Islands,country,Latin America and the Caribbean,21.694025,-71.797928,ME,Montenegro,country,Europe and Central Asia,42.708678,19.37439,8494.23085434582,2006,56,0,0,0,0,0,0,27,29,0,0,0,0,0,0,0,0,0,0,0,0,0,0,0
UG,Uganda,country,Sub-Saharan Africa,1.373333,32.290275,ME,Montenegro,country,Europe and Central Asia,42.708678,19.37439,4778.15413295694,2006,1,0,0,0,0,0,0,0,0,0,0,0,1,0,0,0,0,0,0,0,0,0,0,0
UA,Ukraine,country,Europe and Central Asia,48.379433,31.16558,ME,Montenegro,country,Europe and Central Asia,42.708678,19.37439,1113.20293370328,2006,78,0,0,0,0,6,0,0,0,0,0,0,64,0,0,7,0,1,0,0,0,0,0,0
AE,United Arab Emirates,country,Middle East and North Africa,23.424076,53.847818,ME,Montenegro,country,Europe and Central Asia,42.708678,19.37439,3825.21566573364,2006,0,0,0,0,0,0,0,0,0,0,0,0,0,0,0,0,0,0,0,0,0,0,0,0
GB,United Kingdom,country,Europe and Central Asia,55.378051,-3.435973,ME,Montenegro,country,Europe and Central Asia,42.708678,19.37439,2163.84459639247,2006,263,18,0,1,0,0,0,0,10,0,0,0,1,1,0,232,0,0,0,0,0,0,0,0
US,USA,country,North America,37.09024,-95.712891,ME,Montenegro,country,Europe and Central Asia,42.708678,19.37439,8990.48834036401,2006,43,7,0,0,0,5,0,0,7,3,0,0,0,9,0,12,0,0,0,0,0,0,0,0
UY,Uruguay,country,Latin America and the Caribbean,-32.522779,-55.765835,ME,Montenegro,country,Europe and Central Asia,42.708678,19.37439,11340.6192643854,2006,102,0,0,0,0,0,0,0,102,0,0,0,0,0,0,0,0,0,0,0,0,0,0,0
VE,Venezuela,country,Latin America and the Caribbean,6.42375,-66.58973,ME,Montenegro,country,Europe and Central Asia,42.708678,19.37439,9204.75131986585,2006,0,0,0,0,0,0,0,0,0,0,0,0,0,0,0,0,0,0,0,0,0,0,0,0
VN,Vietnam,country,East Asia and Pacific,14.058324,108.277199,ME,Montenegro,country,Europe and Central Asia,42.708678,19.37439,8874.72202403101,2006,738,82,0,0,0,0,0,0,0,0,6,0,647,3,0,0,0,0,0,0,0,0,0,0
ZM,Zambia,country,Sub-Saharan Africa,-13.133897,27.849332,ME,Montenegro,country,Europe and Central Asia,42.708678,19.37439,6276.40406957629,2006,37,0,0,0,0,0,0,0,0,0,0,25,0,0,0,12,0,0,0,0,0,0,0,0
ZW,Zimbabwe,country,Sub-Saharan Africa,-19.015438,29.154857,ME,Montenegro,country,Europe and Central Asia,42.708678,19.37439,6944.0007144937,2006,0,0,0,0,0,0,0,0,0,0,0,0,0,0,0,0,0,0,0,0,0,0,0,0
AL,Albania,country,Europe and Central Asia,41.153332,20.168331,ME,Montenegro,country,Europe and Central Asia,42.708678,19.37439,185.202170776218,2007,313,0,0,19,0,0,0,247,13,0,0,0,34,0,0,0,0,0,0,0,0,0,0,0
AG,Antigua & Barbuda,country,Latin America and the Caribbean,17.060816,-61.796428,ME,Montenegro,country,Europe and Central Asia,42.708678,19.37439,8029.74508392634,2007,0,0,0,0,0,0,0,0,0,0,0,0,0,0,0,0,0,0,0,0,0,0,0,0
AR,Argentina,country,Latin America and the Caribbean,-38.416097,-63.616672,ME,Montenegro,country,Europe and Central Asia,42.708678,19.37439,12307.576110154,2007,1719,70,0,0,0,0,0,75,1574,0,0,0,0,0,0,0,0,0,0,0,0,0,0,0
AU,Australia,country,East Asia and Pacific,-25.274398,133.775136,ME,Montenegro,country,Europe and Central Asia,42.708678,19.37439,13841.3997368716,2007,0,0,0,0,0,0,0,0,0,0,0,0,0,0,0,0,0,0,0,0,0,0,0,0
AT,Austria,country,Europe and Central Asia,47.516231,14.550072,ME,Montenegro,country,Europe and Central Asia,42.708678,19.37439,655.492179257799,2007,13062,184,0,11,0,0,0,543,330,0,0,27,281,45,139,2380,0,9099,23,0,0,0,0,0
BS,The Bahamas,country,Latin America and the Caribbean,25.03428,-77.39628,ME,Montenegro,country,Europe and Central Asia,42.708678,19.37439,8678.92154826168,2007,2,0,0,0,0,0,0,0,0,0,0,0,0,0,0,2,0,0,0,0,0,0,0,0
BE,Belgium,country,Europe and Central Asia,50.503887,4.469936,ME,Montenegro,country,Europe and Central Asia,42.708678,19.37439,1428.16674095218,2007,215,10,47,16,0,0,0,25,0,0,0,0,4,1,0,5,0,106,1,0,0,0,0,0
BM,Bermuda,country,North America,32.321384,-64.75737,ME,Montenegro,country,Europe and Central Asia,42.708678,19.37439,7210.97787054796,2007,0,0,0,0,0,0,0,0,0,0,0,0,0,0,0,0,0,0,0,0,0,0,0,0
BO,Bolivia,country,Latin America and the Caribbean,-16.290154,-63.588653,ME,Montenegro,country,Europe and Central Asia,42.708678,19.37439,10682.3123670211,2007,24,0,0,0,0,3,1,8,12,0,0,0,0,0,0,0,0,0,0,0,0,0,0,0
BA,Bosnia & Herzegovina,country,Europe and Central Asia,43.915886,17.679076,ME,Montenegro,country,Europe and Central Asia,42.708678,19.37439,192.126869784016,2007,5815,2087,123,38,0,1,0,935,205,0,3,142,257,673,132,307,108,459,453,0,0,0,0,0
BR,Brazil,country,Latin America and the Caribbean,-14.235004,-51.92528,ME,Montenegro,country,Europe and Central Asia,42.708678,19.37439,9625.77929856153,2007,29923,18,0,22645,23,0,0,17,27,0,1,25,7113,3,0,0,0,51,0,0,0,0,0,0
BG,Bulgaria,country,Europe and Central Asia,42.733883,25.48583,ME,Montenegro,country,Europe and Central Asia,42.708678,19.37439,499.706207629589,2007,719,550,0,0,23,0,0,2,32,0,0,0,94,4,0,0,0,0,14,0,0,0,0,0
CA,Canada,country,North America,56.130366,-106.346771,ME,Montenegro,country,Europe and Central Asia,42.708678,19.37439,7913.70418630763,2007,692,0,197,0,203,0,0,292,0,0,0,0,0,0,0,0,0,0,0,0,0,0,0,0
CL,Chile,country,Latin America and the Caribbean,-35.675147,-71.542969,ME,Montenegro,country,Europe and Central Asia,42.708678,19.37439,12679.1174657337,2007,85,0,0,0,0,0,0,0,84,0,0,0,0,0,0,1,0,0,0,0,0,0,0,0
CN,China,country,East Asia and Pacific,35.86166,104.195397,ME,Montenegro,country,Europe and Central Asia,42.708678,19.37439,7033.74958738116,2007,625,8,0,9,0,13,5,513,70,0,2,0,1,4,0,0,0,0,0,0,0,0,0,0
TW,Taiwan,country,East Asia and Pacific,23.69781,120.960515,ME,Montenegro,country,Europe and Central Asia,42.708678,19.37439,9139.16693670779,2007,1,0,0,0,0,0,0,0,1,0,0,0,0,0,0,0,0,0,0,0,0,0,0,0
CO,Colombia,country,Latin America and the Caribbean,4.570868,-74.297333,ME,Montenegro,country,Europe and Central Asia,42.708678,19.37439,9973.18010127026,2007,88,0,0,74,0,0,0,0,0,0,0,0,14,0,0,0,0,0,0,0,0,0,0,0
KM,Comoros,country,Sub-Saharan Africa,-11.875001,43.872219,ME,Montenegro,country,Europe and Central Asia,42.708678,19.37439,6569.77720481901,2007,0,0,0,0,0,0,0,0,0,0,0,0,0,0,0,0,0,0,0,0,0,0,0,0
CR,Costa Rica,country,Latin America and the Caribbean,9.748917,-83.753428,ME,Montenegro,country,Europe and Central Asia,42.708678,19.37439,10335.4391689182,2007,94,0,0,0,0,0,0,9,85,0,0,0,0,0,0,0,0,0,0,0,0,0,0,0
CI,Ivory Coast,country,Sub-Saharan Africa,7.539989,-5.54708,ME,Montenegro,country,Europe and Central Asia,42.708678,19.37439,4613.26239583515,2007,2,0,0,0,0,0,0,0,2,0,0,0,0,0,0,0,0,0,0,0,0,0,0,0
HR,Croatia,country,Europe and Central Asia,45.1,15.2,ME,Montenegro,country,Europe and Central Asia,42.708678,19.37439,427.638498857229,2007,9714,2602,0,102,0,6,35,198,202,0,4,5,345,1774,678,2078,12,132,1553,0,0,0,0,0
CU,Cuba,country,Latin America and the Caribbean,21.521757,-77.781167,ME,Montenegro,country,Europe and Central Asia,42.708678,19.37439,8970.07751342723,2007,0,0,0,0,0,0,0,0,0,0,0,0,0,0,0,0,0,0,0,0,0,0,0,0
CY,Cyprus,country,Europe and Central Asia,35.126413,33.429859,ME,Montenegro,country,Europe and Central Asia,42.708678,19.37439,1478.20414776711,2007,35,0,0,0,0,0,0,0,28,0,0,0,0,3,0,4,0,0,0,0,0,0,0,0
CZ,Czech Republic,country,Europe and Central Asia,49.817492,15.472962,ME,Montenegro,country,Europe and Central Asia,42.708678,19.37439,846.09364091471,2007,1419,1200,0,5,0,0,1,0,0,0,0,0,136,0,0,77,0,0,0,0,0,0,0,0
DK,Denmark,country,Europe and Central Asia,56.26392,9.501785,ME,Montenegro,country,Europe and Central Asia,42.708678,19.37439,1665.46659390427,2007,126,0,0,1,0,0,0,0,0,0,0,24,26,1,0,0,0,1,73,0,0,0,0,0
DM,Dominica,country,Latin America and the Caribbean,15.414999,-61.370976,ME,Montenegro,country,Europe and Central Asia,42.708678,19.37439,8114.03742629544,2007,1,0,0,0,0,0,0,0,0,0,0,0,0,1,0,0,0,0,0,0,0,0,0,0
EC,Ecuador,country,Latin America and the Caribbean,-1.831239,-78.183406,ME,Montenegro,country,Europe and Central Asia,42.708678,19.37439,10774.8809889145,2007,8429,0,0,0,0,0,0,0,8429,0,0,0,0,0,0,0,0,0,0,0,0,0,0,0
EG,Egypt,country,Middle East and North Africa,26.820553,30.802498,ME,Montenegro,country,Europe and Central Asia,42.708678,19.37439,2049.87546190994,2007,847,263,0,0,31,0,0,245,305,0,0,0,2,1,0,0,0,0,0,0,0,0,0,0
EE,Estonia,country,Europe and Central Asia,58.595272,25.013607,ME,Montenegro,country,Europe and Central Asia,42.708678,19.37439,1811.16368839649,2007,0,0,0,0,0,0,0,0,0,0,0,0,0,0,0,0,0,0,0,0,0,0,0,0
ET,Ethiopia,country,Sub-Saharan Africa,9.145,40.489673,ME,Montenegro,country,Europe and Central Asia,42.708678,19.37439,4265.74337167242,2007,1,0,0,0,0,0,0,0,0,0,0,0,1,0,0,0,0,0,0,0,0,0,0,0
FK,Falkland Islands,country,,-51.796253,-59.523613,ME,Montenegro,country,Europe and Central Asia,42.708678,19.37439,12963.670216712,2007,1,0,0,0,0,0,0,0,1,0,0,0,0,0,0,0,0,0,0,0,0,0,0,0
FI,Finland,country,Europe and Central Asia,61.92411,25.748151,ME,Montenegro,country,Europe and Central Asia,42.708678,19.37439,2180.09935668298,2007,8,0,0,0,0,0,0,0,0,0,0,0,0,0,0,8,0,0,0,0,0,0,0,0
FR,France,country,Europe and Central Asia,46.227638,2.213749,ME,Montenegro,country,Europe and Central Asia,42.708678,19.37439,1415.22518036063,2007,1663,10,7,1377,0,0,0,2,6,0,0,18,6,108,0,129,0,0,0,0,0,0,0,0
GE,Georgia,country,Europe and Central Asia,42.315407,43.356892,ME,Montenegro,country,Europe and Central Asia,42.708678,19.37439,1961.80346452298,2007,24,23,0,0,0,0,0,0,0,0,0,0,0,1,0,0,0,0,0,0,0,0,0,0
DE,Germany,country,Europe and Central Asia,51.165691,10.451526,ME,Montenegro,country,Europe and Central Asia,42.708678,19.37439,1158.47543550597,2007,3616,1125,18,23,0,1,3,6,106,1,6,112,272,128,2,276,0,262,1275,0,0,0,0,0
GH,Ghana,country,Sub-Saharan Africa,7.946527,-1.023194,ME,Montenegro,country,Europe and Central Asia,42.708678,19.37439,4354.13991516237,2007,18,0,0,0,0,0,0,0,12,0,0,0,6,0,0,0,0,0,0,0,0,0,0,0
GR,Greece,country,Europe and Central Asia,39.074208,21.824312,ME,Montenegro,country,Europe and Central Asia,42.708678,19.37439,454.033347854666,2007,1251,1,0,1,0,0,32,217,656,0,0,0,1,289,46,0,0,0,8,0,0,0,0,0
GT,Guatemala,country,Latin America and the Caribbean,15.783471,-90.230759,ME,Montenegro,country,Europe and Central Asia,42.708678,19.37439,10355.4751500154,2007,50,0,0,50,0,0,0,0,0,0,0,0,0,0,0,0,0,0,0,0,0,0,0,0
GW,Guinea-Bissau,country,Sub-Saharan Africa,11.803749,-15.180413,ME,Montenegro,country,Europe and Central Asia,42.708678,19.37439,4788.83546116723,2007,1,0,0,0,0,0,0,0,0,0,0,0,1,0,0,0,0,0,0,0,0,0,0,0
HN,Honduras,country,Latin America and the Caribbean,15.199999,-86.241905,ME,Montenegro,country,Europe and Central Asia,42.708678,19.37439,10102.0006745106,2007,2,0,0,0,0,0,0,0,2,0,0,0,0,0,0,0,0,0,0,0,0,0,0,0
HU,Hungary,country,Europe and Central Asia,47.162494,19.503304,ME,Montenegro,country,Europe and Central Asia,42.708678,19.37439,495.900386240049,2007,1783,59,0,11,0,14,0,40,391,0,0,235,77,20,24,470,0,290,152,0,0,0,0,0
IN,India,country,South Asia,20.593684,78.96288,ME,Montenegro,country,Europe and Central Asia,42.708678,19.37439,6019.24028672277,2007,2678,1,0,1880,0,1,6,20,2,0,6,0,758,4,0,0,0,0,0,0,0,0,0,0
ID,Indonesia,country,East Asia and Pacific,-0.789275,113.921327,ME,Montenegro,country,Europe and Central Asia,42.708678,19.37439,10450.1840856712,2007,61,2,0,1,0,1,1,2,50,0,4,0,0,0,0,0,0,0,0,0,0,0,0,0
IR,Iran,country,Middle East and North Africa,32.427908,53.688046,ME,Montenegro,country,Europe and Central Asia,42.708678,19.37439,3210.02536661666,2007,114,0,0,1,2,20,4,1,86,0,0,0,0,0,0,0,0,0,0,0,0,0,0,0
IQ,Iraq,country,Middle East and North Africa,33.223191,43.679291,ME,Montenegro,country,Europe and Central Asia,42.708678,19.37439,2368.40011302939,2007,1,0,0,0,0,1,0,0,0,0,0,0,0,0,0,0,0,0,0,0,0,0,0,0
IE,Ireland,country,Europe and Central Asia,53.41291,-8.24389,ME,Montenegro,country,Europe and Central Asia,42.708678,19.37439,2353.43972829179,2007,39,10,0,0,0,0,0,0,9,0,0,0,0,0,0,20,0,0,0,0,0,0,0,0
IL,Israel,country,Middle East and North Africa,31.046051,34.851612,ME,Montenegro,country,Europe and Central Asia,42.708678,19.37439,1887.61680625052,2007,57,0,0,0,0,0,0,0,56,0,0,0,0,1,0,0,0,0,0,0,0,0,0,0
IT,Italy,country,Europe and Central Asia,41.87194,12.56738,ME,Montenegro,country,Europe and Central Asia,42.708678,19.37439,568.065635482276,2007,10938,3013,6,14,0,76,13,1245,3184,2,0,1089,311,1173,114,379,80,276,43,0,0,0,0,0
JM,Jamaica,country,Latin America and the Caribbean,18.109581,-77.297508,ME,Montenegro,country,Europe and Central Asia,42.708678,19.37439,9189.25905347118,2007,21,0,0,0,0,0,0,0,0,0,0,0,0,0,21,0,0,0,0,0,0,0,0,0
JP,Japan,country,East Asia and Pacific,36.204824,138.252924,ME,Montenegro,country,Europe and Central Asia,42.708678,19.37439,9288.26566157936,2007,0,0,0,0,0,0,0,0,0,0,0,0,0,0,0,0,0,0,0,0,0,0,0,0
JO,Jordan,country,Middle East and North Africa,30.585164,36.238414,ME,Montenegro,country,Europe and Central Asia,42.708678,19.37439,2015.33712110652,2007,26,1,0,0,0,0,0,0,0,0,0,25,0,0,0,0,0,0,0,0,0,0,0,0
KG,Kyrgyz Rep.,country,Europe and Central Asia,41.20438,74.766098,ME,Montenegro,country,Europe and Central Asia,42.708678,19.37439,4504.51732302493,2007,273,0,0,0,208,0,0,65,0,0,0,0,0,0,0,0,0,0,0,0,0,0,0,0
LT,Lithuania,country,Europe and Central Asia,55.169438,23.881275,ME,Montenegro,country,Europe and Central Asia,42.708678,19.37439,1424.97770223717,2007,0,0,0,0,0,0,0,0,0,0,0,0,0,0,0,0,0,0,0,0,0,0,0,0
MG,Madagascar,country,Sub-Saharan Africa,-18.766947,46.869107,ME,Montenegro,country,Europe and Central Asia,42.708678,19.37439,7401.34519307868,2007,0,0,0,0,0,0,0,0,0,0,0,0,0,0,0,0,0,0,0,0,0,0,0,0
MY,Malaysia,country,East Asia and Pacific,4.210484,101.975766,ME,Montenegro,country,Europe and Central Asia,42.708678,19.37439,9096.02338182583,2007,65,0,0,0,0,0,0,0,7,0,0,0,0,6,52,0,0,0,0,0,0,0,0,0
MT,Malta,country,Middle East and North Africa,35.937496,14.375416,ME,Montenegro,country,Europe and Central Asia,42.708678,19.37439,867.630331038579,2007,0,0,0,0,0,0,0,0,0,0,0,0,0,0,0,0,0,0,0,0,0,0,0,0
MU,Mauritius,country,Sub-Saharan Africa,-20.348404,57.552152,ME,Montenegro,country,Europe and Central Asia,42.708678,19.37439,8037.01692640245,2007,45,0,0,45,0,0,0,0,0,0,0,0,0,0,0,0,0,0,0,0,0,0,0,0
MX,Mexico,country,Latin America and the Caribbean,23.634501,-102.552784,ME,Montenegro,country,Europe and Central Asia,42.708678,19.37439,10555.6885286596,2007,3,0,0,0,0,0,0,0,2,0,0,0,0,0,0,1,0,0,0,0,0,0,0,0
MA,Morocco,country,Middle East and North Africa,31.791702,-7.09262,ME,Montenegro,country,Europe and Central Asia,42.708678,19.37439,2625.86968478445,2007,65,0,0,0,0,0,26,32,3,0,0,0,4,0,0,0,0,0,0,0,0,0,0,0
NL,Netherlands,country,Europe and Central Asia,52.132633,5.291266,ME,Montenegro,country,Europe and Central Asia,42.708678,19.37439,1486.96989733313,2007,6992,24,898,3,0,0,2,226,13,0,0,219,57,374,4,2364,0,2778,30,0,0,0,0,0
NI,Nicaragua,country,Latin America and the Caribbean,12.865416,-85.207229,ME,Montenegro,country,Europe and Central Asia,42.708678,19.37439,10205.8280690472,2007,0,0,0,0,0,0,0,0,0,0,0,0,0,0,0,0,0,0,0,0,0,0,0,0
NG,Nigeria,country,Sub-Saharan Africa,9.081999,8.675277,ME,Montenegro,country,Europe and Central Asia,42.708678,19.37439,3886.19241016594,2007,0,0,0,0,0,0,0,0,0,0,0,0,0,0,0,0,0,0,0,0,0,0,0,0
PK,Pakistan,country,South Asia,30.375321,69.345116,ME,Montenegro,country,Europe and Central Asia,42.708678,19.37439,4602.78657662835,2007,7,6,0,0,0,0,0,0,1,0,0,0,0,0,0,0,0,0,0,0,0,0,0,0
PA,Panama,country,Latin America and the Caribbean,8.537981,-80.782127,ME,Montenegro,country,Europe and Central Asia,42.708678,19.37439,10193.7896250138,2007,181,0,0,0,0,0,0,3,3,0,1,0,174,0,0,0,0,0,0,0,0,0,0,0
PY,Paraguay,country,Latin America and the Caribbean,-23.442503,-58.443832,ME,Montenegro,country,Europe and Central Asia,42.708678,19.37439,10834.6901176917,2007,0,0,0,0,0,0,0,0,0,0,0,0,0,0,0,0,0,0,0,0,0,0,0,0
PE,Peru,country,Latin America and the Caribbean,-9.189967,-75.015152,ME,Montenegro,country,Europe and Central Asia,42.708678,19.37439,11068.5063651247,2007,2,0,0,0,0,0,0,1,1,0,0,0,0,0,0,0,0,0,0,0,0,0,0,0
PH,Philippines,country,East Asia and Pacific,12.879721,121.774017,ME,Montenegro,country,Europe and Central Asia,42.708678,19.37439,10035.4998632763,2007,37,0,0,0,0,0,0,0,0,0,0,0,0,37,0,0,0,0,0,0,0,0,0,0
PL,Poland,country,Europe and Central Asia,51.919438,19.145136,ME,Montenegro,country,Europe and Central Asia,42.708678,19.37439,1025.48166347911,2007,1089,210,440,39,0,0,0,2,0,0,0,1,183,190,0,0,0,0,24,0,0,0,0,0
PT,Portugal,country,Europe and Central Asia,39.399872,-8.224454,ME,Montenegro,country,Europe and Central Asia,42.708678,19.37439,2335.17107622906,2007,16,0,0,0,0,0,0,0,0,0,0,0,0,16,0,0,0,0,0,0,0,0,0,0
KR,"Korea, Rep.",country,East Asia and Pacific,35.907757,127.766922,ME,Montenegro,country,Europe and Central Asia,42.708678,19.37439,8669.28351033558,2007,0,0,0,0,0,0,0,0,0,0,0,0,0,0,0,0,0,0,0,0,0,0,0,0
RO,Romania,country,Europe and Central Asia,45.943161,24.96676,ME,Montenegro,country,Europe and Central Asia,42.708678,19.37439,572.451393357355,2007,68,9,0,0,0,0,0,0,0,0,0,0,14,0,0,7,0,0,38,0,0,0,0,0
RU,Russian Federation,country,Europe and Central Asia,61.52401,105.318756,ME,Montenegro,country,Europe and Central Asia,42.708678,19.37439,5745.36705658054,2007,3536,3500,0,0,0,0,0,0,0,0,0,10,0,0,24,2,0,0,0,0,0,0,0,0
RS,Serbia,country,Europe and Central Asia,44.016521,21.005859,ME,Montenegro,country,Europe and Central Asia,42.708678,19.37439,196.536570232739,2007,321262,93703,5824,740,6,15,418,5824,12214,30,94,48378,2488,5165,9755,99394,348,7787,29427,0,0,0,0,0
SL,Sierra Leone,country,Sub-Saharan Africa,8.460555,-11.779889,ME,Montenegro,country,Europe and Central Asia,42.708678,19.37439,4875.56558363467,2007,0,0,0,0,0,0,0,0,0,0,0,0,0,0,0,0,0,0,0,0,0,0,0,0
SG,Singapore,country,East Asia and Pacific,1.352083,103.819836,ME,Montenegro,country,Europe and Central Asia,42.708678,19.37439,9462.4512109679,2007,27,0,0,0,0,0,0,0,10,0,0,0,7,0,4,6,0,0,0,0,0,0,0,0
SK,Slovak Rep.,country,Europe and Central Asia,48.669026,19.699024,ME,Montenegro,country,Europe and Central Asia,42.708678,19.37439,663.981173489342,2007,25,0,0,0,0,0,0,0,0,0,0,0,4,21,0,0,0,0,0,0,0,0,0,0
SI,Slovenia,country,Europe and Central Asia,46.151241,14.995463,ME,Montenegro,country,Europe and Central Asia,42.708678,19.37439,517.55476115252,2007,2689,22,0,93,0,0,0,0,644,1,0,0,9,122,14,604,0,881,299,0,0,0,0,0
ZA,S. Africa,country,Sub-Saharan Africa,-30.559482,22.937506,ME,Montenegro,country,Europe and Central Asia,42.708678,19.37439,8164.31893098948,2007,178,0,0,0,0,0,0,1,177,0,0,0,0,0,0,0,0,0,0,0,0,0,0,0
ES,Spain,country,Europe and Central Asia,40.463667,-3.74922,ME,Montenegro,country,Europe and Central Asia,42.708678,19.37439,1935.31029498663,2007,1379,15,0,9,0,1,46,241,941,0,0,0,0,25,17,20,0,20,44,0,0,0,0,0
LK,Sri Lanka,country,South Asia,7.873054,80.771797,ME,Montenegro,country,Europe and Central Asia,42.708678,19.37439,7103.14581667313,2007,0,0,0,0,0,0,0,0,0,0,0,0,0,0,0,0,0,0,0,0,0,0,0,0
SD,Sudan,country,Sub-Saharan Africa,12.862807,30.217636,ME,Montenegro,country,Europe and Central Asia,42.708678,19.37439,3482.8508150698,2007,1,0,0,0,0,0,1,0,0,0,0,0,0,0,0,0,0,0,0,0,0,0,0,0
SE,Sweden,country,Europe and Central Asia,60.128161,18.643501,ME,Montenegro,country,Europe and Central Asia,42.708678,19.37439,1939.76229180789,2007,2,0,0,0,0,0,0,0,0,0,0,0,2,0,0,0,0,0,0,0,0,0,0,0
CH,Switzerland,country,Europe and Central Asia,46.818188,8.227512,ME,Montenegro,country,Europe and Central Asia,42.708678,19.37439,991.452033301119,2007,103,0,0,0,0,0,0,2,1,0,0,0,21,65,2,12,0,0,0,0,0,0,0,0
SY,Syrian Arab Rep.,country,Middle East and North Africa,34.802075,38.996815,ME,Montenegro,country,Europe and Central Asia,42.708678,19.37439,1910.91902646144,2007,1,0,0,0,0,0,0,0,1,0,0,0,0,0,0,0,0,0,0,0,0,0,0,0
TH,Thailand,country,East Asia and Pacific,15.870032,100.992541,ME,Montenegro,country,Europe and Central Asia,42.708678,19.37439,8152.07661481828,2007,3973,0,0,3875,0,8,0,5,76,0,0,0,0,9,0,0,0,0,0,0,0,0,0,0
MK,Macedonia,country,Europe and Central Asia,41.608635,21.745275,ME,Montenegro,country,Europe and Central Asia,42.708678,19.37439,230.794420306862,2007,19923,240,53,96,8,12,6,4914,7821,0,6,0,159,909,1,5573,0,9,116,0,0,0,0,0
TT,Trinidad and Tobago,country,Latin America and the Caribbean,10.691803,-61.222503,ME,Montenegro,country,Europe and Central Asia,42.708678,19.37439,8447.89404279959,2007,1,0,0,0,0,0,0,0,0,0,0,0,0,0,0,1,0,0,0,0,0,0,0,0
TN,Tunisia,country,Middle East and North Africa,33.886917,9.537499,ME,Montenegro,country,Europe and Central Asia,42.708678,19.37439,1303.0892752474,2007,27,0,0,0,0,0,0,0,25,0,0,0,0,1,0,1,0,0,0,0,0,0,0,0
TR,Turkey,country,Europe and Central Asia,38.963745,35.243322,ME,Montenegro,country,Europe and Central Asia,42.708678,19.37439,1397.53819989542,2007,3343,384,0,282,68,22,2,340,2069,0,1,0,119,53,2,1,0,0,0,0,0,0,0,0
UA,Ukraine,country,Europe and Central Asia,48.379433,31.16558,ME,Montenegro,country,Europe and Central Asia,42.708678,19.37439,1113.20293370328,2007,13,0,0,0,0,10,1,0,0,0,0,0,0,0,0,2,0,0,0,0,0,0,0,0
GB,United Kingdom,country,Europe and Central Asia,55.378051,-3.435973,ME,Montenegro,country,Europe and Central Asia,42.708678,19.37439,2163.84459639247,2007,357,7,0,1,0,0,0,0,8,0,0,0,6,5,0,330,0,0,0,0,0,0,0,0
US,USA,country,North America,37.09024,-95.712891,ME,Montenegro,country,Europe and Central Asia,42.708678,19.37439,8990.48834036401,2007,94,1,0,0,0,17,6,4,6,0,0,0,19,9,0,32,0,0,0,0,0,0,0,0
UY,Uruguay,country,Latin America and the Caribbean,-32.522779,-55.765835,ME,Montenegro,country,Europe and Central Asia,42.708678,19.37439,11340.6192643854,2007,83,0,0,0,0,0,0,0,83,0,0,0,0,0,0,0,0,0,0,0,0,0,0,0
UZ,Uzbekistan,country,Europe and Central Asia,41.377491,64.585262,ME,Montenegro,country,Europe and Central Asia,42.708678,19.37439,3695.43020141993,2007,23,0,0,0,23,0,0,0,0,0,0,0,0,0,0,0,0,0,0,0,0,0,0,0
VE,Venezuela,country,Latin America and the Caribbean,6.42375,-66.58973,ME,Montenegro,country,Europe and Central Asia,42.708678,19.37439,9204.75131986585,2007,0,0,0,0,0,0,0,0,0,0,0,0,0,0,0,0,0,0,0,0,0,0,0,0
VN,Vietnam,country,East Asia and Pacific,14.058324,108.277199,ME,Montenegro,country,Europe and Central Asia,42.708678,19.37439,8874.72202403101,2007,454,143,0,0,0,5,0,0,1,0,7,0,294,4,0,0,0,0,0,0,0,0,0,0
ZM,Zambia,country,Sub-Saharan Africa,-13.133897,27.849332,ME,Montenegro,country,Europe and Central Asia,42.708678,19.37439,6276.40406957629,2007,1,0,0,0,0,0,0,0,1,0,0,0,0,0,0,0,0,0,0,0,0,0,0,0
ZW,Zimbabwe,country,Sub-Saharan Africa,-19.015438,29.154857,ME,Montenegro,country,Europe and Central Asia,42.708678,19.37439,6944.0007144937,2007,81,0,0,0,0,0,0,0,81,0,0,0,0,0,0,0,0,0,0,0,0,0,0,0
AL,Albania,country,Europe and Central Asia,41.153332,20.168331,ME,Montenegro,country,Europe and Central Asia,42.708678,19.37439,185.202170776218,2008,945,0,42,21,0,4,1,772,25,0,0,0,33,44,0,3,0,0,0,0,0,0,0,0
AR,Argentina,country,Latin America and the Caribbean,-38.416097,-63.616672,ME,Montenegro,country,Europe and Central Asia,42.708678,19.37439,12307.576110154,2008,1736,109,0,3,23,0,0,23,1578,0,0,0,0,0,0,0,0,0,0,0,0,0,0,0
AU,Australia,country,East Asia and Pacific,-25.274398,133.775136,ME,Montenegro,country,Europe and Central Asia,42.708678,19.37439,13841.3997368716,2008,0,0,0,0,0,0,0,0,0,0,0,0,0,0,0,0,0,0,0,0,0,0,0,0
AT,Austria,country,Europe and Central Asia,47.516231,14.550072,ME,Montenegro,country,Europe and Central Asia,42.708678,19.37439,655.492179257799,2008,15001,149,0,7,0,0,0,390,510,0,1,19,64,78,253,2375,0,11155,0,0,0,0,0,0
AZ,Azerbaijan,country,Europe and Central Asia,40.143105,47.576927,ME,Montenegro,country,Europe and Central Asia,42.708678,19.37439,2360.18110031447,2008,0,0,0,0,0,0,0,0,0,0,0,0,0,0,0,0,0,0,0,0,0,0,0,0
BS,The Bahamas,country,Latin America and the Caribbean,25.03428,-77.39628,ME,Montenegro,country,Europe and Central Asia,42.708678,19.37439,8678.92154826168,2008,1,0,0,0,0,0,0,0,0,0,0,0,0,0,0,1,0,0,0,0,0,0,0,0
BB,Barbados,country,Latin America and the Caribbean,13.193887,-59.543198,ME,Montenegro,country,Europe and Central Asia,42.708678,19.37439,8126.59463216734,2008,0,0,0,0,0,0,0,0,0,0,0,0,0,0,0,0,0,0,0,0,0,0,0,0
BE,Belgium,country,Europe and Central Asia,50.503887,4.469936,ME,Montenegro,country,Europe and Central Asia,42.708678,19.37439,1428.16674095218,2008,512,8,48,15,0,0,12,24,0,0,0,72,10,22,0,2,0,299,0,0,0,0,0,0
BM,Bermuda,country,North America,32.321384,-64.75737,ME,Montenegro,country,Europe and Central Asia,42.708678,19.37439,7210.97787054796,2008,5,0,0,0,0,0,0,0,0,0,0,0,0,0,0,5,0,0,0,0,0,0,0,0
BO,Bolivia,country,Latin America and the Caribbean,-16.290154,-63.588653,ME,Montenegro,country,Europe and Central Asia,42.708678,19.37439,10682.3123670211,2008,0,0,0,0,0,0,0,0,0,0,0,0,0,0,0,0,0,0,0,0,0,0,0,0
BA,Bosnia & Herzegovina,country,Europe and Central Asia,43.915886,17.679076,ME,Montenegro,country,Europe and Central Asia,42.708678,19.37439,192.126869784016,2008,9897,3511,747,36,0,4,1,888,251,0,1,139,252,967,178,826,169,682,1414,0,0,0,0,0
BR,Brazil,country,Latin America and the Caribbean,-14.235004,-51.92528,ME,Montenegro,country,Europe and Central Asia,42.708678,19.37439,9625.77929856153,2008,32185,2000,0,22655,0,1,0,15,16,0,0,0,7128,72,0,0,0,298,0,0,0,0,0,0
BG,Bulgaria,country,Europe and Central Asia,42.733883,25.48583,ME,Montenegro,country,Europe and Central Asia,42.708678,19.37439,499.706207629589,2008,789,629,0,0,52,0,0,0,0,0,0,0,66,33,0,0,0,0,9,0,0,0,0,0
CA,Canada,country,North America,56.130366,-106.346771,ME,Montenegro,country,Europe and Central Asia,42.708678,19.37439,7913.70418630763,2008,719,20,352,1,202,12,0,82,0,0,0,0,25,0,0,0,0,25,0,0,0,0,0,0
CL,Chile,country,Latin America and the Caribbean,-35.675147,-71.542969,ME,Montenegro,country,Europe and Central Asia,42.708678,19.37439,12679.1174657337,2008,135,0,0,0,0,1,0,0,132,0,0,0,0,0,0,2,0,0,0,0,0,0,0,0
CN,China,country,East Asia and Pacific,35.86166,104.195397,ME,Montenegro,country,Europe and Central Asia,42.708678,19.37439,7033.74958738116,2008,803,3,0,9,1,46,24,634,55,0,0,0,2,17,0,0,0,0,12,0,0,0,0,0
TW,Taiwan,country,East Asia and Pacific,23.69781,120.960515,ME,Montenegro,country,Europe and Central Asia,42.708678,19.37439,9139.16693670779,2008,1,0,0,0,0,1,0,0,0,0,0,0,0,0,0,0,0,0,0,0,0,0,0,0
CO,Colombia,country,Latin America and the Caribbean,4.570868,-74.297333,ME,Montenegro,country,Europe and Central Asia,42.708678,19.37439,9973.18010127026,2008,9,0,0,0,0,0,0,0,0,0,0,0,9,0,0,0,0,0,0,0,0,0,0,0
CG,"Congo, Rep.",country,Sub-Saharan Africa,-0.228021,15.827659,ME,Montenegro,country,Europe and Central Asia,42.708678,19.37439,4792.85461911139,2008,1,0,0,0,0,0,0,0,1,0,0,0,0,0,0,0,0,0,0,0,0,0,0,0
CR,Costa Rica,country,Latin America and the Caribbean,9.748917,-83.753428,ME,Montenegro,country,Europe and Central Asia,42.708678,19.37439,10335.4391689182,2008,136,0,0,0,0,0,0,12,124,0,0,0,0,0,0,0,0,0,0,0,0,0,0,0
CI,Ivory Coast,country,Sub-Saharan Africa,7.539989,-5.54708,ME,Montenegro,country,Europe and Central Asia,42.708678,19.37439,4613.26239583515,2008,6,0,0,0,0,0,0,0,6,0,0,0,0,0,0,0,0,0,0,0,0,0,0,0
HR,Croatia,country,Europe and Central Asia,45.1,15.2,ME,Montenegro,country,Europe and Central Asia,42.708678,19.37439,427.638498857229,2008,11246,1582,0,122,0,5,36,360,250,0,3,2,559,2411,669,2525,0,737,1985,0,0,0,0,0
CU,Cuba,country,Latin America and the Caribbean,21.521757,-77.781167,ME,Montenegro,country,Europe and Central Asia,42.708678,19.37439,8970.07751342723,2008,0,0,0,0,0,0,0,0,0,0,0,0,0,0,0,0,0,0,0,0,0,0,0,0
CY,Cyprus,country,Europe and Central Asia,35.126413,33.429859,ME,Montenegro,country,Europe and Central Asia,42.708678,19.37439,1478.20414776711,2008,799,0,1,0,0,0,0,0,62,0,0,0,0,4,32,0,0,700,0,0,0,0,0,0
CZ,Czech Republic,country,Europe and Central Asia,49.817492,15.472962,ME,Montenegro,country,Europe and Central Asia,42.708678,19.37439,846.09364091471,2008,1425,1217,0,2,0,0,0,0,0,0,0,0,92,4,0,42,0,0,68,0,0,0,0,0
DK,Denmark,country,Europe and Central Asia,56.26392,9.501785,ME,Montenegro,country,Europe and Central Asia,42.708678,19.37439,1665.46659390427,2008,193,0,0,0,0,0,0,0,0,0,0,70,0,0,0,0,0,102,21,0,0,0,0,0
DM,Dominica,country,Latin America and the Caribbean,15.414999,-61.370976,ME,Montenegro,country,Europe and Central Asia,42.708678,19.37439,8114.03742629544,2008,1,0,0,0,0,0,1,0,0,0,0,0,0,0,0,0,0,0,0,0,0,0,0,0
EC,Ecuador,country,Latin America and the Caribbean,-1.831239,-78.183406,ME,Montenegro,country,Europe and Central Asia,42.708678,19.37439,10774.8809889145,2008,8438,0,0,0,0,0,0,0,8438,0,0,0,0,0,0,0,0,0,0,0,0,0,0,0
EG,Egypt,country,Middle East and North Africa,26.820553,30.802498,ME,Montenegro,country,Europe and Central Asia,42.708678,19.37439,2049.87546190994,2008,778,84,0,0,0,0,2,168,521,0,1,0,1,1,0,0,0,0,0,0,0,0,0,0
EE,Estonia,country,Europe and Central Asia,58.595272,25.013607,ME,Montenegro,country,Europe and Central Asia,42.708678,19.37439,1811.16368839649,2008,0,0,0,0,0,0,0,0,0,0,0,0,0,0,0,0,0,0,0,0,0,0,0,0
FI,Finland,country,Europe and Central Asia,61.92411,25.748151,ME,Montenegro,country,Europe and Central Asia,42.708678,19.37439,2180.09935668298,2008,2,0,0,0,0,0,0,0,0,0,0,0,0,0,0,2,0,0,0,0,0,0,0,0
FR,France,country,Europe and Central Asia,46.227638,2.213749,ME,Montenegro,country,Europe and Central Asia,42.708678,19.37439,1415.22518036063,2008,382,5,71,15,0,0,0,0,0,0,0,41,6,122,0,122,0,0,0,0,0,0,0,0
GM,The Gambia,country,Sub-Saharan Africa,13.443182,-15.310139,ME,Montenegro,country,Europe and Central Asia,42.708678,19.37439,4654.22834142729,2008,0,0,0,0,0,0,0,0,0,0,0,0,0,0,0,0,0,0,0,0,0,0,0,0
GE,Georgia,country,Europe and Central Asia,42.315407,43.356892,ME,Montenegro,country,Europe and Central Asia,42.708678,19.37439,1961.80346452298,2008,4,0,0,0,0,0,0,0,0,0,0,0,4,0,0,0,0,0,0,0,0,0,0,0
DE,Germany,country,Europe and Central Asia,51.165691,10.451526,ME,Montenegro,country,Europe and Central Asia,42.708678,19.37439,1158.47543550597,2008,3915,1114,0,24,0,0,50,76,64,0,17,117,48,167,6,249,0,622,1361,0,0,0,0,0
GH,Ghana,country,Sub-Saharan Africa,7.946527,-1.023194,ME,Montenegro,country,Europe and Central Asia,42.708678,19.37439,4354.13991516237,2008,15,0,0,0,0,0,0,0,9,0,0,0,6,0,0,0,0,0,0,0,0,0,0,0
GR,Greece,country,Europe and Central Asia,39.074208,21.824312,ME,Montenegro,country,Europe and Central Asia,42.708678,19.37439,454.033347854666,2008,1396,3,3,1,0,0,67,109,952,0,0,0,1,174,72,14,0,0,0,0,0,0,0,0
GT,Guatemala,country,Latin America and the Caribbean,15.783471,-90.230759,ME,Montenegro,country,Europe and Central Asia,42.708678,19.37439,10355.4751500154,2008,0,0,0,0,0,0,0,0,0,0,0,0,0,0,0,0,0,0,0,0,0,0,0,0
HN,Honduras,country,Latin America and the Caribbean,15.199999,-86.241905,ME,Montenegro,country,Europe and Central Asia,42.708678,19.37439,10102.0006745106,2008,3,0,0,0,0,0,0,0,3,0,0,0,0,0,0,0,0,0,0,0,0,0,0,0
HU,Hungary,country,Europe and Central Asia,47.162494,19.503304,ME,Montenegro,country,Europe and Central Asia,42.708678,19.37439,495.900386240049,2008,11840,9586,0,12,0,2,1,56,212,0,0,164,103,1,847,360,0,285,211,0,0,0,0,0
IN,India,country,South Asia,20.593684,78.96288,ME,Montenegro,country,Europe and Central Asia,42.708678,19.37439,6019.24028672277,2008,927,14,0,184,0,5,16,30,2,0,7,0,666,3,0,0,0,0,0,0,0,0,0,0
ID,Indonesia,country,East Asia and Pacific,-0.789275,113.921327,ME,Montenegro,country,Europe and Central Asia,42.708678,19.37439,10450.1840856712,2008,50,0,0,0,0,0,0,0,36,0,4,0,0,4,6,0,0,0,0,0,0,0,0,0
IR,Iran,country,Middle East and North Africa,32.427908,53.688046,ME,Montenegro,country,Europe and Central Asia,42.708678,19.37439,3210.02536661666,2008,56,0,0,0,0,20,0,0,35,0,0,0,1,0,0,0,0,0,0,0,0,0,0,0
IE,Ireland,country,Europe and Central Asia,53.41291,-8.24389,ME,Montenegro,country,Europe and Central Asia,42.708678,19.37439,2353.43972829179,2008,42,31,0,0,0,0,0,0,0,0,0,0,0,0,0,11,0,0,0,0,0,0,0,0
IL,Israel,country,Middle East and North Africa,31.046051,34.851612,ME,Montenegro,country,Europe and Central Asia,42.708678,19.37439,1887.61680625052,2008,23,0,0,0,0,0,0,0,22,0,0,0,0,1,0,0,0,0,0,0,0,0,0,0
IT,Italy,country,Europe and Central Asia,41.87194,12.56738,ME,Montenegro,country,Europe and Central Asia,42.708678,19.37439,568.065635482276,2008,10859,2975,10,15,122,45,6,1029,2750,2,0,1099,302,1430,94,576,0,367,37,0,0,0,0,0
JM,Jamaica,country,Latin America and the Caribbean,18.109581,-77.297508,ME,Montenegro,country,Europe and Central Asia,42.708678,19.37439,9189.25905347118,2008,0,0,0,0,0,0,0,0,0,0,0,0,0,0,0,0,0,0,0,0,0,0,0,0
JP,Japan,country,East Asia and Pacific,36.204824,138.252924,ME,Montenegro,country,Europe and Central Asia,42.708678,19.37439,9288.26566157936,2008,6,2,0,0,0,0,1,0,0,0,0,0,0,1,0,2,0,0,0,0,0,0,0,0
KG,Kyrgyz Rep.,country,Europe and Central Asia,41.20438,74.766098,ME,Montenegro,country,Europe and Central Asia,42.708678,19.37439,4504.51732302493,2008,364,0,0,0,194,0,0,170,0,0,0,0,0,0,0,0,0,0,0,0,0,0,0,0
LY,Libya,country,Middle East and North Africa,26.3351,17.228331,ME,Montenegro,country,Europe and Central Asia,42.708678,19.37439,1833.12010172691,2008,1,0,1,0,0,0,0,0,0,0,0,0,0,0,0,0,0,0,0,0,0,0,0,0
MG,Madagascar,country,Sub-Saharan Africa,-18.766947,46.869107,ME,Montenegro,country,Europe and Central Asia,42.708678,19.37439,7401.34519307868,2008,0,0,0,0,0,0,0,0,0,0,0,0,0,0,0,0,0,0,0,0,0,0,0,0
MY,Malaysia,country,East Asia and Pacific,4.210484,101.975766,ME,Montenegro,country,Europe and Central Asia,42.708678,19.37439,9096.02338182583,2008,177,0,0,0,0,0,0,0,5,0,0,0,0,0,172,0,0,0,0,0,0,0,0,0
ML,Mali,country,Sub-Saharan Africa,17.570692,-3.996166,ME,Montenegro,country,Europe and Central Asia,42.708678,19.37439,3565.02887168594,2008,0,0,0,0,0,0,0,0,0,0,0,0,0,0,0,0,0,0,0,0,0,0,0,0
MU,Mauritius,country,Sub-Saharan Africa,-20.348404,57.552152,ME,Montenegro,country,Europe and Central Asia,42.708678,19.37439,8037.01692640245,2008,48,0,0,48,0,0,0,0,0,0,0,0,0,0,0,0,0,0,0,0,0,0,0,0
MX,Mexico,country,Latin America and the Caribbean,23.634501,-102.552784,ME,Montenegro,country,Europe and Central Asia,42.708678,19.37439,10555.6885286596,2008,22,0,0,0,0,0,0,0,5,0,0,0,0,0,0,17,0,0,0,0,0,0,0,0
MA,Morocco,country,Middle East and North Africa,31.791702,-7.09262,ME,Montenegro,country,Europe and Central Asia,42.708678,19.37439,2625.86968478445,2008,141,0,47,0,0,0,18,32,40,0,0,0,4,0,0,0,0,0,0,0,0,0,0,0
NA,Namibia,country,Sub-Saharan Africa,-22.95764,18.49041,ME,Montenegro,country,Europe and Central Asia,42.708678,19.37439,7310.5047577743,2008,1,0,0,0,0,0,0,0,1,0,0,0,0,0,0,0,0,0,0,0,0,0,0,0
NL,Netherlands,country,Europe and Central Asia,52.132633,5.291266,ME,Montenegro,country,Europe and Central Asia,42.708678,19.37439,1486.96989733313,2008,10959,18,1079,2,0,0,0,948,1,0,0,178,57,466,19,2776,0,5327,88,0,0,0,0,0
NZ,New Zealand,country,East Asia and Pacific,-40.900557,174.885971,ME,Montenegro,country,Europe and Central Asia,42.708678,19.37439,18002.7023281719,2008,1,0,0,0,0,0,0,0,1,0,0,0,0,0,0,0,0,0,0,0,0,0,0,0
NI,Nicaragua,country,Latin America and the Caribbean,12.865416,-85.207229,ME,Montenegro,country,Europe and Central Asia,42.708678,19.37439,10205.8280690472,2008,0,0,0,0,0,0,0,0,0,0,0,0,0,0,0,0,0,0,0,0,0,0,0,0
NG,Nigeria,country,Sub-Saharan Africa,9.081999,8.675277,ME,Montenegro,country,Europe and Central Asia,42.708678,19.37439,3886.19241016594,2008,0,0,0,0,0,0,0,0,0,0,0,0,0,0,0,0,0,0,0,0,0,0,0,0
PK,Pakistan,country,South Asia,30.375321,69.345116,ME,Montenegro,country,Europe and Central Asia,42.708678,19.37439,4602.78657662835,2008,14,14,0,0,0,0,0,0,0,0,0,0,0,0,0,0,0,0,0,0,0,0,0,0
PA,Panama,country,Latin America and the Caribbean,8.537981,-80.782127,ME,Montenegro,country,Europe and Central Asia,42.708678,19.37439,10193.7896250138,2008,113,0,0,0,0,0,0,6,8,0,0,0,99,0,0,0,0,0,0,0,0,0,0,0
PY,Paraguay,country,Latin America and the Caribbean,-23.442503,-58.443832,ME,Montenegro,country,Europe and Central Asia,42.708678,19.37439,10834.6901176917,2008,2,0,0,0,0,0,2,0,0,0,0,0,0,0,0,0,0,0,0,0,0,0,0,0
PE,Peru,country,Latin America and the Caribbean,-9.189967,-75.015152,ME,Montenegro,country,Europe and Central Asia,42.708678,19.37439,11068.5063651247,2008,6,0,0,0,0,0,0,2,4,0,0,0,0,0,0,0,0,0,0,0,0,0,0,0
PH,Philippines,country,East Asia and Pacific,12.879721,121.774017,ME,Montenegro,country,Europe and Central Asia,42.708678,19.37439,10035.4998632763,2008,44,0,0,0,0,0,0,0,0,0,0,0,0,44,0,0,0,0,0,0,0,0,0,0
PL,Poland,country,Europe and Central Asia,51.919438,19.145136,ME,Montenegro,country,Europe and Central Asia,42.708678,19.37439,1025.48166347911,2008,921,147,564,23,0,0,0,0,41,0,0,17,26,83,0,0,0,0,20,0,0,0,0,0
PT,Portugal,country,Europe and Central Asia,39.399872,-8.224454,ME,Montenegro,country,Europe and Central Asia,42.708678,19.37439,2335.17107622906,2008,0,0,0,0,0,0,0,0,0,0,0,0,0,0,0,0,0,0,0,0,0,0,0,0
KR,"Korea, Rep.",country,East Asia and Pacific,35.907757,127.766922,ME,Montenegro,country,Europe and Central Asia,42.708678,19.37439,8669.28351033558,2008,2,0,0,0,0,0,0,0,0,0,0,0,0,0,0,2,0,0,0,0,0,0,0,0
RO,Romania,country,Europe and Central Asia,45.943161,24.96676,ME,Montenegro,country,Europe and Central Asia,42.708678,19.37439,572.451393357355,2008,746,622,0,0,0,1,0,0,0,0,0,0,84,0,0,4,0,0,35,0,0,0,0,0
RU,Russian Federation,country,Europe and Central Asia,61.52401,105.318756,ME,Montenegro,country,Europe and Central Asia,42.708678,19.37439,5745.36705658054,2008,7004,6967,0,1,0,0,0,0,0,0,0,0,0,0,28,8,0,0,0,0,0,0,0,0
SA,Saudi Arabia,country,Middle East and North Africa,23.885942,45.079162,ME,Montenegro,country,Europe and Central Asia,42.708678,19.37439,3156.31592523209,2008,8,0,0,0,0,0,0,0,8,0,0,0,0,0,0,0,0,0,0,0,0,0,0,0
RS,Serbia,country,Europe and Central Asia,44.016521,21.005859,ME,Montenegro,country,Europe and Central Asia,42.708678,19.37439,196.536570232739,2008,350808,86246,10225,684,4,139,125,13903,16313,20,96,44484,3942,7278,8999,117174,813,9370,31806,0,0,0,0,0
SG,Singapore,country,East Asia and Pacific,1.352083,103.819836,ME,Montenegro,country,Europe and Central Asia,42.708678,19.37439,9462.4512109679,2008,1,0,0,0,0,0,0,0,0,0,0,0,1,0,0,0,0,0,0,0,0,0,0,0
SK,Slovak Rep.,country,Europe and Central Asia,48.669026,19.699024,ME,Montenegro,country,Europe and Central Asia,42.708678,19.37439,663.981173489342,2008,32,0,0,0,0,0,0,0,0,0,0,0,0,32,0,0,0,0,0,0,0,0,0,0
SI,Slovenia,country,Europe and Central Asia,46.151241,14.995463,ME,Montenegro,country,Europe and Central Asia,42.708678,19.37439,517.55476115252,2008,2757,57,0,91,0,0,0,15,268,0,0,0,39,193,86,412,0,1271,325,0,0,0,0,0
ZA,S. Africa,country,Sub-Saharan Africa,-30.559482,22.937506,ME,Montenegro,country,Europe and Central Asia,42.708678,19.37439,8164.31893098948,2008,288,0,0,0,0,0,0,0,288,0,0,0,0,0,0,0,0,0,0,0,0,0,0,0
ES,Spain,country,Europe and Central Asia,40.463667,-3.74922,ME,Montenegro,country,Europe and Central Asia,42.708678,19.37439,1935.31029498663,2008,1529,28,1,32,0,5,10,215,761,0,0,0,9,62,28,7,0,317,54,0,0,0,0,0
LK,Sri Lanka,country,South Asia,7.873054,80.771797,ME,Montenegro,country,Europe and Central Asia,42.708678,19.37439,7103.14581667313,2008,1,0,0,0,0,0,0,0,0,0,0,0,1,0,0,0,0,0,0,0,0,0,0,0
SD,Sudan,country,Sub-Saharan Africa,12.862807,30.217636,ME,Montenegro,country,Europe and Central Asia,42.708678,19.37439,3482.8508150698,2008,3,0,0,0,0,0,0,0,3,0,0,0,0,0,0,0,0,0,0,0,0,0,0,0
SZ,Swaziland,country,Sub-Saharan Africa,-26.522503,31.465866,ME,Montenegro,country,Europe and Central Asia,42.708678,19.37439,7805.99202526966,2008,1,0,0,0,0,0,0,0,1,0,0,0,0,0,0,0,0,0,0,0,0,0,0,0
SE,Sweden,country,Europe and Central Asia,60.128161,18.643501,ME,Montenegro,country,Europe and Central Asia,42.708678,19.37439,1939.76229180789,2008,1,0,0,0,0,0,0,0,1,0,0,0,0,0,0,0,0,0,0,0,0,0,0,0
CH,Switzerland,country,Europe and Central Asia,46.818188,8.227512,ME,Montenegro,country,Europe and Central Asia,42.708678,19.37439,991.452033301119,2008,119,1,0,0,0,0,0,2,0,0,0,0,49,64,0,3,0,0,0,0,0,0,0,0
TJ,Tajikistan,country,Europe and Central Asia,38.861034,71.276093,ME,Montenegro,country,Europe and Central Asia,42.708678,19.37439,4326.60328375693,2008,0,0,0,0,0,0,0,0,0,0,0,0,0,0,0,0,0,0,0,0,0,0,0,0
TH,Thailand,country,East Asia and Pacific,15.870032,100.992541,ME,Montenegro,country,Europe and Central Asia,42.708678,19.37439,8152.07661481828,2008,142,4,0,0,0,6,0,6,121,0,1,0,0,0,4,0,0,0,0,0,0,0,0,0
MK,Macedonia,country,Europe and Central Asia,41.608635,21.745275,ME,Montenegro,country,Europe and Central Asia,42.708678,19.37439,230.794420306862,2008,18545,330,16,109,10,1,2,7378,7739,0,10,0,193,839,21,1518,0,126,253,0,0,0,0,0
TN,Tunisia,country,Middle East and North Africa,33.886917,9.537499,ME,Montenegro,country,Europe and Central Asia,42.708678,19.37439,1303.0892752474,2008,26,0,0,0,0,0,0,0,26,0,0,0,0,0,0,0,0,0,0,0,0,0,0,0
TR,Turkey,country,Europe and Central Asia,38.963745,35.243322,ME,Montenegro,country,Europe and Central Asia,42.708678,19.37439,1397.53819989542,2008,2811,289,0,269,22,14,0,890,1189,0,1,0,74,62,0,1,0,0,0,0,0,0,0,0
UG,Uganda,country,Sub-Saharan Africa,1.373333,32.290275,ME,Montenegro,country,Europe and Central Asia,42.708678,19.37439,4778.15413295694,2008,1,0,0,0,0,0,0,0,0,0,0,0,1,0,0,0,0,0,0,0,0,0,0,0
UA,Ukraine,country,Europe and Central Asia,48.379433,31.16558,ME,Montenegro,country,Europe and Central Asia,42.708678,19.37439,1113.20293370328,2008,34,0,0,0,0,14,1,0,0,0,0,0,0,0,19,0,0,0,0,0,0,0,0,0
GB,United Kingdom,country,Europe and Central Asia,55.378051,-3.435973,ME,Montenegro,country,Europe and Central Asia,42.708678,19.37439,2163.84459639247,2008,215,43,0,3,0,0,0,0,0,0,0,0,14,9,0,146,0,0,0,0,0,0,0,0
US,USA,country,North America,37.09024,-95.712891,ME,Montenegro,country,Europe and Central Asia,42.708678,19.37439,8990.48834036401,2008,135,26,0,0,0,30,1,4,13,0,0,0,1,26,0,34,0,0,0,0,0,0,0,0
UY,Uruguay,country,Latin America and the Caribbean,-32.522779,-55.765835,ME,Montenegro,country,Europe and Central Asia,42.708678,19.37439,11340.6192643854,2008,125,0,0,0,0,0,0,0,125,0,0,0,0,0,0,0,0,0,0,0,0,0,0,0
VE,Venezuela,country,Latin America and the Caribbean,6.42375,-66.58973,ME,Montenegro,country,Europe and Central Asia,42.708678,19.37439,9204.75131986585,2008,0,0,0,0,0,0,0,0,0,0,0,0,0,0,0,0,0,0,0,0,0,0,0,0
VN,Vietnam,country,East Asia and Pacific,14.058324,108.277199,ME,Montenegro,country,Europe and Central Asia,42.708678,19.37439,8874.72202403101,2008,295,194,0,0,0,2,2,1,1,0,3,0,89,3,0,0,0,0,0,0,0,0,0,0
ZW,Zimbabwe,country,Sub-Saharan Africa,-19.015438,29.154857,ME,Montenegro,country,Europe and Central Asia,42.708678,19.37439,6944.0007144937,2008,6,0,0,0,0,0,0,0,6,0,0,0,0,0,0,0,0,0,0,0,0,0,0,0
AL,Albania,country,Europe and Central Asia,41.153332,20.168331,ME,Montenegro,country,Europe and Central Asia,42.708678,19.37439,185.202170776218,2009,1500,0,92,6,1,7,0,1370,8,0,0,0,7,0,0,9,0,0,0,0,0,0,0,0
AR,Argentina,country,Latin America and the Caribbean,-38.416097,-63.616672,ME,Montenegro,country,Europe and Central Asia,42.708678,19.37439,12307.576110154,2009,1182,213,0,101,0,0,0,63,805,0,0,0,0,0,0,0,0,0,0,0,0,0,0,0
AM,Armenia,country,Europe and Central Asia,40.069099,45.038189,ME,Montenegro,country,Europe and Central Asia,42.708678,19.37439,2154.92524291592,2009,6,0,0,0,0,0,0,0,0,0,0,0,0,6,0,0,0,0,0,0,0,0,0,0
AW,Aruba,country,Latin America and the Caribbean,12.52111,-69.968338,ME,Montenegro,country,Europe and Central Asia,42.708678,19.37439,9024.3496548182,2009,0,0,0,0,0,0,0,0,0,0,0,0,0,0,0,0,0,0,0,0,0,0,0,0
AU,Australia,country,East Asia and Pacific,-25.274398,133.775136,ME,Montenegro,country,Europe and Central Asia,42.708678,19.37439,13841.3997368716,2009,0,0,0,0,0,0,0,0,0,0,0,0,0,0,0,0,0,0,0,0,0,0,0,0
AT,Austria,country,Europe and Central Asia,47.516231,14.550072,ME,Montenegro,country,Europe and Central Asia,42.708678,19.37439,655.492179257799,2009,11831,86,0,12,0,1,1,178,780,0,0,0,13,60,187,1834,0,8679,0,0,0,0,0,0
BS,The Bahamas,country,Latin America and the Caribbean,25.03428,-77.39628,ME,Montenegro,country,Europe and Central Asia,42.708678,19.37439,8678.92154826168,2009,5,0,0,0,0,0,0,0,0,0,0,0,0,0,0,5,0,0,0,0,0,0,0,0
BE,Belgium,country,Europe and Central Asia,50.503887,4.469936,ME,Montenegro,country,Europe and Central Asia,42.708678,19.37439,1428.16674095218,2009,645,2,32,5,0,0,0,16,2,0,0,239,6,28,1,0,0,314,0,0,0,0,0,0
BO,Bolivia,country,Latin America and the Caribbean,-16.290154,-63.588653,ME,Montenegro,country,Europe and Central Asia,42.708678,19.37439,10682.3123670211,2009,1,0,0,0,0,0,1,0,0,0,0,0,0,0,0,0,0,0,0,0,0,0,0,0
BA,Bosnia & Herzegovina,country,Europe and Central Asia,43.915886,17.679076,ME,Montenegro,country,Europe and Central Asia,42.708678,19.37439,192.126869784016,2009,8161,1488,63,54,0,3,104,599,263,0,0,58,118,1166,424,877,766,774,2170,0,0,0,0,0
BR,Brazil,country,Latin America and the Caribbean,-14.235004,-51.92528,ME,Montenegro,country,Europe and Central Asia,42.708678,19.37439,9625.77929856153,2009,27876,0,0,16132,0,0,0,12,34,0,1,0,10981,9,0,0,0,707,0,0,0,0,0,0
BG,Bulgaria,country,Europe and Central Asia,42.733883,25.48583,ME,Montenegro,country,Europe and Central Asia,42.708678,19.37439,499.706207629589,2009,821,560,0,0,0,0,0,22,0,0,0,0,1,39,182,10,20,0,7,0,0,0,0,0
CM,Cameroon,country,Sub-Saharan Africa,7.369722,12.354722,ME,Montenegro,country,Europe and Central Asia,42.708678,19.37439,3993.75396246902,2009,4,0,0,0,0,0,0,0,4,0,0,0,0,0,0,0,0,0,0,0,0,0,0,0
CA,Canada,country,North America,56.130366,-106.346771,ME,Montenegro,country,Europe and Central Asia,42.708678,19.37439,7913.70418630763,2009,518,0,106,3,185,0,0,168,2,0,0,0,0,0,0,0,0,54,0,0,0,0,0,0
CL,Chile,country,Latin America and the Caribbean,-35.675147,-71.542969,ME,Montenegro,country,Europe and Central Asia,42.708678,19.37439,12679.1174657337,2009,133,0,0,0,0,0,0,3,128,0,0,0,0,0,0,2,0,0,0,0,0,0,0,0
HK,Hong Kong,country,East Asia and Pacific,22.396428,114.109497,ME,Montenegro,country,Europe and Central Asia,42.708678,19.37439,8719.18237388353,2009,0,0,0,0,0,0,0,0,0,0,0,0,0,0,0,0,0,0,0,0,0,0,0,0
CN,China,country,East Asia and Pacific,35.86166,104.195397,ME,Montenegro,country,Europe and Central Asia,42.708678,19.37439,7033.74958738116,2009,654,7,0,6,1,24,6,527,75,0,1,1,2,4,0,0,0,0,0,0,0,0,0,0
TW,Taiwan,country,East Asia and Pacific,23.69781,120.960515,ME,Montenegro,country,Europe and Central Asia,42.708678,19.37439,9139.16693670779,2009,0,0,0,0,0,0,0,0,0,0,0,0,0,0,0,0,0,0,0,0,0,0,0,0
CO,Colombia,country,Latin America and the Caribbean,4.570868,-74.297333,ME,Montenegro,country,Europe and Central Asia,42.708678,19.37439,9973.18010127026,2009,73,0,0,48,0,0,0,0,20,0,0,0,5,0,0,0,0,0,0,0,0,0,0,0
CG,"Congo, Rep.",country,Sub-Saharan Africa,-0.228021,15.827659,ME,Montenegro,country,Europe and Central Asia,42.708678,19.37439,4792.85461911139,2009,0,0,0,0,0,0,0,0,0,0,0,0,0,0,0,0,0,0,0,0,0,0,0,0
CR,Costa Rica,country,Latin America and the Caribbean,9.748917,-83.753428,ME,Montenegro,country,Europe and Central Asia,42.708678,19.37439,10335.4391689182,2009,142,0,0,0,0,0,0,13,129,0,0,0,0,0,0,0,0,0,0,0,0,0,0,0
CI,Ivory Coast,country,Sub-Saharan Africa,7.539989,-5.54708,ME,Montenegro,country,Europe and Central Asia,42.708678,19.37439,4613.26239583515,2009,2,0,0,0,0,0,0,0,2,0,0,0,0,0,0,0,0,0,0,0,0,0,0,0
HR,Croatia,country,Europe and Central Asia,45.1,15.2,ME,Montenegro,country,Europe and Central Asia,42.708678,19.37439,427.638498857229,2009,13520,4802,3,168,0,4,38,334,299,0,1,16,528,2293,520,2183,0,799,1532,0,0,0,0,0
CU,Cuba,country,Latin America and the Caribbean,21.521757,-77.781167,ME,Montenegro,country,Europe and Central Asia,42.708678,19.37439,8970.07751342723,2009,0,0,0,0,0,0,0,0,0,0,0,0,0,0,0,0,0,0,0,0,0,0,0,0
CY,Cyprus,country,Europe and Central Asia,35.126413,33.429859,ME,Montenegro,country,Europe and Central Asia,42.708678,19.37439,1478.20414776711,2009,266,0,0,0,0,0,0,0,2,0,0,0,0,2,17,0,0,245,0,0,0,0,0,0
CZ,Czech Republic,country,Europe and Central Asia,49.817492,15.472962,ME,Montenegro,country,Europe and Central Asia,42.708678,19.37439,846.09364091471,2009,121,5,0,1,0,0,1,0,20,0,0,0,19,3,0,32,0,1,39,0,0,0,0,0
DK,Denmark,country,Europe and Central Asia,56.26392,9.501785,ME,Montenegro,country,Europe and Central Asia,42.708678,19.37439,1665.46659390427,2009,86,0,21,0,0,0,0,0,0,0,0,0,0,0,0,0,0,65,0,0,0,0,0,0
DM,Dominica,country,Latin America and the Caribbean,15.414999,-61.370976,ME,Montenegro,country,Europe and Central Asia,42.708678,19.37439,8114.03742629544,2009,20,0,0,0,0,0,0,0,20,0,0,0,0,0,0,0,0,0,0,0,0,0,0,0
EC,Ecuador,country,Latin America and the Caribbean,-1.831239,-78.183406,ME,Montenegro,country,Europe and Central Asia,42.708678,19.37439,10774.8809889145,2009,8341,0,0,1,0,0,0,0,8340,0,0,0,0,0,0,0,0,0,0,0,0,0,0,0
EG,Egypt,country,Middle East and North Africa,26.820553,30.802498,ME,Montenegro,country,Europe and Central Asia,42.708678,19.37439,2049.87546190994,2009,541,21,0,4,0,0,0,34,459,0,0,0,0,23,0,0,0,0,0,0,0,0,0,0
ET,Ethiopia,country,Sub-Saharan Africa,9.145,40.489673,ME,Montenegro,country,Europe and Central Asia,42.708678,19.37439,4265.74337167242,2009,0,0,0,0,0,0,0,0,0,0,0,0,0,0,0,0,0,0,0,0,0,0,0,0
FI,Finland,country,Europe and Central Asia,61.92411,25.748151,ME,Montenegro,country,Europe and Central Asia,42.708678,19.37439,2180.09935668298,2009,0,0,0,0,0,0,0,0,0,0,0,0,0,0,0,0,0,0,0,0,0,0,0,0
FR,France,country,Europe and Central Asia,46.227638,2.213749,ME,Montenegro,country,Europe and Central Asia,42.708678,19.37439,1415.22518036063,2009,297,4,0,0,0,0,0,0,4,0,0,41,6,133,0,87,0,0,22,0,0,0,0,0
GE,Georgia,country,Europe and Central Asia,42.315407,43.356892,ME,Montenegro,country,Europe and Central Asia,42.708678,19.37439,1961.80346452298,2009,1,0,0,0,0,0,0,0,0,0,0,0,1,0,0,0,0,0,0,0,0,0,0,0
DE,Germany,country,Europe and Central Asia,51.165691,10.451526,ME,Montenegro,country,Europe and Central Asia,42.708678,19.37439,1158.47543550597,2009,6438,1060,20,21,0,5,39,9,198,1,6,153,92,120,54,200,0,2508,1952,0,0,0,0,0
GH,Ghana,country,Sub-Saharan Africa,7.946527,-1.023194,ME,Montenegro,country,Europe and Central Asia,42.708678,19.37439,4354.13991516237,2009,12,0,0,0,0,0,0,0,3,0,0,0,9,0,0,0,0,0,0,0,0,0,0,0
GR,Greece,country,Europe and Central Asia,39.074208,21.824312,ME,Montenegro,country,Europe and Central Asia,42.708678,19.37439,454.033347854666,2009,1501,52,24,1,0,0,37,112,997,2,0,0,28,153,86,3,19,0,6,0,0,0,0,0
GT,Guatemala,country,Latin America and the Caribbean,15.783471,-90.230759,ME,Montenegro,country,Europe and Central Asia,42.708678,19.37439,10355.4751500154,2009,65,0,0,24,0,0,0,0,41,0,0,0,0,0,0,0,0,0,0,0,0,0,0,0
GN,Guinea,country,Sub-Saharan Africa,9.945587,-9.696645,ME,Montenegro,country,Europe and Central Asia,42.708678,19.37439,4612.26760648035,2009,0,0,0,0,0,0,0,0,0,0,0,0,0,0,0,0,0,0,0,0,0,0,0,0
HU,Hungary,country,Europe and Central Asia,47.162494,19.503304,ME,Montenegro,country,Europe and Central Asia,42.708678,19.37439,495.900386240049,2009,11656,10110,0,12,0,0,0,50,159,0,0,255,90,3,246,485,0,134,112,0,0,0,0,0
IN,India,country,South Asia,20.593684,78.96288,ME,Montenegro,country,Europe and Central Asia,42.708678,19.37439,6019.24028672277,2009,771,23,0,45,0,6,22,43,0,0,3,0,628,1,0,0,0,0,0,0,0,0,0,0
ID,Indonesia,country,East Asia and Pacific,-0.789275,113.921327,ME,Montenegro,country,Europe and Central Asia,42.708678,19.37439,10450.1840856712,2009,31,0,0,1,0,0,2,0,13,0,6,0,2,4,0,3,0,0,0,0,0,0,0,0
IR,Iran,country,Middle East and North Africa,32.427908,53.688046,ME,Montenegro,country,Europe and Central Asia,42.708678,19.37439,3210.02536661666,2009,17,0,0,0,0,8,0,0,9,0,0,0,0,0,0,0,0,0,0,0,0,0,0,0
IE,Ireland,country,Europe and Central Asia,53.41291,-8.24389,ME,Montenegro,country,Europe and Central Asia,42.708678,19.37439,2353.43972829179,2009,6,2,0,0,0,0,0,0,0,0,0,0,0,0,0,4,0,0,0,0,0,0,0,0
IL,Israel,country,Middle East and North Africa,31.046051,34.851612,ME,Montenegro,country,Europe and Central Asia,42.708678,19.37439,1887.61680625052,2009,43,0,0,0,0,0,0,19,22,0,0,0,1,1,0,0,0,0,0,0,0,0,0,0
IT,Italy,country,Europe and Central Asia,41.87194,12.56738,ME,Montenegro,country,Europe and Central Asia,42.708678,19.37439,568.065635482276,2009,8616,2658,19,12,57,52,0,702,2072,1,0,1101,299,1070,116,249,0,166,42,0,0,0,0,0
JP,Japan,country,East Asia and Pacific,36.204824,138.252924,ME,Montenegro,country,Europe and Central Asia,42.708678,19.37439,9288.26566157936,2009,1,0,0,0,0,0,0,0,0,0,0,0,0,1,0,0,0,0,0,0,0,0,0,0
JO,Jordan,country,Middle East and North Africa,30.585164,36.238414,ME,Montenegro,country,Europe and Central Asia,42.708678,19.37439,2015.33712110652,2009,20,0,0,0,0,0,0,20,0,0,0,0,0,0,0,0,0,0,0,0,0,0,0,0
KE,Kenya,country,Sub-Saharan Africa,-0.023559,37.906193,ME,Montenegro,country,Europe and Central Asia,42.708678,19.37439,5104.96049511156,2009,0,0,0,0,0,0,0,0,0,0,0,0,0,0,0,0,0,0,0,0,0,0,0,0
KG,Kyrgyz Rep.,country,Europe and Central Asia,41.20438,74.766098,ME,Montenegro,country,Europe and Central Asia,42.708678,19.37439,4504.51732302493,2009,393,0,0,0,106,0,0,287,0,0,0,0,0,0,0,0,0,0,0,0,0,0,0,0
LR,Liberia,country,Sub-Saharan Africa,6.428055,-9.429499,ME,Montenegro,country,Europe and Central Asia,42.708678,19.37439,4930.61383313679,2009,0,0,0,0,0,0,0,0,0,0,0,0,0,0,0,0,0,0,0,0,0,0,0,0
MG,Madagascar,country,Sub-Saharan Africa,-18.766947,46.869107,ME,Montenegro,country,Europe and Central Asia,42.708678,19.37439,7401.34519307868,2009,0,0,0,0,0,0,0,0,0,0,0,0,0,0,0,0,0,0,0,0,0,0,0,0
MY,Malaysia,country,East Asia and Pacific,4.210484,101.975766,ME,Montenegro,country,Europe and Central Asia,42.708678,19.37439,9096.02338182583,2009,97,0,0,0,0,0,0,0,0,0,0,0,0,0,97,0,0,0,0,0,0,0,0,0
MU,Mauritius,country,Sub-Saharan Africa,-20.348404,57.552152,ME,Montenegro,country,Europe and Central Asia,42.708678,19.37439,8037.01692640245,2009,27,0,0,27,0,0,0,0,0,0,0,0,0,0,0,0,0,0,0,0,0,0,0,0
MX,Mexico,country,Latin America and the Caribbean,23.634501,-102.552784,ME,Montenegro,country,Europe and Central Asia,42.708678,19.37439,10555.6885286596,2009,21,0,0,0,0,0,0,0,14,0,0,0,0,0,0,7,0,0,0,0,0,0,0,0
MA,Morocco,country,Middle East and North Africa,31.791702,-7.09262,ME,Montenegro,country,Europe and Central Asia,42.708678,19.37439,2625.86968478445,2009,65,0,11,0,0,0,4,17,29,0,0,0,4,0,0,0,0,0,0,0,0,0,0,0
NA,Namibia,country,Sub-Saharan Africa,-22.95764,18.49041,ME,Montenegro,country,Europe and Central Asia,42.708678,19.37439,7310.5047577743,2009,0,0,0,0,0,0,0,0,0,0,0,0,0,0,0,0,0,0,0,0,0,0,0,0
NL,Netherlands,country,Europe and Central Asia,52.132633,5.291266,ME,Montenegro,country,Europe and Central Asia,42.708678,19.37439,1486.96989733313,2009,11584,1,1104,2,0,0,0,575,0,0,0,30,2,449,45,2376,0,6881,119,0,0,0,0,0
NZ,New Zealand,country,East Asia and Pacific,-40.900557,174.885971,ME,Montenegro,country,Europe and Central Asia,42.708678,19.37439,18002.7023281719,2009,0,0,0,0,0,0,0,0,0,0,0,0,0,0,0,0,0,0,0,0,0,0,0,0
NI,Nicaragua,country,Latin America and the Caribbean,12.865416,-85.207229,ME,Montenegro,country,Europe and Central Asia,42.708678,19.37439,10205.8280690472,2009,1,0,0,0,0,0,0,0,0,0,0,0,1,0,0,0,0,0,0,0,0,0,0,0
NO,Norway,country,Europe and Central Asia,60.472024,8.468946,ME,Montenegro,country,Europe and Central Asia,42.708678,19.37439,2109.85280691689,2009,0,0,0,0,0,0,0,0,0,0,0,0,0,0,0,0,0,0,0,0,0,0,0,0
PK,Pakistan,country,South Asia,30.375321,69.345116,ME,Montenegro,country,Europe and Central Asia,42.708678,19.37439,4602.78657662835,2009,3,3,0,0,0,0,0,0,0,0,0,0,0,0,0,0,0,0,0,0,0,0,0,0
PA,Panama,country,Latin America and the Caribbean,8.537981,-80.782127,ME,Montenegro,country,Europe and Central Asia,42.708678,19.37439,10193.7896250138,2009,2,0,0,0,0,0,1,0,1,0,0,0,0,0,0,0,0,0,0,0,0,0,0,0
PY,Paraguay,country,Latin America and the Caribbean,-23.442503,-58.443832,ME,Montenegro,country,Europe and Central Asia,42.708678,19.37439,10834.6901176917,2009,45,0,0,0,0,0,0,0,45,0,0,0,0,0,0,0,0,0,0,0,0,0,0,0
PE,Peru,country,Latin America and the Caribbean,-9.189967,-75.015152,ME,Montenegro,country,Europe and Central Asia,42.708678,19.37439,11068.5063651247,2009,25,0,0,0,0,0,0,1,22,0,2,0,0,0,0,0,0,0,0,0,0,0,0,0
PH,Philippines,country,East Asia and Pacific,12.879721,121.774017,ME,Montenegro,country,Europe and Central Asia,42.708678,19.37439,10035.4998632763,2009,36,0,0,0,0,0,4,0,0,0,0,0,0,32,0,0,0,0,0,0,0,0,0,0
PL,Poland,country,Europe and Central Asia,51.919438,19.145136,ME,Montenegro,country,Europe and Central Asia,42.708678,19.37439,1025.48166347911,2009,839,131,140,5,0,0,0,2,490,0,0,1,13,47,0,0,0,0,10,0,0,0,0,0
PT,Portugal,country,Europe and Central Asia,39.399872,-8.224454,ME,Montenegro,country,Europe and Central Asia,42.708678,19.37439,2335.17107622906,2009,1,0,0,0,0,0,0,0,0,0,0,0,0,1,0,0,0,0,0,0,0,0,0,0
KR,"Korea, Rep.",country,East Asia and Pacific,35.907757,127.766922,ME,Montenegro,country,Europe and Central Asia,42.708678,19.37439,8669.28351033558,2009,2,0,0,0,0,0,0,0,0,0,0,0,0,0,0,2,0,0,0,0,0,0,0,0
RO,Romania,country,Europe and Central Asia,45.943161,24.96676,ME,Montenegro,country,Europe and Central Asia,42.708678,19.37439,572.451393357355,2009,853,676,0,0,0,0,0,0,0,0,0,0,144,2,0,0,0,0,31,0,0,0,0,0
RU,Russian Federation,country,Europe and Central Asia,61.52401,105.318756,ME,Montenegro,country,Europe and Central Asia,42.708678,19.37439,5745.36705658054,2009,69,3,0,8,0,0,0,0,0,0,0,0,0,16,0,42,0,0,0,0,0,0,0,0
RS,Serbia,country,Europe and Central Asia,44.016521,21.005859,ME,Montenegro,country,Europe and Central Asia,42.708678,19.37439,196.536570232739,2009,362962,117089,6709,702,2,235,234,13675,13785,1,102,50684,3810,6086,11172,100686,263,7338,30624,28,0,0,0,0
SK,Slovak Rep.,country,Europe and Central Asia,48.669026,19.699024,ME,Montenegro,country,Europe and Central Asia,42.708678,19.37439,663.981173489342,2009,23,0,0,0,0,0,0,0,0,0,0,0,0,23,0,0,0,0,0,0,0,0,0,0
SI,Slovenia,country,Europe and Central Asia,46.151241,14.995463,ME,Montenegro,country,Europe and Central Asia,42.708678,19.37439,517.55476115252,2009,2742,19,0,59,0,0,0,10,160,0,0,0,47,723,2,325,0,1196,201,0,0,0,0,0
ZA,S. Africa,country,Sub-Saharan Africa,-30.559482,22.937506,ME,Montenegro,country,Europe and Central Asia,42.708678,19.37439,8164.31893098948,2009,378,0,0,0,0,0,0,0,378,0,0,0,0,0,0,0,0,0,0,0,0,0,0,0
ES,Spain,country,Europe and Central Asia,40.463667,-3.74922,ME,Montenegro,country,Europe and Central Asia,42.708678,19.37439,1935.31029498663,2009,2073,18,0,24,0,0,12,406,1253,0,0,0,21,70,7,5,0,255,2,0,0,0,0,0
LK,Sri Lanka,country,South Asia,7.873054,80.771797,ME,Montenegro,country,Europe and Central Asia,42.708678,19.37439,7103.14581667313,2009,0,0,0,0,0,0,0,0,0,0,0,0,0,0,0,0,0,0,0,0,0,0,0,0
SD,Sudan,country,Sub-Saharan Africa,12.862807,30.217636,ME,Montenegro,country,Europe and Central Asia,42.708678,19.37439,3482.8508150698,2009,1,0,0,0,0,0,0,0,0,0,0,0,0,1,0,0,0,0,0,0,0,0,0,0
SZ,Swaziland,country,Sub-Saharan Africa,-26.522503,31.465866,ME,Montenegro,country,Europe and Central Asia,42.708678,19.37439,7805.99202526966,2009,1,0,0,0,0,0,0,0,1,0,0,0,0,0,0,0,0,0,0,0,0,0,0,0
SE,Sweden,country,Europe and Central Asia,60.128161,18.643501,ME,Montenegro,country,Europe and Central Asia,42.708678,19.37439,1939.76229180789,2009,9,0,0,2,0,0,0,0,0,0,0,0,6,1,0,0,0,0,0,0,0,0,0,0
CH,Switzerland,country,Europe and Central Asia,46.818188,8.227512,ME,Montenegro,country,Europe and Central Asia,42.708678,19.37439,991.452033301119,2009,97,0,0,0,0,0,0,2,1,0,1,0,30,60,1,1,0,0,1,0,0,0,0,0
SY,Syrian Arab Rep.,country,Middle East and North Africa,34.802075,38.996815,ME,Montenegro,country,Europe and Central Asia,42.708678,19.37439,1910.91902646144,2009,0,0,0,0,0,0,0,0,0,0,0,0,0,0,0,0,0,0,0,0,0,0,0,0
TH,Thailand,country,East Asia and Pacific,15.870032,100.992541,ME,Montenegro,country,Europe and Central Asia,42.708678,19.37439,8152.07661481828,2009,1147,86,0,1000,0,4,0,2,49,0,0,0,0,1,0,5,0,0,0,0,0,0,0,0
MK,Macedonia,country,Europe and Central Asia,41.608635,21.745275,ME,Montenegro,country,Europe and Central Asia,42.708678,19.37439,230.794420306862,2009,16665,583,13,81,10,1,3,6684,7300,0,18,0,128,589,210,554,0,270,221,0,0,0,0,0
TN,Tunisia,country,Middle East and North Africa,33.886917,9.537499,ME,Montenegro,country,Europe and Central Asia,42.708678,19.37439,1303.0892752474,2009,46,0,0,0,0,0,0,0,46,0,0,0,0,0,0,0,0,0,0,0,0,0,0,0
TR,Turkey,country,Europe and Central Asia,38.963745,35.243322,ME,Montenegro,country,Europe and Central Asia,42.708678,19.37439,1397.53819989542,2009,4022,229,0,160,22,15,0,1094,2394,0,1,0,51,56,0,0,0,0,0,0,0,0,0,0
TV,Tuvalu,country,East Asia and Pacific,-7.109535,177.64933,ME,Montenegro,country,Europe and Central Asia,42.708678,19.37439,15538.029722273,2009,0,0,0,0,0,0,0,0,0,0,0,0,0,0,0,0,0,0,0,0,0,0,0,0
UA,Ukraine,country,Europe and Central Asia,48.379433,31.16558,ME,Montenegro,country,Europe and Central Asia,42.708678,19.37439,1113.20293370328,2009,5,2,0,0,0,2,1,0,0,0,0,0,0,0,0,0,0,0,0,0,0,0,0,0
GB,United Kingdom,country,Europe and Central Asia,55.378051,-3.435973,ME,Montenegro,country,Europe and Central Asia,42.708678,19.37439,2163.84459639247,2009,127,66,0,1,0,0,0,0,0,0,0,0,14,7,0,39,0,0,0,0,0,0,0,0
US,USA,country,North America,37.09024,-95.712891,ME,Montenegro,country,Europe and Central Asia,42.708678,19.37439,8990.48834036401,2009,232,4,0,0,0,23,0,2,18,0,0,0,124,34,0,27,0,0,0,0,0,0,0,0
UY,Uruguay,country,Latin America and the Caribbean,-32.522779,-55.765835,ME,Montenegro,country,Europe and Central Asia,42.708678,19.37439,11340.6192643854,2009,175,0,0,0,0,0,0,0,60,0,0,0,0,115,0,0,0,0,0,0,0,0,0,0
VE,Venezuela,country,Latin America and the Caribbean,6.42375,-66.58973,ME,Montenegro,country,Europe and Central Asia,42.708678,19.37439,9204.75131986585,2009,0,0,0,0,0,0,0,0,0,0,0,0,0,0,0,0,0,0,0,0,0,0,0,0
VN,Vietnam,country,East Asia and Pacific,14.058324,108.277199,ME,Montenegro,country,Europe and Central Asia,42.708678,19.37439,8874.72202403101,2009,296,220,0,0,0,5,10,29,1,0,7,0,24,0,0,0,0,0,0,0,0,0,0,0
ZM,Zambia,country,Sub-Saharan Africa,-13.133897,27.849332,ME,Montenegro,country,Europe and Central Asia,42.708678,19.37439,6276.40406957629,2009,1,0,0,0,0,0,0,0,1,0,0,0,0,0,0,0,0,0,0,0,0,0,0,0
AL,Albania,country,Europe and Central Asia,41.153332,20.168331,ME,Montenegro,country,Europe and Central Asia,42.708678,19.37439,185.202170776218,2010,2114,0,71,0,0,2,0,1965,51,0,0,0,0,17,0,8,0,0,0,0,0,0,0,0
AR,Argentina,country,Latin America and the Caribbean,-38.416097,-63.616672,ME,Montenegro,country,Europe and Central Asia,42.708678,19.37439,12307.576110154,2010,1195,270,0,2,84,1,0,1,837,0,0,0,0,0,0,0,0,0,0,0,0,0,0,0
AW,Aruba,country,Latin America and the Caribbean,12.52111,-69.968338,ME,Montenegro,country,Europe and Central Asia,42.708678,19.37439,9024.3496548182,2010,1,0,0,1,0,0,0,0,0,0,0,0,0,0,0,0,0,0,0,0,0,0,0,0
AU,Australia,country,East Asia and Pacific,-25.274398,133.775136,ME,Montenegro,country,Europe and Central Asia,42.708678,19.37439,13841.3997368716,2010,4,0,0,0,0,0,0,0,4,0,0,0,0,0,0,0,0,0,0,0,0,0,0,0
AT,Austria,country,Europe and Central Asia,47.516231,14.550072,ME,Montenegro,country,Europe and Central Asia,42.708678,19.37439,655.492179257799,2010,9731,84,0,85,0,0,0,148,243,0,0,20,9,63,28,1582,3,7469,0,0,0,0,0,0
AZ,Azerbaijan,country,Europe and Central Asia,40.143105,47.576927,ME,Montenegro,country,Europe and Central Asia,42.708678,19.37439,2360.18110031447,2010,0,0,0,0,0,0,0,0,0,0,0,0,0,0,0,0,0,0,0,0,0,0,0,0
BS,The Bahamas,country,Latin America and the Caribbean,25.03428,-77.39628,ME,Montenegro,country,Europe and Central Asia,42.708678,19.37439,8678.92154826168,2010,2,0,0,0,0,0,0,0,0,0,0,0,0,0,0,2,0,0,0,0,0,0,0,0
BE,Belgium,country,Europe and Central Asia,50.503887,4.469936,ME,Montenegro,country,Europe and Central Asia,42.708678,19.37439,1428.16674095218,2010,1195,7,54,3,0,0,0,54,1,0,0,216,0,8,0,0,0,852,0,0,0,0,0,0
BO,Bolivia,country,Latin America and the Caribbean,-16.290154,-63.588653,ME,Montenegro,country,Europe and Central Asia,42.708678,19.37439,10682.3123670211,2010,12,0,0,0,0,2,0,0,10,0,0,0,0,0,0,0,0,0,0,0,0,0,0,0
BA,Bosnia & Herzegovina,country,Europe and Central Asia,43.915886,17.679076,ME,Montenegro,country,Europe and Central Asia,42.708678,19.37439,192.126869784016,2010,11934,1602,349,283,0,1,52,483,329,0,0,100,325,1072,288,959,294,1257,4834,0,0,0,0,0
BR,Brazil,country,Latin America and the Caribbean,-14.235004,-51.92528,ME,Montenegro,country,Europe and Central Asia,42.708678,19.37439,9625.77929856153,2010,22888,4,0,10641,0,0,2,8,29,0,1,0,11273,31,0,0,0,899,0,0,0,0,0,0
BG,Bulgaria,country,Europe and Central Asia,42.733883,25.48583,ME,Montenegro,country,Europe and Central Asia,42.708678,19.37439,499.706207629589,2010,698,576,0,0,0,0,0,14,1,0,0,0,1,74,0,0,41,10,0,22,0,0,0,0
BF,Burkina Faso,country,Sub-Saharan Africa,12.238333,-1.561593,ME,Montenegro,country,Europe and Central Asia,42.708678,19.37439,3947.81367107427,2010,0,0,0,0,0,0,0,0,0,0,0,0,0,0,0,0,0,0,0,0,0,0,0,0
CA,Canada,country,North America,56.130366,-106.346771,ME,Montenegro,country,Europe and Central Asia,42.708678,19.37439,7913.70418630763,2010,406,0,104,0,259,0,1,41,1,0,0,0,0,0,0,0,0,0,0,0,0,0,0,0
CF,Central African Rep.,country,Sub-Saharan Africa,6.611111,20.939444,ME,Montenegro,country,Europe and Central Asia,42.708678,19.37439,4021.30961744337,2010,0,0,0,0,0,0,0,0,0,0,0,0,0,0,0,0,0,0,0,0,0,0,0,0
TD,Chad,country,Sub-Saharan Africa,15.454166,18.732207,ME,Montenegro,country,Europe and Central Asia,42.708678,19.37439,3034.57792614721,2010,0,0,0,0,0,0,0,0,0,0,0,0,0,0,0,0,0,0,0,0,0,0,0,0
CL,Chile,country,Latin America and the Caribbean,-35.675147,-71.542969,ME,Montenegro,country,Europe and Central Asia,42.708678,19.37439,12679.1174657337,2010,151,0,0,0,0,0,0,0,150,0,0,0,0,0,0,1,0,0,0,0,0,0,0,0
HK,Hong Kong,country,East Asia and Pacific,22.396428,114.109497,ME,Montenegro,country,Europe and Central Asia,42.708678,19.37439,8719.18237388353,2010,1,0,0,0,0,0,0,0,0,0,0,0,1,0,0,0,0,0,0,0,0,0,0,0
CN,China,country,East Asia and Pacific,35.86166,104.195397,ME,Montenegro,country,Europe and Central Asia,42.708678,19.37439,7033.74958738116,2010,577,1,0,5,50,2,10,437,29,0,11,1,26,5,0,0,0,0,0,0,0,0,0,0
TW,Taiwan,country,East Asia and Pacific,23.69781,120.960515,ME,Montenegro,country,Europe and Central Asia,42.708678,19.37439,9139.16693670779,2010,2,1,0,0,0,1,0,0,0,0,0,0,0,0,0,0,0,0,0,0,0,0,0,0
CO,Colombia,country,Latin America and the Caribbean,4.570868,-74.297333,ME,Montenegro,country,Europe and Central Asia,42.708678,19.37439,9973.18010127026,2010,148,0,0,49,0,0,0,0,77,0,0,0,22,0,0,0,0,0,0,0,0,0,0,0
CK,Cook Islands,country,East Asia and Pacific,-21.236736,-159.777671,ME,Montenegro,country,Europe and Central Asia,42.708678,19.37439,17645.9561416015,2010,0,0,0,0,0,0,0,0,0,0,0,0,0,0,0,0,0,0,0,0,0,0,0,0
CR,Costa Rica,country,Latin America and the Caribbean,9.748917,-83.753428,ME,Montenegro,country,Europe and Central Asia,42.708678,19.37439,10335.4391689182,2010,165,0,0,0,0,0,0,7,157,0,0,0,1,0,0,0,0,0,0,0,0,0,0,0
CI,Ivory Coast,country,Sub-Saharan Africa,7.539989,-5.54708,ME,Montenegro,country,Europe and Central Asia,42.708678,19.37439,4613.26239583515,2010,5,0,0,0,0,0,0,0,5,0,0,0,0,0,0,0,0,0,0,0,0,0,0,0
HR,Croatia,country,Europe and Central Asia,45.1,15.2,ME,Montenegro,country,Europe and Central Asia,42.708678,19.37439,427.638498857229,2010,9394,1044,3,184,0,6,26,244,212,0,1,15,470,2398,383,2079,13,807,1522,0,0,0,0,0
CU,Cuba,country,Latin America and the Caribbean,21.521757,-77.781167,ME,Montenegro,country,Europe and Central Asia,42.708678,19.37439,8970.07751342723,2010,0,0,0,0,0,0,0,0,0,0,0,0,0,0,0,0,0,0,0,0,0,0,0,0
CY,Cyprus,country,Europe and Central Asia,35.126413,33.429859,ME,Montenegro,country,Europe and Central Asia,42.708678,19.37439,1478.20414776711,2010,1,0,0,0,0,0,0,0,1,0,0,0,0,0,0,0,0,0,0,0,0,0,0,0
CZ,Czech Republic,country,Europe and Central Asia,49.817492,15.472962,ME,Montenegro,country,Europe and Central Asia,42.708678,19.37439,846.09364091471,2010,144,1,0,0,0,0,0,0,0,0,0,0,0,0,0,119,0,0,24,0,0,0,0,0
DK,Denmark,country,Europe and Central Asia,56.26392,9.501785,ME,Montenegro,country,Europe and Central Asia,42.708678,19.37439,1665.46659390427,2010,98,0,5,0,0,0,0,0,0,0,0,0,0,24,0,0,0,67,2,0,0,0,0,0
DM,Dominica,country,Latin America and the Caribbean,15.414999,-61.370976,ME,Montenegro,country,Europe and Central Asia,42.708678,19.37439,8114.03742629544,2010,8,0,0,0,0,0,0,0,8,0,0,0,0,0,0,0,0,0,0,0,0,0,0,0
EC,Ecuador,country,Latin America and the Caribbean,-1.831239,-78.183406,ME,Montenegro,country,Europe and Central Asia,42.708678,19.37439,10774.8809889145,2010,6593,0,0,106,0,0,0,0,6486,0,0,0,0,1,0,0,0,0,0,0,0,0,0,0
EG,Egypt,country,Middle East and North Africa,26.820553,30.802498,ME,Montenegro,country,Europe and Central Asia,42.708678,19.37439,2049.87546190994,2010,1503,98,16,900,0,0,0,239,211,0,0,0,0,39,0,0,0,0,0,0,0,0,0,0
EE,Estonia,country,Europe and Central Asia,58.595272,25.013607,ME,Montenegro,country,Europe and Central Asia,42.708678,19.37439,1811.16368839649,2010,0,0,0,0,0,0,0,0,0,0,0,0,0,0,0,0,0,0,0,0,0,0,0,0
ET,Ethiopia,country,Sub-Saharan Africa,9.145,40.489673,ME,Montenegro,country,Europe and Central Asia,42.708678,19.37439,4265.74337167242,2010,8,0,0,0,0,0,0,0,0,0,0,0,0,8,0,0,0,0,0,0,0,0,0,0
FI,Finland,country,Europe and Central Asia,61.92411,25.748151,ME,Montenegro,country,Europe and Central Asia,42.708678,19.37439,2180.09935668298,2010,0,0,0,0,0,0,0,0,0,0,0,0,0,0,0,0,0,0,0,0,0,0,0,0
FR,France,country,Europe and Central Asia,46.227638,2.213749,ME,Montenegro,country,Europe and Central Asia,42.708678,19.37439,1415.22518036063,2010,251,3,0,0,0,0,0,0,3,0,0,42,5,64,0,107,0,0,27,0,0,0,0,0
GE,Georgia,country,Europe and Central Asia,42.315407,43.356892,ME,Montenegro,country,Europe and Central Asia,42.708678,19.37439,1961.80346452298,2010,2,0,0,0,0,1,0,0,0,0,0,0,1,0,0,0,0,0,0,0,0,0,0,0
DE,Germany,country,Europe and Central Asia,51.165691,10.451526,ME,Montenegro,country,Europe and Central Asia,42.708678,19.37439,1158.47543550597,2010,7355,961,40,10,0,5,2,9,151,0,0,140,84,90,230,125,0,3501,2007,0,0,0,0,0
GH,Ghana,country,Sub-Saharan Africa,7.946527,-1.023194,ME,Montenegro,country,Europe and Central Asia,42.708678,19.37439,4354.13991516237,2010,12,0,0,0,0,0,0,0,6,0,0,0,6,0,0,0,0,0,0,0,0,0,0,0
GR,Greece,country,Europe and Central Asia,39.074208,21.824312,ME,Montenegro,country,Europe and Central Asia,42.708678,19.37439,454.033347854666,2010,2139,73,4,1,0,0,27,194,1547,2,0,0,20,222,46,3,0,0,0,0,0,0,0,0
GD,Grenada,country,Latin America and the Caribbean,12.262776,-61.604171,ME,Montenegro,country,Europe and Central Asia,42.708678,19.37439,8363.25167073736,2010,0,0,0,0,0,0,0,0,0,0,0,0,0,0,0,0,0,0,0,0,0,0,0,0
GT,Guatemala,country,Latin America and the Caribbean,15.783471,-90.230759,ME,Montenegro,country,Europe and Central Asia,42.708678,19.37439,10355.4751500154,2010,121,0,0,121,0,0,0,0,0,0,0,0,0,0,0,0,0,0,0,0,0,0,0,0
HN,Honduras,country,Latin America and the Caribbean,15.199999,-86.241905,ME,Montenegro,country,Europe and Central Asia,42.708678,19.37439,10102.0006745106,2010,2,0,0,0,0,0,0,1,1,0,0,0,0,0,0,0,0,0,0,0,0,0,0,0
HU,Hungary,country,Europe and Central Asia,47.162494,19.503304,ME,Montenegro,country,Europe and Central Asia,42.708678,19.37439,495.900386240049,2010,5460,4527,0,11,0,0,0,32,106,0,0,281,102,14,29,106,0,149,103,0,0,0,0,0
IS,Iceland,country,Europe and Central Asia,64.963051,-19.020835,ME,Montenegro,country,Europe and Central Asia,42.708678,19.37439,3437.32459944461,2010,1,0,0,0,0,0,0,0,1,0,0,0,0,0,0,0,0,0,0,0,0,0,0,0
IN,India,country,South Asia,20.593684,78.96288,ME,Montenegro,country,Europe and Central Asia,42.708678,19.37439,6019.24028672277,2010,999,35,0,0,0,7,20,34,0,0,3,0,900,0,0,0,0,0,0,0,0,0,0,0
ID,Indonesia,country,East Asia and Pacific,-0.789275,113.921327,ME,Montenegro,country,Europe and Central Asia,42.708678,19.37439,10450.1840856712,2010,53,0,0,2,0,0,16,0,26,0,3,0,4,0,0,2,0,0,0,0,0,0,0,0
IR,Iran,country,Middle East and North Africa,32.427908,53.688046,ME,Montenegro,country,Europe and Central Asia,42.708678,19.37439,3210.02536661666,2010,54,0,0,0,0,16,0,0,38,0,0,0,0,0,0,0,0,0,0,0,0,0,0,0
IE,Ireland,country,Europe and Central Asia,53.41291,-8.24389,ME,Montenegro,country,Europe and Central Asia,42.708678,19.37439,2353.43972829179,2010,6,0,0,0,0,0,0,0,0,0,0,0,0,0,0,6,0,0,0,0,0,0,0,0
IL,Israel,country,Middle East and North Africa,31.046051,34.851612,ME,Montenegro,country,Europe and Central Asia,42.708678,19.37439,1887.61680625052,2010,108,0,0,0,0,0,0,0,100,0,0,0,0,8,0,0,0,0,0,0,0,0,0,0
IT,Italy,country,Europe and Central Asia,41.87194,12.56738,ME,Montenegro,country,Europe and Central Asia,42.708678,19.37439,568.065635482276,2010,10124,3479,12,14,0,58,11,700,2342,0,0,1091,330,1234,360,159,0,293,41,0,0,0,0,0
JM,Jamaica,country,Latin America and the Caribbean,18.109581,-77.297508,ME,Montenegro,country,Europe and Central Asia,42.708678,19.37439,9189.25905347118,2010,0,0,0,0,0,0,0,0,0,0,0,0,0,0,0,0,0,0,0,0,0,0,0,0
JP,Japan,country,East Asia and Pacific,36.204824,138.252924,ME,Montenegro,country,Europe and Central Asia,42.708678,19.37439,9288.26566157936,2010,2,0,0,0,0,1,0,0,0,0,0,0,0,1,0,0,0,0,0,0,0,0,0,0
KE,Kenya,country,Sub-Saharan Africa,-0.023559,37.906193,ME,Montenegro,country,Europe and Central Asia,42.708678,19.37439,5104.96049511156,2010,7,0,0,0,0,0,0,0,0,0,0,0,1,6,0,0,0,0,0,0,0,0,0,0
KG,Kyrgyz Rep.,country,Europe and Central Asia,41.20438,74.766098,ME,Montenegro,country,Europe and Central Asia,42.708678,19.37439,4504.51732302493,2010,340,0,0,0,252,0,0,88,0,0,0,0,0,0,0,0,0,0,0,0,0,0,0,0
LV,Latvia,country,Europe and Central Asia,56.879635,24.603189,ME,Montenegro,country,Europe and Central Asia,42.708678,19.37439,1620.45910424024,2010,0,0,0,0,0,0,0,0,0,0,0,0,0,0,0,0,0,0,0,0,0,0,0,0
LU,Luxembourg,country,Europe and Central Asia,49.815273,6.129583,ME,Montenegro,country,Europe and Central Asia,42.708678,19.37439,1287.16536438076,2010,0,0,0,0,0,0,0,0,0,0,0,0,0,0,0,0,0,0,0,0,0,0,0,0
MG,Madagascar,country,Sub-Saharan Africa,-18.766947,46.869107,ME,Montenegro,country,Europe and Central Asia,42.708678,19.37439,7401.34519307868,2010,0,0,0,0,0,0,0,0,0,0,0,0,0,0,0,0,0,0,0,0,0,0,0,0
MY,Malaysia,country,East Asia and Pacific,4.210484,101.975766,ME,Montenegro,country,Europe and Central Asia,42.708678,19.37439,9096.02338182583,2010,46,0,0,0,0,0,0,0,0,0,0,0,0,0,46,0,0,0,0,0,0,0,0,0
MR,Mauritania,country,Sub-Saharan Africa,21.00789,-10.940835,ME,Montenegro,country,Europe and Central Asia,42.708678,19.37439,3712.49278199464,2010,0,0,0,0,0,0,0,0,0,0,0,0,0,0,0,0,0,0,0,0,0,0,0,0
MU,Mauritius,country,Sub-Saharan Africa,-20.348404,57.552152,ME,Montenegro,country,Europe and Central Asia,42.708678,19.37439,8037.01692640245,2010,90,0,0,90,0,0,0,0,0,0,0,0,0,0,0,0,0,0,0,0,0,0,0,0
MX,Mexico,country,Latin America and the Caribbean,23.634501,-102.552784,ME,Montenegro,country,Europe and Central Asia,42.708678,19.37439,10555.6885286596,2010,20,0,0,0,0,0,0,0,8,0,0,0,0,0,0,12,0,0,0,0,0,0,0,0
MA,Morocco,country,Middle East and North Africa,31.791702,-7.09262,ME,Montenegro,country,Europe and Central Asia,42.708678,19.37439,2625.86968478445,2010,36,0,2,0,0,0,5,5,24,0,0,0,0,0,0,0,0,0,0,0,0,0,0,0
MM,Myanmar,country,East Asia and Pacific,21.913965,95.956223,ME,Montenegro,country,Europe and Central Asia,42.708678,19.37439,7314.93020336335,2010,14,0,0,0,0,0,0,0,0,0,0,0,0,14,0,0,0,0,0,0,0,0,0,0
NA,Namibia,country,Sub-Saharan Africa,-22.95764,18.49041,ME,Montenegro,country,Europe and Central Asia,42.708678,19.37439,7310.5047577743,2010,0,0,0,0,0,0,0,0,0,0,0,0,0,0,0,0,0,0,0,0,0,0,0,0
NL,Netherlands,country,Europe and Central Asia,52.132633,5.291266,ME,Montenegro,country,Europe and Central Asia,42.708678,19.37439,1486.96989733313,2010,12861,18,1248,3,1,0,1,834,2,0,0,58,3,376,114,2112,0,7918,173,0,0,0,0,0
NZ,New Zealand,country,East Asia and Pacific,-40.900557,174.885971,ME,Montenegro,country,Europe and Central Asia,42.708678,19.37439,18002.7023281719,2010,1,0,0,0,0,0,0,0,1,0,0,0,0,0,0,0,0,0,0,0,0,0,0,0
NI,Nicaragua,country,Latin America and the Caribbean,12.865416,-85.207229,ME,Montenegro,country,Europe and Central Asia,42.708678,19.37439,10205.8280690472,2010,2,0,0,0,0,0,0,0,0,0,0,0,2,0,0,0,0,0,0,0,0,0,0,0
NG,Nigeria,country,Sub-Saharan Africa,9.081999,8.675277,ME,Montenegro,country,Europe and Central Asia,42.708678,19.37439,3886.19241016594,2010,3,0,0,0,0,0,0,0,0,0,0,0,1,2,0,0,0,0,0,0,0,0,0,0
NO,Norway,country,Europe and Central Asia,60.472024,8.468946,ME,Montenegro,country,Europe and Central Asia,42.708678,19.37439,2109.85280691689,2010,1,0,0,0,0,0,0,0,0,0,0,0,0,1,0,0,0,0,0,0,0,0,0,0
PK,Pakistan,country,South Asia,30.375321,69.345116,ME,Montenegro,country,Europe and Central Asia,42.708678,19.37439,4602.78657662835,2010,79,79,0,0,0,0,0,0,0,0,0,0,0,0,0,0,0,0,0,0,0,0,0,0
PA,Panama,country,Latin America and the Caribbean,8.537981,-80.782127,ME,Montenegro,country,Europe and Central Asia,42.708678,19.37439,10193.7896250138,2010,14,0,0,0,0,0,0,1,13,0,0,0,0,0,0,0,0,0,0,0,0,0,0,0
PE,Peru,country,Latin America and the Caribbean,-9.189967,-75.015152,ME,Montenegro,country,Europe and Central Asia,42.708678,19.37439,11068.5063651247,2010,3,0,0,0,0,0,0,0,3,0,0,0,0,0,0,0,0,0,0,0,0,0,0,0
PH,Philippines,country,East Asia and Pacific,12.879721,121.774017,ME,Montenegro,country,Europe and Central Asia,42.708678,19.37439,10035.4998632763,2010,15,0,0,0,0,0,3,0,0,0,0,0,0,12,0,0,0,0,0,0,0,0,0,0
PL,Poland,country,Europe and Central Asia,51.919438,19.145136,ME,Montenegro,country,Europe and Central Asia,42.708678,19.37439,1025.48166347911,2010,492,158,215,1,0,0,0,1,42,0,0,0,14,29,2,17,0,0,13,0,0,0,0,0
PT,Portugal,country,Europe and Central Asia,39.399872,-8.224454,ME,Montenegro,country,Europe and Central Asia,42.708678,19.37439,2335.17107622906,2010,16,0,0,0,0,0,0,0,0,0,0,0,0,4,0,12,0,0,0,0,0,0,0,0
KR,"Korea, Rep.",country,East Asia and Pacific,35.907757,127.766922,ME,Montenegro,country,Europe and Central Asia,42.708678,19.37439,8669.28351033558,2010,0,0,0,0,0,0,0,0,0,0,0,0,0,0,0,0,0,0,0,0,0,0,0,0
RO,Romania,country,Europe and Central Asia,45.943161,24.96676,ME,Montenegro,country,Europe and Central Asia,42.708678,19.37439,572.451393357355,2010,315,74,0,0,0,1,0,0,0,0,0,0,143,7,0,0,0,0,90,0,0,0,0,0
RU,Russian Federation,country,Europe and Central Asia,61.52401,105.318756,ME,Montenegro,country,Europe and Central Asia,42.708678,19.37439,5745.36705658054,2010,42,1,0,2,0,2,0,0,0,0,0,0,0,33,0,4,0,0,0,0,0,0,0,0
SA,Saudi Arabia,country,Middle East and North Africa,23.885942,45.079162,ME,Montenegro,country,Europe and Central Asia,42.708678,19.37439,3156.31592523209,2010,2,0,0,0,0,0,0,0,2,0,0,0,0,0,0,0,0,0,0,0,0,0,0,0
SN,Senegal,country,Sub-Saharan Africa,14.497401,-14.452362,ME,Montenegro,country,Europe and Central Asia,42.708678,19.37439,4504.71131475837,2010,0,0,0,0,0,0,0,0,0,0,0,0,0,0,0,0,0,0,0,0,0,0,0,0
RS,Serbia,country,Europe and Central Asia,44.016521,21.005859,ME,Montenegro,country,Europe and Central Asia,42.708678,19.37439,196.536570232739,2010,336409,95205,5963,3007,11,343,1199,11001,10093,3,146,54214,3653,5402,12205,98198,473,6801,28952,13,0,0,0,0
SK,Slovak Rep.,country,Europe and Central Asia,48.669026,19.699024,ME,Montenegro,country,Europe and Central Asia,42.708678,19.37439,663.981173489342,2010,38,0,0,0,0,0,0,0,0,0,0,0,0,26,0,0,0,0,12,0,0,0,0,0
SI,Slovenia,country,Europe and Central Asia,46.151241,14.995463,ME,Montenegro,country,Europe and Central Asia,42.708678,19.37439,517.55476115252,2010,3915,91,5,39,1,0,4,25,829,0,0,0,35,602,1,623,0,1477,183,0,0,0,0,0
ZA,S. Africa,country,Sub-Saharan Africa,-30.559482,22.937506,ME,Montenegro,country,Europe and Central Asia,42.708678,19.37439,8164.31893098948,2010,588,0,0,0,0,0,0,1,587,0,0,0,0,0,0,0,0,0,0,0,0,0,0,0
ES,Spain,country,Europe and Central Asia,40.463667,-3.74922,ME,Montenegro,country,Europe and Central Asia,42.708678,19.37439,1935.31029498663,2010,1386,12,0,22,0,0,23,133,696,0,0,0,13,5,9,8,0,465,0,0,0,0,0,0
LK,Sri Lanka,country,South Asia,7.873054,80.771797,ME,Montenegro,country,Europe and Central Asia,42.708678,19.37439,7103.14581667313,2010,4,0,0,0,0,0,3,0,0,0,0,0,1,0,0,0,0,0,0,0,0,0,0,0
SD,Sudan,country,Sub-Saharan Africa,12.862807,30.217636,ME,Montenegro,country,Europe and Central Asia,42.708678,19.37439,3482.8508150698,2010,1,0,0,0,0,0,0,0,0,0,0,0,0,1,0,0,0,0,0,0,0,0,0,0
SZ,Swaziland,country,Sub-Saharan Africa,-26.522503,31.465866,ME,Montenegro,country,Europe and Central Asia,42.708678,19.37439,7805.99202526966,2010,2,0,0,0,0,0,0,0,2,0,0,0,0,0,0,0,0,0,0,0,0,0,0,0
SE,Sweden,country,Europe and Central Asia,60.128161,18.643501,ME,Montenegro,country,Europe and Central Asia,42.708678,19.37439,1939.76229180789,2010,1,0,0,0,0,0,0,0,0,0,0,0,1,0,0,0,0,0,0,0,0,0,0,0
CH,Switzerland,country,Europe and Central Asia,46.818188,8.227512,ME,Montenegro,country,Europe and Central Asia,42.708678,19.37439,991.452033301119,2010,77,0,0,0,0,0,0,1,2,0,0,0,27,46,0,1,0,0,0,0,0,0,0,0
SY,Syrian Arab Rep.,country,Middle East and North Africa,34.802075,38.996815,ME,Montenegro,country,Europe and Central Asia,42.708678,19.37439,1910.91902646144,2010,0,0,0,0,0,0,0,0,0,0,0,0,0,0,0,0,0,0,0,0,0,0,0,0
TH,Thailand,country,East Asia and Pacific,15.870032,100.992541,ME,Montenegro,country,Europe and Central Asia,42.708678,19.37439,8152.07661481828,2010,161,6,0,94,0,6,0,1,44,0,0,0,0,1,0,9,0,0,0,0,0,0,0,0
MK,Macedonia,country,Europe and Central Asia,41.608635,21.745275,ME,Montenegro,country,Europe and Central Asia,42.708678,19.37439,230.794420306862,2010,15755,610,25,98,6,4,1,5275,7363,0,14,0,166,760,1,456,0,539,437,0,0,0,0,0
TN,Tunisia,country,Middle East and North Africa,33.886917,9.537499,ME,Montenegro,country,Europe and Central Asia,42.708678,19.37439,1303.0892752474,2010,30,0,0,0,0,0,0,0,30,0,0,0,0,0,0,0,0,0,0,0,0,0,0,0
TR,Turkey,country,Europe and Central Asia,38.963745,35.243322,ME,Montenegro,country,Europe and Central Asia,42.708678,19.37439,1397.53819989542,2010,3086,216,0,174,76,32,1,1024,1424,0,1,0,51,39,23,2,0,0,0,23,0,0,0,0
UA,Ukraine,country,Europe and Central Asia,48.379433,31.16558,ME,Montenegro,country,Europe and Central Asia,42.708678,19.37439,1113.20293370328,2010,5,0,0,0,0,0,0,0,0,0,0,0,2,3,0,0,0,0,0,0,0,0,0,0
GB,United Kingdom,country,Europe and Central Asia,55.378051,-3.435973,ME,Montenegro,country,Europe and Central Asia,42.708678,19.37439,2163.84459639247,2010,188,106,0,1,0,0,0,0,0,0,0,0,15,2,0,64,0,0,0,0,0,0,0,0
US,USA,country,North America,37.09024,-95.712891,ME,Montenegro,country,Europe and Central Asia,42.708678,19.37439,8990.48834036401,2010,242,3,0,0,0,41,20,3,17,0,0,0,25,101,0,32,0,0,0,0,0,0,0,0
UY,Uruguay,country,Latin America and the Caribbean,-32.522779,-55.765835,ME,Montenegro,country,Europe and Central Asia,42.708678,19.37439,11340.6192643854,2010,87,0,0,0,0,0,0,0,87,0,0,0,0,0,0,0,0,0,0,0,0,0,0,0
VE,Venezuela,country,Latin America and the Caribbean,6.42375,-66.58973,ME,Montenegro,country,Europe and Central Asia,42.708678,19.37439,9204.75131986585,2010,0,0,0,0,0,0,0,0,0,0,0,0,0,0,0,0,0,0,0,0,0,0,0,0
VN,Vietnam,country,East Asia and Pacific,14.058324,108.277199,ME,Montenegro,country,Europe and Central Asia,42.708678,19.37439,8874.72202403101,2010,216,141,0,0,0,2,5,31,0,0,11,0,26,0,0,0,0,0,0,0,0,0,0,0
ZM,Zambia,country,Sub-Saharan Africa,-13.133897,27.849332,ME,Montenegro,country,Europe and Central Asia,42.708678,19.37439,6276.40406957629,2010,0,0,0,0,0,0,0,0,0,0,0,0,0,0,0,0,0,0,0,0,0,0,0,0
ZW,Zimbabwe,country,Sub-Saharan Africa,-19.015438,29.154857,ME,Montenegro,country,Europe and Central Asia,42.708678,19.37439,6944.0007144937,2010,1,0,0,0,0,0,0,0,1,0,0,0,0,0,0,0,0,0,0,0,0,0,0,0
AL,Albania,country,Europe and Central Asia,41.153332,20.168331,ME,Montenegro,country,Europe and Central Asia,42.708678,19.37439,185.202170776218,2011,2799,253,204,0,1,3,0,2203,132,0,0,0,0,2,0,1,0,0,0,0,0,0,0,0
DZ,Algeria,country,Middle East and North Africa,28.033886,1.659626,ME,Montenegro,country,Europe and Central Asia,42.708678,19.37439,2282.91094397519,2011,1080,0,0,1080,0,0,0,0,0,0,0,0,0,0,0,0,0,0,0,0,0,0,0,0
AR,Argentina,country,Latin America and the Caribbean,-38.416097,-63.616672,ME,Montenegro,country,Europe and Central Asia,42.708678,19.37439,12307.576110154,2011,1494,323,0,1,146,1,0,51,972,0,0,0,0,0,0,0,0,0,0,0,0,0,0,0
