sourceCode,sourceName,sourceGrouping,sourceRegion,sourceLat,sourceLong,destCode,destName,destGrouping,destRegion,destLat,destLong,distance,year,totalTons,cereals,roots,sugarCrops,pulses,nuts,oilCrops,vegetables,fruits,fibers,spices,fodderCrops,coffeeTea,tobaccoRubber,oilsFats,beverages,livestock,animalMeats,animalProducts,animalHides,nimalOther,pesticides,fertilizers,machinery
AF,Afghanistan,country,South Asia,33.93911,67.709953,QA,Qatar,country,Middle East and North Africa,25.354826,51.183884,1858.93735856554,1991,8,0,0,0,6,0,0,2,0,0,0,0,0,0,0,0,0,0,0,0,0,0,0,0
DZ,Algeria,country,Middle East and North Africa,28.033886,1.659626,QA,Qatar,country,Middle East and North Africa,25.354826,51.183884,4900.86323617494,1991,4,0,0,0,0,0,0,0,0,0,0,0,0,0,0,0,0,4,0,0,0,0,0,0
AR,Argentina,country,Latin America and the Caribbean,-38.416097,-63.616672,QA,Qatar,country,Middle East and North Africa,25.354826,51.183884,13833.5780448946,1991,7176,7118,0,0,42,0,0,16,0,0,0,0,0,0,0,0,0,0,0,0,0,0,0,0
AU,Australia,country,East Asia and Pacific,-25.274398,133.775136,QA,Qatar,country,Middle East and North Africa,25.354826,51.183884,10513.3003057911,1991,58951,53703,4,69,458,0,0,55,105,0,5,1977,6,93,0,458,0,1673,345,0,0,0,0,0
AT,Austria,country,Europe and Central Asia,47.516231,14.550072,QA,Qatar,country,Middle East and North Africa,25.354826,51.183884,4044.81151352353,1991,229,4,0,10,0,0,0,0,130,0,0,2,16,0,0,0,0,0,67,0,0,0,0,0
BH,Bahrain,country,Middle East and North Africa,25.930414,50.637772,QA,Qatar,country,Middle East and North Africa,25.354826,51.183884,84.3154243988478,1991,780,59,3,6,0,0,0,32,25,0,12,0,5,9,603,24,0,2,0,0,0,0,0,0
BD,Bangladesh,country,South Asia,23.684994,90.356331,QA,Qatar,country,Middle East and North Africa,25.354826,51.183884,3957.70887263231,1991,574,2,0,0,0,0,0,538,9,4,0,0,21,0,0,0,0,0,0,0,0,0,0,0
BE,Belgium,country,Europe and Central Asia,50.503887,4.469936,QA,Qatar,country,Middle East and North Africa,25.354826,51.183884,4850.26746905,1991,1031,164,6,213,1,0,0,99,30,0,0,0,28,157,4,0,0,26,303,0,0,0,0,0
BW,Botswana,country,Sub-Saharan Africa,-22.328474,24.684866,QA,Qatar,country,Middle East and North Africa,25.354826,51.183884,6029.97174045657,1991,214,0,0,0,0,0,0,0,48,0,0,0,0,0,166,0,0,0,0,0,0,0,0,0
BR,Brazil,country,Latin America and the Caribbean,-14.235004,-51.92528,QA,Qatar,country,Middle East and North Africa,25.354826,51.183884,11988.6607078962,1991,6817,0,0,17,0,0,0,0,580,0,0,0,17,0,0,0,0,6203,0,0,0,0,0,0
BF,Burkina Faso,country,Sub-Saharan Africa,12.238333,-1.561593,QA,Qatar,country,Middle East and North Africa,25.354826,51.183884,5709.51130360037,1991,25,0,0,0,0,0,0,25,0,0,0,0,0,0,0,0,0,0,0,0,0,0,0,0
KH,Cambodia,country,East Asia and Pacific,12.565679,104.990963,QA,Qatar,country,Middle East and North Africa,25.354826,51.183884,5802.00032310029,1991,0,0,0,0,0,0,0,0,0,0,0,0,0,0,0,0,0,0,0,0,0,0,0,0
CA,Canada,country,North America,56.130366,-106.346771,QA,Qatar,country,Middle East and North Africa,25.354826,51.183884,10720.6947495884,1991,196,84,41,0,0,0,1,33,17,0,8,0,0,1,11,0,0,0,0,0,0,0,0,0
CL,Chile,country,Latin America and the Caribbean,-35.675147,-71.542969,QA,Qatar,country,Middle East and North Africa,25.354826,51.183884,14503.4056622373,1991,2010,0,0,2,0,0,0,42,1939,0,2,0,0,0,0,0,0,0,25,0,0,0,0,0
HK,Hong Kong,country,East Asia and Pacific,22.396428,114.109497,QA,Qatar,country,Middle East and North Africa,25.354826,51.183884,6354.3433796268,1991,38,0,0,28,0,0,0,0,0,0,7,0,0,3,0,0,0,0,0,0,0,0,0,0
TW,Taiwan,country,East Asia and Pacific,23.69781,120.960515,QA,Qatar,country,Middle East and North Africa,25.354826,51.183884,6983.31660815456,1991,148,0,0,4,0,0,0,98,22,0,5,0,5,12,0,0,0,0,2,0,0,0,0,0
CO,Colombia,country,Latin America and the Caribbean,4.570868,-74.297333,QA,Qatar,country,Middle East and North Africa,25.354826,51.183884,13275.6464070741,1991,25,0,0,0,0,0,0,0,25,0,0,0,0,0,0,0,0,0,0,0,0,0,0,0
KM,Comoros,country,Sub-Saharan Africa,-11.875001,43.872219,QA,Qatar,country,Middle East and North Africa,25.354826,51.183884,4219.63089999447,1991,2,0,0,0,0,0,0,0,2,0,0,0,0,0,0,0,0,0,0,0,0,0,0,0
CR,Costa Rica,country,Latin America and the Caribbean,9.748917,-83.753428,QA,Qatar,country,Middle East and North Africa,25.354826,51.183884,13783.4220465229,1991,133,0,0,0,0,0,0,0,0,0,0,0,133,0,0,0,0,0,0,0,0,0,0,0
CI,Ivory Coast,country,Sub-Saharan Africa,7.539989,-5.54708,QA,Qatar,country,Middle East and North Africa,25.354826,51.183884,6322.4134041144,1991,2,0,0,0,0,0,0,0,0,0,0,0,2,0,0,0,0,0,0,0,0,0,0,0
CU,Cuba,country,Latin America and the Caribbean,21.521757,-77.781167,QA,Qatar,country,Middle East and North Africa,25.354826,51.183884,12446.8061583985,1991,0,0,0,0,0,0,0,0,0,0,0,0,0,0,0,0,0,0,0,0,0,0,0,0
CY,Cyprus,country,Europe and Central Asia,35.126413,33.429859,QA,Qatar,country,Middle East and North Africa,25.354826,51.183884,2019.46943000519,1991,377,22,0,22,3,0,0,16,88,0,0,0,17,40,26,91,0,7,45,0,0,0,0,0
CZ,Czech Republic,country,Europe and Central Asia,49.817492,15.472962,QA,Qatar,country,Middle East and North Africa,25.354826,51.183884,4097.98161753022,1991,154,0,0,0,0,0,0,0,2,0,0,0,0,0,0,0,0,0,152,0,0,0,0,0
DK,Denmark,country,Europe and Central Asia,56.26392,9.501785,QA,Qatar,country,Middle East and North Africa,25.354826,51.183884,4790.67468566132,1991,6483,54,35,15,36,0,0,78,48,0,0,0,2,2,60,156,0,1629,4368,0,0,0,0,0
DJ,Djibouti,country,Middle East and North Africa,11.825138,42.590275,QA,Qatar,country,Middle East and North Africa,25.354826,51.183884,1756.48850563384,1991,0,0,0,0,0,0,0,0,0,0,0,0,0,0,0,0,0,0,0,0,0,0,0,0
EC,Ecuador,country,Latin America and the Caribbean,-1.831239,-78.183406,QA,Qatar,country,Middle East and North Africa,25.354826,51.183884,14016.7718260196,1991,18,0,0,0,0,0,0,0,0,0,0,0,0,0,0,0,0,18,0,0,0,0,0,0
EG,Egypt,country,Middle East and North Africa,26.820553,30.802498,QA,Qatar,country,Middle East and North Africa,25.354826,51.183884,2042.03510875953,1991,6193,338,432,130,65,3,0,1549,3331,0,6,0,22,101,23,35,0,79,79,0,0,0,0,0
FI,Finland,country,Europe and Central Asia,61.92411,25.748151,QA,Qatar,country,Middle East and North Africa,25.354826,51.183884,4493.63724887276,1991,26,0,0,6,0,0,0,0,0,0,0,0,0,0,0,0,0,0,20,0,0,0,0,0
FR,France,country,Europe and Central Asia,46.227638,2.213749,QA,Qatar,country,Middle East and North Africa,25.354826,51.183884,4895.64442622759,1991,4829,530,0,588,5,0,0,9,123,0,7,1,36,146,63,213,0,2448,660,0,0,0,0,0
GR,Greece,country,Europe and Central Asia,39.074208,21.824312,QA,Qatar,country,Middle East and North Africa,25.354826,51.183884,3138.41931698602,1991,351,7,0,12,0,0,0,316,1,0,4,0,6,5,0,0,0,0,0,0,0,0,0,0
GT,Guatemala,country,Latin America and the Caribbean,15.783471,-90.230759,QA,Qatar,country,Middle East and North Africa,25.354826,51.183884,13835.0539317015,1991,201,0,0,1,0,0,0,0,0,0,161,0,39,0,0,0,0,0,0,0,0,0,0,0
HU,Hungary,country,Europe and Central Asia,47.162494,19.503304,QA,Qatar,country,Middle East and North Africa,25.354826,51.183884,3694.46088140632,1991,26,0,0,0,0,0,0,0,1,0,0,0,0,0,0,0,0,0,25,0,0,0,0,0
IN,India,country,South Asia,20.593684,78.96288,QA,Qatar,country,Middle East and North Africa,25.354826,51.183884,2890.46548305451,1991,15369,2368,80,76,1010,64,37,8449,1177,14,373,30,650,175,26,16,0,792,32,0,0,0,0,0
ID,Indonesia,country,East Asia and Pacific,-0.789275,113.921327,QA,Qatar,country,Middle East and North Africa,25.354826,51.183884,7338.21855402515,1991,569,21,120,123,0,0,4,224,16,0,19,0,24,4,0,0,0,8,6,0,0,0,0,0
IR,Iran,country,Middle East and North Africa,32.427908,53.688046,QA,Qatar,country,Middle East and North Africa,25.354826,51.183884,824.242618121911,1991,20484,33,384,20,121,332,6,13911,4951,0,183,334,6,194,0,9,0,0,0,0,0,0,0,0
IE,Ireland,country,Europe and Central Asia,53.41291,-8.24389,QA,Qatar,country,Middle East and North Africa,25.354826,51.183884,5771.27032392702,1991,245,16,0,0,0,0,0,0,2,0,0,0,0,0,4,78,0,48,97,0,0,0,0,0
IT,Italy,country,Europe and Central Asia,41.87194,12.56738,QA,Qatar,country,Middle East and North Africa,25.354826,51.183884,3979.42184482395,1991,1015,572,0,40,95,0,0,76,58,0,0,0,46,6,0,0,0,119,3,0,0,0,0,0
JP,Japan,country,East Asia and Pacific,36.204824,138.252924,QA,Qatar,country,Middle East and North Africa,25.354826,51.183884,8140.63594225345,1991,174,55,0,11,0,0,0,49,22,0,0,0,2,35,0,0,0,0,0,0,0,0,0,0
JO,Jordan,country,Middle East and North Africa,30.585164,36.238414,QA,Qatar,country,Middle East and North Africa,25.354826,51.183884,1578.80501435514,1991,28147,5,651,12,42,3,0,23192,3953,0,48,0,4,31,74,0,0,0,132,0,0,0,0,0
KE,Kenya,country,Sub-Saharan Africa,-0.023559,37.906193,QA,Qatar,country,Middle East and North Africa,25.354826,51.183884,3165.60377832167,1991,31,0,0,0,0,0,0,0,12,0,0,0,19,0,0,0,0,0,0,0,0,0,0,0
KW,Kuwait,country,Middle East and North Africa,29.31166,47.481766,QA,Qatar,country,Middle East and North Africa,25.354826,51.183884,572.663535541343,1991,157,22,0,0,0,0,0,33,30,0,0,0,0,0,0,0,0,0,72,0,0,0,0,0
LB,Lebanon,country,Middle East and North Africa,33.854721,35.862285,QA,Qatar,country,Middle East and North Africa,25.354826,51.183884,1755.91107323137,1991,12867,35,4253,193,35,13,7,3059,4903,0,23,11,127,27,59,92,0,4,26,0,0,0,0,0
LY,Libya,country,Middle East and North Africa,26.3351,17.228331,QA,Qatar,country,Middle East and North Africa,25.354826,51.183884,3393.79092946569,1991,30,0,27,0,0,0,0,0,3,0,0,0,0,0,0,0,0,0,0,0,0,0,0,0
MG,Madagascar,country,Sub-Saharan Africa,-18.766947,46.869107,QA,Qatar,country,Middle East and North Africa,25.354826,51.183884,4933.79086015172,1991,23,0,0,0,0,0,0,0,0,0,23,0,0,0,0,0,0,0,0,0,0,0,0,0
MY,Malaysia,country,East Asia and Pacific,4.210484,101.975766,QA,Qatar,country,Middle East and North Africa,25.354826,51.183884,5905.27589013407,1991,1170,74,91,55,132,3,142,273,104,0,15,0,32,183,12,54,0,0,0,0,0,0,0,0
MT,Malta,country,Middle East and North Africa,35.937496,14.375416,QA,Qatar,country,Middle East and North Africa,25.354826,51.183884,3691.5676859738,1991,193,31,0,28,0,0,0,0,9,0,0,0,4,111,3,7,0,0,0,0,0,0,0,0
MX,Mexico,country,Latin America and the Caribbean,23.634501,-102.552784,QA,Qatar,country,Middle East and North Africa,25.354826,51.183884,13892.861932842,1991,0,0,0,0,0,0,0,0,0,0,0,0,0,0,0,0,0,0,0,0,0,0,0,0
MC,Monaco,country,Europe and Central Asia,43.750298,7.412841,QA,Qatar,country,Middle East and North Africa,25.354826,51.183884,4438.31196671192,1991,3,0,0,0,0,0,0,0,0,0,0,0,0,0,0,3,0,0,0,0,0,0,0,0
MA,Morocco,country,Middle East and North Africa,31.791702,-7.09262,QA,Qatar,country,Middle East and North Africa,25.354826,51.183884,5675.97207688539,1991,75,0,0,0,0,0,0,52,23,0,0,0,0,0,0,0,0,0,0,0,0,0,0,0
MZ,Mozambique,country,Sub-Saharan Africa,-18.665695,35.529562,QA,Qatar,country,Middle East and North Africa,25.354826,51.183884,5185.32210576508,1991,566,0,0,0,0,0,0,1,565,0,0,0,0,0,0,0,0,0,0,0,0,0,0,0
NL,Netherlands,country,Europe and Central Asia,52.132633,5.291266,QA,Qatar,country,Middle East and North Africa,25.354826,51.183884,4853.89419546757,1991,8170,203,59,68,20,0,0,172,170,0,0,1007,105,89,528,422,0,296,5031,0,0,0,0,0
NZ,New Zealand,country,East Asia and Pacific,-40.900557,174.885971,QA,Qatar,country,Middle East and North Africa,25.354826,51.183884,14610.9649601459,1991,1680,3,0,0,10,0,0,5,125,0,3,0,0,0,0,0,0,739,795,0,0,0,0,0
NO,Norway,country,Europe and Central Asia,60.472024,8.468946,QA,Qatar,country,Middle East and North Africa,25.354826,51.183884,5074.62552742738,1991,33,30,0,0,0,0,0,0,0,0,0,0,0,3,0,0,0,0,0,0,0,0,0,0
OM,Oman,country,Middle East and North Africa,21.512583,55.923255,QA,Qatar,country,Middle East and North Africa,25.354826,51.183884,645.837727578887,1991,2517,60,34,12,3,0,0,226,569,0,0,955,2,71,12,456,0,0,117,0,0,0,0,0
PK,Pakistan,country,South Asia,30.375321,69.345116,QA,Qatar,country,Middle East and North Africa,25.354826,51.183884,1870.04838492386,1991,20665,17574,184,2,3,5,0,1296,1139,154,213,0,5,19,0,64,0,7,0,0,0,0,0,0
PE,Peru,country,Latin America and the Caribbean,-9.189967,-75.015152,QA,Qatar,country,Middle East and North Africa,25.354826,51.183884,14085.2465527622,1991,15,0,0,0,0,0,0,0,15,0,0,0,0,0,0,0,0,0,0,0,0,0,0,0
PH,Philippines,country,East Asia and Pacific,12.879721,121.774017,QA,Qatar,country,Middle East and North Africa,25.354826,51.183884,7475.87054064651,1991,5063,28,0,0,1,0,9,3,4883,0,2,0,15,105,0,17,0,0,0,0,0,0,0,0
PL,Poland,country,Europe and Central Asia,51.919438,19.145136,QA,Qatar,country,Middle East and North Africa,25.354826,51.183884,4001.83128431686,1991,35,0,0,0,0,0,0,0,0,0,0,0,0,0,0,0,0,0,35,0,0,0,0,0
PT,Portugal,country,Europe and Central Asia,39.399872,-8.224454,QA,Qatar,country,Middle East and North Africa,25.354826,51.183884,5694.82931882001,1991,9,0,0,0,0,0,0,9,0,0,0,0,0,0,0,0,0,0,0,0,0,0,0,0
KR,"Korea, Rep.",country,East Asia and Pacific,35.907757,127.766922,QA,Qatar,country,Middle East and North Africa,25.354826,51.183884,7247.28025769129,1991,71,0,0,58,3,0,0,1,0,0,2,0,4,3,0,0,0,0,0,0,0,0,0,0
SA,Saudi Arabia,country,Middle East and North Africa,23.885942,45.079162,QA,Qatar,country,Middle East and North Africa,25.354826,51.183884,638.990388286206,1991,41242,649,69,265,2,2,0,2226,2649,2,0,25221,58,38,2157,2419,0,246,5239,0,0,0,0,0
SG,Singapore,country,East Asia and Pacific,1.352083,103.819836,QA,Qatar,country,Middle East and North Africa,25.354826,51.183884,6240.21727791532,1991,3793,34,38,51,6,9,0,0,16,0,7,28,13,115,3344,113,0,0,19,0,0,0,0,0
SO,Somalia,country,Sub-Saharan Africa,5.152149,46.199616,QA,Qatar,country,Middle East and North Africa,25.354826,51.183884,2310.98944218845,1991,65,0,0,0,0,0,65,0,0,0,0,0,0,0,0,0,0,0,0,0,0,0,0,0
ES,Spain,country,Europe and Central Asia,40.463667,-3.74922,QA,Qatar,country,Middle East and North Africa,25.354826,51.183884,5310.81937791307,1991,925,6,0,38,68,0,0,523,40,0,3,10,39,0,193,0,0,5,0,0,0,0,0,0
LK,Sri Lanka,country,South Asia,7.873054,80.771797,QA,Qatar,country,Middle East and North Africa,25.354826,51.183884,3692.08702970037,1991,829,41,0,0,6,46,130,188,54,0,4,0,94,8,6,0,0,252,0,0,0,0,0,0
SD,Sudan,country,Sub-Saharan Africa,12.862807,30.217636,QA,Qatar,country,Middle East and North Africa,25.354826,51.183884,2600.98745827774,1991,233,0,0,0,0,0,0,0,230,0,3,0,0,0,0,0,0,0,0,0,0,0,0,0
SZ,Swaziland,country,Sub-Saharan Africa,-26.522503,31.465866,QA,Qatar,country,Middle East and North Africa,25.354826,51.183884,6150.87117330842,1991,1715,0,0,0,0,0,0,2,1708,0,0,0,0,0,0,0,0,5,0,0,0,0,0,0
SE,Sweden,country,Europe and Central Asia,60.128161,18.643501,QA,Qatar,country,Middle East and North Africa,25.354826,51.183884,4602.39331635238,1991,51,0,0,33,0,0,0,0,2,0,0,0,0,16,0,0,0,0,0,0,0,0,0,0
CH,Switzerland,country,Europe and Central Asia,46.818188,8.227512,QA,Qatar,country,Middle East and North Africa,25.354826,51.183884,4464.69294166418,1991,487,22,0,0,0,0,0,0,10,0,0,0,40,154,0,190,0,1,70,0,0,0,0,0
SY,Syrian Arab Rep.,country,Middle East and North Africa,34.802075,38.996815,QA,Qatar,country,Middle East and North Africa,25.354826,51.183884,1573.72646731644,1991,4096,0,1008,23,136,5,0,1814,683,1,9,34,5,6,16,17,0,0,339,0,0,0,0,0
TH,Thailand,country,East Asia and Pacific,15.870032,100.992541,QA,Qatar,country,Middle East and North Africa,25.354826,51.183884,5266.35918492563,1991,3451,2791,54,133,166,0,12,55,158,0,6,7,4,22,19,24,0,0,0,0,0,0,0,0
TN,Tunisia,country,Middle East and North Africa,33.886917,9.537499,QA,Qatar,country,Middle East and North Africa,25.354826,51.183884,4111.41302133711,1991,140,23,0,8,0,0,0,0,57,0,0,0,7,27,18,0,0,0,0,0,0,0,0,0
TR,Turkey,country,Europe and Central Asia,38.963745,35.243322,QA,Qatar,country,Middle East and North Africa,25.354826,51.183884,2127.04565436248,1991,3795,222,223,45,477,26,0,1419,1245,0,18,0,72,17,0,0,0,16,15,0,0,0,0,0
AE,United Arab Emirates,country,Middle East and North Africa,23.424076,53.847818,QA,Qatar,country,Middle East and North Africa,25.354826,51.183884,345.147488919567,1991,18206,3265,185,149,8,49,0,1220,1754,0,0,2129,15,137,1310,6884,0,230,871,0,0,0,0,0
GB,United Kingdom,country,Europe and Central Asia,55.378051,-3.435973,QA,Qatar,country,Middle East and North Africa,25.354826,51.183884,5508.47058423377,1991,4558,425,6,125,68,5,0,363,234,0,8,214,863,730,95,392,0,14,1016,0,0,0,0,0
TZ,Tanzania,country,Sub-Saharan Africa,-6.369028,34.888822,QA,Qatar,country,Middle East and North Africa,25.354826,51.183884,3947.44892099199,1991,5,0,0,0,0,0,0,0,0,0,5,0,0,0,0,0,0,0,0,0,0,0,0,0
US,USA,country,North America,37.09024,-95.712891,QA,Qatar,country,Middle East and North Africa,25.354826,51.183884,12269.4355771819,1991,11877,7050,29,108,199,122,41,484,1326,0,106,42,151,1300,110,89,0,606,114,0,0,0,0,0
UY,Uruguay,country,Latin America and the Caribbean,-32.522779,-55.765835,QA,Qatar,country,Middle East and North Africa,25.354826,51.183884,13012.7332702695,1991,28,0,0,0,0,0,0,0,28,0,0,0,0,0,0,0,0,0,0,0,0,0,0,0
BA,Bosnia & Herzegovina,country,Europe and Central Asia,43.915886,17.679076,QA,Qatar,country,Middle East and North Africa,25.354826,51.183884,3660.06476558476,1991,76,0,0,8,2,0,0,21,0,0,0,0,3,5,0,0,0,17,20,0,0,0,0,0
AF,Afghanistan,country,South Asia,33.93911,67.709953,QA,Qatar,country,Middle East and North Africa,25.354826,51.183884,1858.93735856554,1992,5,0,0,0,0,3,0,0,2,0,0,0,0,0,0,0,0,0,0,0,0,0,0,0
AR,Argentina,country,Latin America and the Caribbean,-38.416097,-63.616672,QA,Qatar,country,Middle East and North Africa,25.354826,51.183884,13833.5780448946,1992,6042,6010,0,2,12,0,0,18,0,0,0,0,0,0,0,0,0,0,0,0,0,0,0,0
AU,Australia,country,East Asia and Pacific,-25.274398,133.775136,QA,Qatar,country,Middle East and North Africa,25.354826,51.183884,10513.3003057911,1992,89317,84932,0,60,702,0,1,381,101,0,2,828,21,52,15,383,0,1417,422,0,0,0,0,0
AT,Austria,country,Europe and Central Asia,47.516231,14.550072,QA,Qatar,country,Middle East and North Africa,25.354826,51.183884,4044.81151352353,1992,208,0,0,7,0,0,0,0,48,0,0,13,37,4,0,68,0,7,24,0,0,0,0,0
BH,Bahrain,country,Middle East and North Africa,25.930414,50.637772,QA,Qatar,country,Middle East and North Africa,25.354826,51.183884,84.3154243988478,1992,2568,81,25,4,0,0,0,31,62,0,19,0,20,9,2126,163,0,19,3,6,0,0,0,0
BD,Bangladesh,country,South Asia,23.684994,90.356331,QA,Qatar,country,Middle East and North Africa,25.354826,51.183884,3957.70887263231,1992,1020,0,0,0,0,0,0,1001,14,0,0,0,2,3,0,0,0,0,0,0,0,0,0,0
BE,Belgium,country,Europe and Central Asia,50.503887,4.469936,QA,Qatar,country,Middle East and North Africa,25.354826,51.183884,4850.26746905,1992,2236,124,10,1226,4,0,0,265,59,0,0,23,27,154,4,0,0,67,273,0,0,0,0,0
BW,Botswana,country,Sub-Saharan Africa,-22.328474,24.684866,QA,Qatar,country,Middle East and North Africa,25.354826,51.183884,6029.97174045657,1992,1048,0,0,0,0,0,0,0,18,0,0,0,0,0,1030,0,0,0,0,0,0,0,0,0
BR,Brazil,country,Latin America and the Caribbean,-14.235004,-51.92528,QA,Qatar,country,Middle East and North Africa,25.354826,51.183884,11988.6607078962,1992,10085,0,0,18,0,0,0,0,156,0,0,0,10,0,0,0,0,9901,0,0,0,0,0,0
BF,Burkina Faso,country,Sub-Saharan Africa,12.238333,-1.561593,QA,Qatar,country,Middle East and North Africa,25.354826,51.183884,5709.51130360037,1992,11,0,0,0,11,0,0,0,0,0,0,0,0,0,0,0,0,0,0,0,0,0,0,0
KH,Cambodia,country,East Asia and Pacific,12.565679,104.990963,QA,Qatar,country,Middle East and North Africa,25.354826,51.183884,5802.00032310029,1992,0,0,0,0,0,0,0,0,0,0,0,0,0,0,0,0,0,0,0,0,0,0,0,0
CA,Canada,country,North America,56.130366,-106.346771,QA,Qatar,country,Middle East and North Africa,25.354826,51.183884,10720.6947495884,1992,240,31,0,9,11,0,15,68,0,0,0,0,0,100,0,2,0,0,4,0,0,0,0,0
TD,Chad,country,Sub-Saharan Africa,15.454166,18.732207,QA,Qatar,country,Middle East and North Africa,25.354826,51.183884,3549.59413178794,1992,2,0,0,0,0,0,0,0,2,0,0,0,0,0,0,0,0,0,0,0,0,0,0,0
CL,Chile,country,Latin America and the Caribbean,-35.675147,-71.542969,QA,Qatar,country,Middle East and North Africa,25.354826,51.183884,14503.4056622373,1992,1931,0,0,7,0,0,0,21,1903,0,0,0,0,0,0,0,0,0,0,0,0,0,0,0
HK,Hong Kong,country,East Asia and Pacific,22.396428,114.109497,QA,Qatar,country,Middle East and North Africa,25.354826,51.183884,6354.3433796268,1992,49,23,0,5,0,0,0,21,0,0,0,0,0,0,0,0,0,0,0,0,0,0,0,0
CN,China,country,East Asia and Pacific,35.86166,104.195397,QA,Qatar,country,Middle East and North Africa,25.354826,51.183884,5148.65977529813,1992,4004,1430,3,79,42,29,5,1474,523,5,104,0,53,116,8,0,0,129,4,0,0,0,0,0
TW,Taiwan,country,East Asia and Pacific,23.69781,120.960515,QA,Qatar,country,Middle East and North Africa,25.354826,51.183884,6983.31660815456,1992,113,31,0,24,0,0,0,44,2,0,0,0,3,9,0,0,0,0,0,0,0,0,0,0
CO,Colombia,country,Latin America and the Caribbean,4.570868,-74.297333,QA,Qatar,country,Middle East and North Africa,25.354826,51.183884,13275.6464070741,1992,108,0,0,0,0,0,0,2,106,0,0,0,0,0,0,0,0,0,0,0,0,0,0,0
CR,Costa Rica,country,Latin America and the Caribbean,9.748917,-83.753428,QA,Qatar,country,Middle East and North Africa,25.354826,51.183884,13783.4220465229,1992,140,0,0,0,0,0,0,0,0,0,0,0,140,0,0,0,0,0,0,0,0,0,0,0
CI,Ivory Coast,country,Sub-Saharan Africa,7.539989,-5.54708,QA,Qatar,country,Middle East and North Africa,25.354826,51.183884,6322.4134041144,1992,5,0,0,0,0,0,0,0,0,0,0,0,5,0,0,0,0,0,0,0,0,0,0,0
CU,Cuba,country,Latin America and the Caribbean,21.521757,-77.781167,QA,Qatar,country,Middle East and North Africa,25.354826,51.183884,12446.8061583985,1992,0,0,0,0,0,0,0,0,0,0,0,0,0,0,0,0,0,0,0,0,0,0,0,0
CY,Cyprus,country,Europe and Central Asia,35.126413,33.429859,QA,Qatar,country,Middle East and North Africa,25.354826,51.183884,2019.46943000519,1992,156,13,0,9,4,0,0,17,8,0,0,7,9,16,0,56,0,2,15,0,0,0,0,0
CZ,Czech Republic,country,Europe and Central Asia,49.817492,15.472962,QA,Qatar,country,Middle East and North Africa,25.354826,51.183884,4097.98161753022,1992,33,0,0,0,0,0,0,0,0,0,0,0,0,0,0,0,0,0,33,0,0,0,0,0
DK,Denmark,country,Europe and Central Asia,56.26392,9.501785,QA,Qatar,country,Middle East and North Africa,25.354826,51.183884,4790.67468566132,1992,4453,25,5,10,65,0,39,122,53,0,0,0,0,33,74,98,0,1978,1951,0,0,0,0,0
EC,Ecuador,country,Latin America and the Caribbean,-1.831239,-78.183406,QA,Qatar,country,Middle East and North Africa,25.354826,51.183884,14016.7718260196,1992,40,0,0,0,0,0,0,0,40,0,0,0,0,0,0,0,0,0,0,0,0,0,0,0
EG,Egypt,country,Middle East and North Africa,26.820553,30.802498,QA,Qatar,country,Middle East and North Africa,25.354826,51.183884,2042.03510875953,1992,5170,314,381,65,106,2,0,1570,2118,0,6,0,21,114,1,43,0,296,133,0,0,0,0,0
FI,Finland,country,Europe and Central Asia,61.92411,25.748151,QA,Qatar,country,Middle East and North Africa,25.354826,51.183884,4493.63724887276,1992,29,0,0,29,0,0,0,0,0,0,0,0,0,0,0,0,0,0,0,0,0,0,0,0
FR,France,country,Europe and Central Asia,46.227638,2.213749,QA,Qatar,country,Middle East and North Africa,25.354826,51.183884,4895.64442622759,1992,3566,279,0,615,0,0,0,14,161,0,0,1,32,108,37,409,0,1408,502,0,0,0,0,0
DE,Germany,country,Europe and Central Asia,51.165691,10.451526,QA,Qatar,country,Middle East and North Africa,25.354826,51.183884,4483.1973558276,1992,10153,156,2,8842,6,0,0,2,7,0,3,492,23,24,34,127,0,75,360,0,0,0,0,0
GH,Ghana,country,Sub-Saharan Africa,7.946527,-1.023194,QA,Qatar,country,Middle East and North Africa,25.354826,51.183884,5853.09843810631,1992,18,0,0,0,0,0,0,0,0,0,0,0,18,0,0,0,0,0,0,0,0,0,0,0
GR,Greece,country,Europe and Central Asia,39.074208,21.824312,QA,Qatar,country,Middle East and North Africa,25.354826,51.183884,3138.41931698602,1992,286,3,0,5,0,0,0,104,0,0,0,0,4,168,0,2,0,0,0,0,0,0,0,0
GT,Guatemala,country,Latin America and the Caribbean,15.783471,-90.230759,QA,Qatar,country,Middle East and North Africa,25.354826,51.183884,13835.0539317015,1992,107,0,0,0,0,0,0,0,0,0,106,0,1,0,0,0,0,0,0,0,0,0,0,0
HN,Honduras,country,Latin America and the Caribbean,15.199999,-86.241905,QA,Qatar,country,Middle East and North Africa,25.354826,51.183884,13580.9137748294,1992,187,0,0,0,0,0,0,0,187,0,0,0,0,0,0,0,0,0,0,0,0,0,0,0
HU,Hungary,country,Europe and Central Asia,47.162494,19.503304,QA,Qatar,country,Middle East and North Africa,25.354826,51.183884,3694.46088140632,1992,123,2,0,0,3,0,0,113,0,0,0,0,0,2,0,0,0,0,3,0,0,0,0,0
IS,Iceland,country,Europe and Central Asia,64.963051,-19.020835,QA,Qatar,country,Middle East and North Africa,25.354826,51.183884,6549.50693367197,1992,1,0,0,1,0,0,0,0,0,0,0,0,0,0,0,0,0,0,0,0,0,0,0,0
IN,India,country,South Asia,20.593684,78.96288,QA,Qatar,country,Middle East and North Africa,25.354826,51.183884,2890.46548305451,1992,21947,3185,24,45,1432,58,2198,10497,1318,2,550,91,867,229,51,23,0,1326,51,0,0,0,0,0
ID,Indonesia,country,East Asia and Pacific,-0.789275,113.921327,QA,Qatar,country,Middle East and North Africa,25.354826,51.183884,7338.21855402515,1992,631,9,154,32,0,0,26,263,96,0,6,0,4,3,38,0,0,0,0,0,0,0,0,0
IR,Iran,country,Middle East and North Africa,32.427908,53.688046,QA,Qatar,country,Middle East and North Africa,25.354826,51.183884,824.242618121911,1992,17119,18,99,20,158,356,7,11103,4635,0,137,200,0,56,3,307,0,0,20,0,0,0,0,0
IE,Ireland,country,Europe and Central Asia,53.41291,-8.24389,QA,Qatar,country,Middle East and North Africa,25.354826,51.183884,5771.27032392702,1992,450,8,0,0,0,0,0,79,0,0,0,0,0,0,0,14,0,220,129,0,0,0,0,0
IT,Italy,country,Europe and Central Asia,41.87194,12.56738,QA,Qatar,country,Middle East and North Africa,25.354826,51.183884,3979.42184482395,1992,752,323,0,105,7,0,0,133,62,2,0,0,5,26,0,11,0,78,0,0,0,0,0,0
JP,Japan,country,East Asia and Pacific,36.204824,138.252924,QA,Qatar,country,Middle East and North Africa,25.354826,51.183884,8140.63594225345,1992,74,9,0,12,0,8,0,0,19,0,0,0,0,26,0,0,0,0,0,0,0,0,0,0
JO,Jordan,country,Middle East and North Africa,30.585164,36.238414,QA,Qatar,country,Middle East and North Africa,25.354826,51.183884,1578.80501435514,1992,26161,75,581,39,40,4,0,21066,4221,0,41,0,2,3,18,24,0,19,28,0,0,0,0,0
KE,Kenya,country,Sub-Saharan Africa,-0.023559,37.906193,QA,Qatar,country,Middle East and North Africa,25.354826,51.183884,3165.60377832167,1992,44,0,0,0,0,0,0,0,34,0,0,0,10,0,0,0,0,0,0,0,0,0,0,0
KW,Kuwait,country,Middle East and North Africa,29.31166,47.481766,QA,Qatar,country,Middle East and North Africa,25.354826,51.183884,572.663535541343,1992,1185,80,0,2,118,0,0,107,207,0,0,66,0,0,0,553,0,0,52,0,0,0,0,0
LA,Lao PDR,country,East Asia and Pacific,19.85627,102.495496,QA,Qatar,country,Middle East and North Africa,25.354826,51.183884,5277.72167974539,1992,30,0,0,0,0,0,0,0,0,0,0,30,0,0,0,0,0,0,0,0,0,0,0,0
LB,Lebanon,country,Middle East and North Africa,33.854721,35.862285,QA,Qatar,country,Middle East and North Africa,25.354826,51.183884,1755.91107323137,1992,13131,57,2413,78,27,11,0,2593,7549,0,32,0,113,51,47,34,0,1,125,0,0,0,0,0
LY,Libya,country,Middle East and North Africa,26.3351,17.228331,QA,Qatar,country,Middle East and North Africa,25.354826,51.183884,3393.79092946569,1992,57,0,0,0,0,0,0,4,0,0,0,0,0,0,0,0,0,0,53,0,0,0,0,0
MG,Madagascar,country,Sub-Saharan Africa,-18.766947,46.869107,QA,Qatar,country,Middle East and North Africa,25.354826,51.183884,4933.79086015172,1992,12,0,0,0,0,0,0,0,0,0,12,0,0,0,0,0,0,0,0,0,0,0,0,0
MY,Malaysia,country,East Asia and Pacific,4.210484,101.975766,QA,Qatar,country,Middle East and North Africa,25.354826,51.183884,5905.27589013407,1992,1025,161,79,51,12,2,76,199,148,0,26,0,5,140,89,27,0,10,0,0,0,0,0,0
MT,Malta,country,Middle East and North Africa,35.937496,14.375416,QA,Qatar,country,Middle East and North Africa,25.354826,51.183884,3691.5676859738,1992,400,134,0,1,0,0,0,2,83,0,0,0,3,122,5,50,0,0,0,0,0,0,0,0
MX,Mexico,country,Latin America and the Caribbean,23.634501,-102.552784,QA,Qatar,country,Middle East and North Africa,25.354826,51.183884,13892.861932842,1992,3,0,0,1,0,0,0,0,0,0,2,0,0,0,0,0,0,0,0,0,0,0,0,0
MN,Mongolia,country,East Asia and Pacific,46.862496,103.846656,QA,Qatar,country,Middle East and North Africa,25.354826,51.183884,5186.21315969912,1992,11,10,0,0,0,0,0,1,0,0,0,0,0,0,0,0,0,0,0,0,0,0,0,0
MA,Morocco,country,Middle East and North Africa,31.791702,-7.09262,QA,Qatar,country,Middle East and North Africa,25.354826,51.183884,5675.97207688539,1992,20,0,0,0,0,0,0,20,0,0,0,0,0,0,0,0,0,0,0,0,0,0,0,0
MZ,Mozambique,country,Sub-Saharan Africa,-18.665695,35.529562,QA,Qatar,country,Middle East and North Africa,25.354826,51.183884,5185.32210576508,1992,464,0,0,0,0,0,0,0,461,0,3,0,0,0,0,0,0,0,0,0,0,0,0,0
NP,Nepal,country,South Asia,28.394857,84.124008,QA,Qatar,country,Middle East and North Africa,25.354826,51.183884,3278.22469513691,1992,0,0,0,0,0,0,0,0,0,0,0,0,0,0,0,0,0,0,0,0,0,0,0,0
NL,Netherlands,country,Europe and Central Asia,52.132633,5.291266,QA,Qatar,country,Middle East and North Africa,25.354826,51.183884,4853.89419546757,1992,11028,256,54,60,21,0,0,168,222,0,0,750,96,233,460,727,0,267,7714,0,0,0,0,0
NZ,New Zealand,country,East Asia and Pacific,-40.900557,174.885971,QA,Qatar,country,Middle East and North Africa,25.354826,51.183884,14610.9649601459,1992,1412,17,0,0,11,0,0,0,145,0,0,0,0,2,0,50,0,462,725,0,0,0,0,0
OM,Oman,country,Middle East and North Africa,21.512583,55.923255,QA,Qatar,country,Middle East and North Africa,25.354826,51.183884,645.837727578887,1992,2463,63,168,5,5,0,0,815,494,0,0,552,5,20,63,172,0,0,101,0,0,0,0,0
PK,Pakistan,country,South Asia,30.375321,69.345116,QA,Qatar,country,Middle East and North Africa,25.354826,51.183884,1870.04838492386,1992,17473,15219,3,4,0,1,0,785,1028,153,221,0,3,19,0,35,0,0,0,2,0,0,0,0
PA,Panama,country,Latin America and the Caribbean,8.537981,-80.782127,QA,Qatar,country,Middle East and North Africa,25.354826,51.183884,13611.7456300628,1992,11,0,0,0,0,0,0,0,11,0,0,0,0,0,0,0,0,0,0,0,0,0,0,0
PH,Philippines,country,East Asia and Pacific,12.879721,121.774017,QA,Qatar,country,Middle East and North Africa,25.354826,51.183884,7475.87054064651,1992,4637,11,0,2,0,2,0,9,4436,0,0,0,0,115,0,62,0,0,0,0,0,0,0,0
PL,Poland,country,Europe and Central Asia,51.919438,19.145136,QA,Qatar,country,Middle East and North Africa,25.354826,51.183884,4001.83128431686,1992,20,0,0,2,0,0,0,0,13,0,0,0,0,0,0,0,0,0,5,0,0,0,0,0
PT,Portugal,country,Europe and Central Asia,39.399872,-8.224454,QA,Qatar,country,Middle East and North Africa,25.354826,51.183884,5694.82931882001,1992,4,0,0,0,0,0,0,0,0,0,0,0,0,0,0,4,0,0,0,0,0,0,0,0
KR,"Korea, Rep.",country,East Asia and Pacific,35.907757,127.766922,QA,Qatar,country,Middle East and North Africa,25.354826,51.183884,7247.28025769129,1992,101,41,0,41,0,0,0,0,6,0,2,0,1,10,0,0,0,0,0,0,0,0,0,0
SA,Saudi Arabia,country,Middle East and North Africa,23.885942,45.079162,QA,Qatar,country,Middle East and North Africa,25.354826,51.183884,638.990388286206,1992,36948,552,96,244,0,0,4,3544,2452,0,2,21483,29,58,963,2101,0,427,4993,0,0,0,0,0
SG,Singapore,country,East Asia and Pacific,1.352083,103.819836,QA,Qatar,country,Middle East and North Africa,25.354826,51.183884,6240.21727791532,1992,3721,51,19,50,0,7,0,0,19,0,43,27,10,85,3337,56,0,0,17,0,0,0,0,0
SO,Somalia,country,Sub-Saharan Africa,5.152149,46.199616,QA,Qatar,country,Middle East and North Africa,25.354826,51.183884,2310.98944218845,1992,17,0,0,0,0,0,17,0,0,0,0,0,0,0,0,0,0,0,0,0,0,0,0,0
ES,Spain,country,Europe and Central Asia,40.463667,-3.74922,QA,Qatar,country,Middle East and North Africa,25.354826,51.183884,5310.81937791307,1992,916,6,0,34,16,0,0,431,70,0,1,12,44,53,194,8,0,39,8,0,0,0,0,0
LK,Sri Lanka,country,South Asia,7.873054,80.771797,QA,Qatar,country,Middle East and North Africa,25.354826,51.183884,3692.08702970037,1992,798,27,0,12,4,55,232,249,65,0,1,0,140,6,1,0,0,0,6,0,0,0,0,0
SD,Sudan,country,Sub-Saharan Africa,12.862807,30.217636,QA,Qatar,country,Middle East and North Africa,25.354826,51.183884,2600.98745827774,1992,406,0,0,0,0,0,52,22,297,0,0,0,0,6,1,0,0,15,13,0,0,0,0,0
SZ,Swaziland,country,Sub-Saharan Africa,-26.522503,31.465866,QA,Qatar,country,Middle East and North Africa,25.354826,51.183884,6150.87117330842,1992,2440,0,0,0,2,0,0,2,2436,0,0,0,0,0,0,0,0,0,0,0,0,0,0,0
SE,Sweden,country,Europe and Central Asia,60.128161,18.643501,QA,Qatar,country,Middle East and North Africa,25.354826,51.183884,4602.39331635238,1992,63,21,0,0,0,0,0,0,0,0,0,0,0,6,0,0,0,0,26,10,0,0,0,0
CH,Switzerland,country,Europe and Central Asia,46.818188,8.227512,QA,Qatar,country,Middle East and North Africa,25.354826,51.183884,4464.69294166418,1992,367,39,0,0,0,0,0,0,2,0,0,5,21,144,0,82,0,16,58,0,0,0,0,0
SY,Syrian Arab Rep.,country,Middle East and North Africa,34.802075,38.996815,QA,Qatar,country,Middle East and North Africa,25.354826,51.183884,1573.72646731644,1992,5470,26,3340,61,49,18,0,873,846,0,4,23,11,23,7,0,0,0,189,0,0,0,0,0
TH,Thailand,country,East Asia and Pacific,15.870032,100.992541,QA,Qatar,country,Middle East and North Africa,25.354826,51.183884,5266.35918492563,1992,4929,4328,29,196,86,3,0,56,162,0,15,0,2,6,0,27,0,2,17,0,0,0,0,0
TN,Tunisia,country,Middle East and North Africa,33.886917,9.537499,QA,Qatar,country,Middle East and North Africa,25.354826,51.183884,4111.41302133711,1992,185,49,0,12,0,0,0,4,40,0,0,0,6,74,0,0,0,0,0,0,0,0,0,0
TR,Turkey,country,Europe and Central Asia,38.963745,35.243322,QA,Qatar,country,Middle East and North Africa,25.354826,51.183884,2127.04565436248,1992,2499,380,248,120,268,34,0,411,911,0,12,0,34,19,9,36,0,0,17,0,0,0,0,0
AE,United Arab Emirates,country,Middle East and North Africa,23.424076,53.847818,QA,Qatar,country,Middle East and North Africa,25.354826,51.183884,345.147488919567,1992,19316,3985,155,173,0,28,5,1336,880,0,2,891,7,247,1557,8772,0,213,1065,0,0,0,0,0
GB,United Kingdom,country,Europe and Central Asia,55.378051,-3.435973,QA,Qatar,country,Middle East and North Africa,25.354826,51.183884,5508.47058423377,1992,4266,321,25,219,33,0,0,361,196,0,6,279,753,820,75,480,0,243,455,0,0,0,0,0
TZ,Tanzania,country,Sub-Saharan Africa,-6.369028,34.888822,QA,Qatar,country,Middle East and North Africa,25.354826,51.183884,3947.44892099199,1992,3,0,0,0,0,0,0,0,0,0,3,0,0,0,0,0,0,0,0,0,0,0,0,0
US,USA,country,North America,37.09024,-95.712891,QA,Qatar,country,Middle East and North Africa,25.354826,51.183884,12269.4355771819,1992,14147,9205,42,68,78,111,88,571,1415,0,44,40,69,1363,203,141,0,545,164,0,0,0,0,0
UY,Uruguay,country,Latin America and the Caribbean,-32.522779,-55.765835,QA,Qatar,country,Middle East and North Africa,25.354826,51.183884,13012.7332702695,1992,73,0,0,0,0,0,0,0,73,0,0,0,0,0,0,0,0,0,0,0,0,0,0,0
VN,Vietnam,country,East Asia and Pacific,14.058324,108.277199,QA,Qatar,country,Middle East and North Africa,25.354826,51.183884,6070.41396758098,1992,14,0,0,0,0,0,0,0,0,0,14,0,0,0,0,0,0,0,0,0,0,0,0,0
YE,Yemen,country,Middle East and North Africa,15.552727,48.516388,QA,Qatar,country,Middle East and North Africa,25.354826,51.183884,1125.95689628297,1992,137,8,0,0,0,0,0,0,1,0,0,101,1,26,0,0,0,0,0,0,0,0,0,0
AF,Afghanistan,country,South Asia,33.93911,67.709953,QA,Qatar,country,Middle East and North Africa,25.354826,51.183884,1858.93735856554,2000,42,0,0,0,1,0,0,30,1,0,10,0,0,0,0,0,0,0,0,0,0,0,0,0
DZ,Algeria,country,Middle East and North Africa,28.033886,1.659626,QA,Qatar,country,Middle East and North Africa,25.354826,51.183884,4900.86323617494,2000,5,0,0,0,0,0,0,0,5,0,0,0,0,0,0,0,0,0,0,0,0,0,0,0
AR,Argentina,country,Latin America and the Caribbean,-38.416097,-63.616672,QA,Qatar,country,Middle East and North Africa,25.354826,51.183884,13833.5780448946,2000,10853,10548,0,2,9,0,0,2,71,0,1,0,0,0,25,0,0,195,0,0,0,0,0,0
AU,Australia,country,East Asia and Pacific,-25.274398,133.775136,QA,Qatar,country,Middle East and North Africa,25.354826,51.183884,10513.3003057911,2000,73612,64923,0,32,322,0,161,582,239,0,0,3451,62,3,21,860,0,2643,313,0,0,0,0,0
AT,Austria,country,Europe and Central Asia,47.516231,14.550072,QA,Qatar,country,Middle East and North Africa,25.354826,51.183884,4044.81151352353,2000,195,0,0,9,0,0,0,0,37,0,0,1,42,3,7,0,0,0,96,0,0,0,0,0
AZ,Azerbaijan,country,Europe and Central Asia,40.143105,47.576927,QA,Qatar,country,Middle East and North Africa,25.354826,51.183884,1680.07734393668,2000,5,0,0,0,0,0,0,0,3,0,2,0,0,0,0,0,0,0,0,0,0,0,0,0
BH,Bahrain,country,Middle East and North Africa,25.930414,50.637772,QA,Qatar,country,Middle East and North Africa,25.354826,51.183884,84.3154243988478,2000,2850,215,5,2,0,0,0,65,86,0,21,0,12,10,1133,1226,0,0,75,0,0,0,0,0
BD,Bangladesh,country,South Asia,23.684994,90.356331,QA,Qatar,country,Middle East and North Africa,25.354826,51.183884,3957.70887263231,2000,1625,8,0,0,0,0,0,1577,2,16,1,0,1,20,0,0,0,0,0,0,0,0,0,0
BE,Belgium,country,Europe and Central Asia,50.503887,4.469936,QA,Qatar,country,Middle East and North Africa,25.354826,51.183884,4850.26746905,2000,1127,116,139,4,0,0,0,644,67,0,0,32,18,2,2,102,0,1,0,0,0,0,0,0
BA,Bosnia & Herzegovina,country,Europe and Central Asia,43.915886,17.679076,QA,Qatar,country,Middle East and North Africa,25.354826,51.183884,3660.06476558476,2000,1,0,0,1,0,0,0,0,0,0,0,0,0,0,0,0,0,0,0,0,0,0,0,0
BR,Brazil,country,Latin America and the Caribbean,-14.235004,-51.92528,QA,Qatar,country,Middle East and North Africa,25.354826,51.183884,11988.6607078962,2000,17856,0,0,0,108,0,0,3,154,0,0,0,36,0,0,0,0,17555,0,0,0,0,0,0
BG,Bulgaria,country,Europe and Central Asia,42.733883,25.48583,QA,Qatar,country,Middle East and North Africa,25.354826,51.183884,3037.89564401813,2000,9,7,0,0,0,0,0,0,1,0,1,0,0,0,0,0,0,0,0,0,0,0,0,0
CA,Canada,country,North America,56.130366,-106.346771,QA,Qatar,country,Middle East and North Africa,25.354826,51.183884,10720.6947495884,2000,1178,105,344,5,287,0,13,44,44,0,6,0,11,114,26,62,0,0,117,0,0,0,0,0
CL,Chile,country,Latin America and the Caribbean,-35.675147,-71.542969,QA,Qatar,country,Middle East and North Africa,25.354826,51.183884,14503.4056622373,2000,1718,0,0,0,0,0,0,7,1710,0,0,0,0,1,0,0,0,0,0,0,0,0,0,0
HK,Hong Kong,country,East Asia and Pacific,22.396428,114.109497,QA,Qatar,country,Middle East and North Africa,25.354826,51.183884,6354.3433796268,2000,1080,3,0,38,0,0,0,1,1035,0,0,0,0,0,3,0,0,0,0,0,0,0,0,0
CN,China,country,East Asia and Pacific,35.86166,104.195397,QA,Qatar,country,Middle East and North Africa,25.354826,51.183884,5148.65977529813,2000,2685,6,0,11,42,26,139,1690,264,4,86,0,3,4,15,0,0,395,0,0,0,0,0,0
TW,Taiwan,country,East Asia and Pacific,23.69781,120.960515,QA,Qatar,country,Middle East and North Africa,25.354826,51.183884,6983.31660815456,2000,37,0,0,1,0,0,12,24,0,0,0,0,0,0,0,0,0,0,0,0,0,0,0,0
CO,Colombia,country,Latin America and the Caribbean,4.570868,-74.297333,QA,Qatar,country,Middle East and North Africa,25.354826,51.183884,13275.6464070741,2000,1,0,0,0,0,0,0,0,0,0,0,0,1,0,0,0,0,0,0,0,0,0,0,0
CU,Cuba,country,Latin America and the Caribbean,21.521757,-77.781167,QA,Qatar,country,Middle East and North Africa,25.354826,51.183884,12446.8061583985,2000,0,0,0,0,0,0,0,0,0,0,0,0,0,0,0,0,0,0,0,0,0,0,0,0
CY,Cyprus,country,Europe and Central Asia,35.126413,33.429859,QA,Qatar,country,Middle East and North Africa,25.354826,51.183884,2019.46943000519,2000,293,139,0,4,0,0,0,18,68,0,0,0,3,1,29,6,0,0,25,0,0,0,0,0
CZ,Czech Republic,country,Europe and Central Asia,49.817492,15.472962,QA,Qatar,country,Middle East and North Africa,25.354826,51.183884,4097.98161753022,2000,69,0,0,0,0,0,0,0,0,0,0,0,0,0,0,0,0,0,69,0,0,0,0,0
DK,Denmark,country,Europe and Central Asia,56.26392,9.501785,QA,Qatar,country,Middle East and North Africa,25.354826,51.183884,4790.67468566132,2000,2915,59,20,67,4,0,0,28,131,0,0,0,3,7,0,96,0,1631,869,0,0,0,0,0
EC,Ecuador,country,Latin America and the Caribbean,-1.831239,-78.183406,QA,Qatar,country,Middle East and North Africa,25.354826,51.183884,14016.7718260196,2000,0,0,0,0,0,0,0,0,0,0,0,0,0,0,0,0,0,0,0,0,0,0,0,0
EG,Egypt,country,Middle East and North Africa,26.820553,30.802498,QA,Qatar,country,Middle East and North Africa,25.354826,51.183884,2042.03510875953,2000,7253,556,338,48,91,3,65,2583,2783,0,1,0,54,502,9,44,0,167,9,0,0,0,0,0
EE,Estonia,country,Europe and Central Asia,58.595272,25.013607,QA,Qatar,country,Middle East and North Africa,25.354826,51.183884,4229.15629792364,2000,0,0,0,0,0,0,0,0,0,0,0,0,0,0,0,0,0,0,0,0,0,0,0,0
ET,Ethiopia,country,Sub-Saharan Africa,9.145,40.489673,QA,Qatar,country,Middle East and North Africa,25.354826,51.183884,2130.07756778551,2000,19,0,0,1,0,0,0,0,0,0,0,0,18,0,0,0,0,0,0,0,0,0,0,0
FI,Finland,country,Europe and Central Asia,61.92411,25.748151,QA,Qatar,country,Middle East and North Africa,25.354826,51.183884,4493.63724887276,2000,30,0,0,26,0,0,0,0,0,0,0,0,2,0,0,2,0,0,0,0,0,0,0,0
FR,France,country,Europe and Central Asia,46.227638,2.213749,QA,Qatar,country,Middle East and North Africa,25.354826,51.183884,4895.64442622759,2000,10612,635,20,4628,6,0,2,29,1210,2,11,10,74,341,45,760,0,2140,699,0,0,0,0,0
DE,Germany,country,Europe and Central Asia,51.165691,10.451526,QA,Qatar,country,Middle East and North Africa,25.354826,51.183884,4483.1973558276,2000,8724,266,10,5496,0,0,0,0,48,0,0,9,117,90,168,166,0,36,2318,0,0,0,0,0
GR,Greece,country,Europe and Central Asia,39.074208,21.824312,QA,Qatar,country,Middle East and North Africa,25.354826,51.183884,3138.41931698602,2000,215,34,0,7,0,0,0,68,83,0,0,0,11,1,11,0,0,0,0,0,0,0,0,0
GT,Guatemala,country,Latin America and the Caribbean,15.783471,-90.230759,QA,Qatar,country,Middle East and North Africa,25.354826,51.183884,13835.0539317015,2000,188,0,0,0,0,0,0,0,1,0,187,0,0,0,0,0,0,0,0,0,0,0,0,0
HN,Honduras,country,Latin America and the Caribbean,15.199999,-86.241905,QA,Qatar,country,Middle East and North Africa,25.354826,51.183884,13580.9137748294,2000,0,0,0,0,0,0,0,0,0,0,0,0,0,0,0,0,0,0,0,0,0,0,0,0
HU,Hungary,country,Europe and Central Asia,47.162494,19.503304,QA,Qatar,country,Middle East and North Africa,25.354826,51.183884,3694.46088140632,2000,19,11,0,0,5,0,0,0,0,0,0,0,0,0,0,0,0,0,3,0,0,0,0,0
IS,Iceland,country,Europe and Central Asia,64.963051,-19.020835,QA,Qatar,country,Middle East and North Africa,25.354826,51.183884,6549.50693367197,2000,3,0,0,3,0,0,0,0,0,0,0,0,0,0,0,0,0,0,0,0,0,0,0,0
IN,India,country,South Asia,20.593684,78.96288,QA,Qatar,country,Middle East and North Africa,25.354826,51.183884,2890.46548305451,2000,33987,8780,3,46,2750,153,113,8261,1236,1,1124,8470,1051,157,77,34,0,1405,326,0,0,0,0,0
ID,Indonesia,country,East Asia and Pacific,-0.789275,113.921327,QA,Qatar,country,Middle East and North Africa,25.354826,51.183884,7338.21855402515,2000,348,82,0,28,1,0,10,85,41,0,4,0,59,38,0,0,0,0,0,0,0,0,0,0
IR,Iran,country,Middle East and North Africa,32.427908,53.688046,QA,Qatar,country,Middle East and North Africa,25.354826,51.183884,824.242618121911,2000,25276,469,225,138,195,263,285,15727,4596,0,163,2332,5,368,0,219,0,5,286,0,0,0,0,0
IE,Ireland,country,Europe and Central Asia,53.41291,-8.24389,QA,Qatar,country,Middle East and North Africa,25.354826,51.183884,5771.27032392702,2000,685,56,0,1,0,0,0,3,0,0,0,0,43,1,0,40,0,320,221,0,0,0,0,0
IT,Italy,country,Europe and Central Asia,41.87194,12.56738,QA,Qatar,country,Middle East and North Africa,25.354826,51.183884,3979.42184482395,2000,1614,638,31,14,28,2,3,484,93,0,0,17,116,87,8,37,0,29,27,0,0,0,0,0
JP,Japan,country,East Asia and Pacific,36.204824,138.252924,QA,Qatar,country,Middle East and North Africa,25.354826,51.183884,8140.63594225345,2000,34,1,0,0,0,0,4,3,1,0,1,0,0,11,4,0,0,9,0,0,0,0,0,0
JO,Jordan,country,Middle East and North Africa,30.585164,36.238414,QA,Qatar,country,Middle East and North Africa,25.354826,51.183884,1578.80501435514,2000,25220,8,431,7,3,4,7,23285,862,0,104,0,11,33,0,0,0,84,381,0,0,0,0,0
KZ,Kazakhstan,country,Europe and Central Asia,48.019573,66.923684,QA,Qatar,country,Middle East and North Africa,25.354826,51.183884,2875.08946709367,2000,1,1,0,0,0,0,0,0,0,0,0,0,0,0,0,0,0,0,0,0,0,0,0,0
KE,Kenya,country,Sub-Saharan Africa,-0.023559,37.906193,QA,Qatar,country,Middle East and North Africa,25.354826,51.183884,3165.60377832167,2000,55,0,0,2,8,0,0,8,37,0,0,0,0,0,0,0,0,0,0,0,0,0,0,0
KW,Kuwait,country,Middle East and North Africa,29.31166,47.481766,QA,Qatar,country,Middle East and North Africa,25.354826,51.183884,572.663535541343,2000,1756,177,152,45,15,4,0,376,542,0,0,0,14,33,83,132,0,17,166,0,0,0,0,0
LB,Lebanon,country,Middle East and North Africa,33.854721,35.862285,QA,Qatar,country,Middle East and North Africa,25.354826,51.183884,1755.91107323137,2000,8103,3,1817,115,64,4,18,604,5044,0,32,0,177,90,109,0,0,0,26,0,0,0,0,0
LU,Luxembourg,country,Europe and Central Asia,49.815273,6.129583,QA,Qatar,country,Middle East and North Africa,25.354826,51.183884,4714.1229292717,2000,17,0,0,0,0,0,0,0,2,0,0,0,15,0,0,0,0,0,0,0,0,0,0,0
MG,Madagascar,country,Sub-Saharan Africa,-18.766947,46.869107,QA,Qatar,country,Middle East and North Africa,25.354826,51.183884,4933.79086015172,2000,6,0,0,0,0,0,0,0,0,0,6,0,0,0,0,0,0,0,0,0,0,0,0,0
MY,Malaysia,country,East Asia and Pacific,4.210484,101.975766,QA,Qatar,country,Middle East and North Africa,25.354826,51.183884,5905.27589013407,2000,1472,153,214,40,12,0,39,80,498,0,2,0,15,211,188,0,0,10,10,0,0,0,0,0
MV,Maldives,country,South Asia,3.202778,73.22068,QA,Qatar,country,Middle East and North Africa,25.354826,51.183884,3412.28580361741,2000,0,0,0,0,0,0,0,0,0,0,0,0,0,0,0,0,0,0,0,0,0,0,0,0
MT,Malta,country,Middle East and North Africa,35.937496,14.375416,QA,Qatar,country,Middle East and North Africa,25.354826,51.183884,3691.5676859738,2000,343,108,0,32,0,0,0,0,41,0,3,0,95,63,0,0,0,0,1,0,0,0,0,0
MU,Mauritius,country,Sub-Saharan Africa,-20.348404,57.552152,QA,Qatar,country,Middle East and North Africa,25.354826,51.183884,5134.0856042119,2000,1,0,0,1,0,0,0,0,0,0,0,0,0,0,0,0,0,0,0,0,0,0,0,0
MX,Mexico,country,Latin America and the Caribbean,23.634501,-102.552784,QA,Qatar,country,Middle East and North Africa,25.354826,51.183884,13892.861932842,2000,87,6,0,1,74,0,0,0,0,0,1,0,2,0,0,3,0,0,0,0,0,0,0,0
MA,Morocco,country,Middle East and North Africa,31.791702,-7.09262,QA,Qatar,country,Middle East and North Africa,25.354826,51.183884,5675.97207688539,2000,61,0,0,0,0,0,0,16,37,0,0,0,6,2,0,0,0,0,0,0,0,0,0,0
MZ,Mozambique,country,Sub-Saharan Africa,-18.665695,35.529562,QA,Qatar,country,Middle East and North Africa,25.354826,51.183884,5185.32210576508,2000,2,0,0,0,0,0,0,0,2,0,0,0,0,0,0,0,0,0,0,0,0,0,0,0
MM,Myanmar,country,East Asia and Pacific,21.913965,95.956223,QA,Qatar,country,Middle East and North Africa,25.354826,51.183884,4561.34562151873,2000,6,0,0,0,0,0,0,0,6,0,0,0,0,0,0,0,0,0,0,0,0,0,0,0
NL,Netherlands,country,Europe and Central Asia,52.132633,5.291266,QA,Qatar,country,Middle East and North Africa,25.354826,51.183884,4853.89419546757,2000,10301,131,495,7,1,0,4,599,315,3,0,48,213,240,268,959,0,166,6852,0,0,0,0,0
NZ,New Zealand,country,East Asia and Pacific,-40.900557,174.885971,QA,Qatar,country,Middle East and North Africa,25.354826,51.183884,14610.9649601459,2000,1051,1,0,1,0,0,0,96,209,0,0,0,0,0,0,10,0,445,289,0,0,0,0,0
NO,Norway,country,Europe and Central Asia,60.472024,8.468946,QA,Qatar,country,Middle East and North Africa,25.354826,51.183884,5074.62552742738,2000,26,0,0,0,2,0,0,0,21,0,0,0,0,2,0,0,0,1,0,0,0,0,0,0
OM,Oman,country,Middle East and North Africa,21.512583,55.923255,QA,Qatar,country,Middle East and North Africa,25.354826,51.183884,645.837727578887,2000,2598,334,124,58,0,0,1,136,356,0,0,155,19,77,214,1122,0,2,0,0,0,0,0,0
PK,Pakistan,country,South Asia,30.375321,69.345116,QA,Qatar,country,Middle East and North Africa,25.354826,51.183884,1870.04838492386,2000,41287,35855,15,56,98,4,17,1627,2580,321,170,505,4,29,0,0,0,6,0,0,0,0,0,0
PA,Panama,country,Latin America and the Caribbean,8.537981,-80.782127,QA,Qatar,country,Middle East and North Africa,25.354826,51.183884,13611.7456300628,2000,49,0,0,0,0,0,0,0,48,0,0,0,0,0,0,1,0,0,0,0,0,0,0,0
PH,Philippines,country,East Asia and Pacific,12.879721,121.774017,QA,Qatar,country,Middle East and North Africa,25.354826,51.183884,7475.87054064651,2000,8514,88,10,0,1,0,83,8,7963,0,4,279,0,77,1,0,0,0,0,0,0,0,0,0
PL,Poland,country,Europe and Central Asia,51.919438,19.145136,QA,Qatar,country,Middle East and North Africa,25.354826,51.183884,4001.83128431686,2000,126,41,0,1,0,0,0,0,0,0,0,0,84,0,0,0,0,0,0,0,0,0,0,0
PT,Portugal,country,Europe and Central Asia,39.399872,-8.224454,QA,Qatar,country,Middle East and North Africa,25.354826,51.183884,5694.82931882001,2000,7,1,0,3,0,0,0,0,0,0,0,0,0,0,3,0,0,0,0,0,0,0,0,0
KR,"Korea, Rep.",country,East Asia and Pacific,35.907757,127.766922,QA,Qatar,country,Middle East and North Africa,25.354826,51.183884,7247.28025769129,2000,39,19,0,18,0,0,0,0,0,1,0,0,0,1,0,0,0,0,0,0,0,0,0,0
RU,Russian Federation,country,Europe and Central Asia,61.52401,105.318756,QA,Qatar,country,Middle East and North Africa,25.354826,51.183884,5681.16484581311,2000,4,0,0,0,0,0,0,0,0,0,0,0,0,0,0,4,0,0,0,0,0,0,0,0
SA,Saudi Arabia,country,Middle East and North Africa,23.885942,45.079162,QA,Qatar,country,Middle East and North Africa,25.354826,51.183884,638.990388286206,2000,98540,1537,3742,269,8,0,44,4197,8010,0,15,41002,430,235,1222,20642,44,2893,14294,0,0,0,0,0
SG,Singapore,country,East Asia and Pacific,1.352083,103.819836,QA,Qatar,country,Middle East and North Africa,25.354826,51.183884,6240.21727791532,2000,1565,53,0,15,0,0,1,0,88,0,12,0,7,56,994,304,0,0,35,0,0,0,0,0
SK,Slovak Rep.,country,Europe and Central Asia,48.669026,19.699024,QA,Qatar,country,Middle East and North Africa,25.354826,51.183884,3768.29383225172,2000,7,0,0,0,0,0,0,0,0,0,0,0,7,0,0,0,0,0,0,0,0,0,0,0
SI,Slovenia,country,Europe and Central Asia,46.151241,14.995463,QA,Qatar,country,Middle East and North Africa,25.354826,51.183884,3952.28992868058,2000,0,0,0,0,0,0,0,0,0,0,0,0,0,0,0,0,0,0,0,0,0,0,0,0
SO,Somalia,country,Sub-Saharan Africa,5.152149,46.199616,QA,Qatar,country,Middle East and North Africa,25.354826,51.183884,2310.98944218845,2000,1,0,0,0,0,0,0,0,1,0,0,0,0,0,0,0,0,0,0,0,0,0,0,0
ZA,S. Africa,country,Sub-Saharan Africa,-30.559482,22.937506,QA,Qatar,country,Middle East and North Africa,25.354826,51.183884,6914.09331916231,2000,9811,4967,30,0,1,3,0,24,4548,0,0,18,11,1,31,2,0,144,31,0,0,0,0,0
ES,Spain,country,Europe and Central Asia,40.463667,-3.74922,QA,Qatar,country,Middle East and North Africa,25.354826,51.183884,5310.81937791307,2000,1714,60,7,12,0,1,15,776,162,1,1,27,161,9,400,0,0,71,11,0,0,0,0,0
LK,Sri Lanka,country,South Asia,7.873054,80.771797,QA,Qatar,country,Middle East and North Africa,25.354826,51.183884,3692.08702970037,2000,1418,3,0,0,2,83,298,737,125,0,15,0,119,19,0,0,0,0,17,0,0,0,0,0
SD,Sudan,country,Sub-Saharan Africa,12.862807,30.217636,QA,Qatar,country,Middle East and North Africa,25.354826,51.183884,2600.98745827774,2000,1275,270,0,0,0,0,0,42,453,0,0,0,0,12,1,0,0,496,1,0,0,0,0,0
SZ,Swaziland,country,Sub-Saharan Africa,-26.522503,31.465866,QA,Qatar,country,Middle East and North Africa,25.354826,51.183884,6150.87117330842,2000,5,3,0,0,0,0,0,0,0,0,0,0,2,0,0,0,0,0,0,0,0,0,0,0
SE,Sweden,country,Europe and Central Asia,60.128161,18.643501,QA,Qatar,country,Middle East and North Africa,25.354826,51.183884,4602.39331635238,2000,15,0,0,0,0,0,0,0,0,0,0,0,14,0,0,0,0,0,1,0,0,0,0,0
CH,Switzerland,country,Europe and Central Asia,46.818188,8.227512,QA,Qatar,country,Middle East and North Africa,25.354826,51.183884,4464.69294166418,2000,477,41,0,19,0,0,0,0,38,0,0,0,83,92,0,199,0,0,5,0,0,0,0,0
SY,Syrian Arab Rep.,country,Middle East and North Africa,34.802075,38.996815,QA,Qatar,country,Middle East and North Africa,25.354826,51.183884,1573.72646731644,2000,15057,9,641,78,63,22,67,8836,4411,0,42,0,16,8,23,0,0,1,840,0,0,0,0,0
TH,Thailand,country,East Asia and Pacific,15.870032,100.992541,QA,Qatar,country,Middle East and North Africa,25.354826,51.183884,5266.35918492563,2000,2008,1207,6,5,16,7,29,469,218,0,0,32,12,5,0,0,0,1,1,0,0,0,0,0
TN,Tunisia,country,Middle East and North Africa,33.886917,9.537499,QA,Qatar,country,Middle East and North Africa,25.354826,51.183884,4111.41302133711,2000,252,18,0,18,0,0,0,0,149,0,0,0,3,43,20,0,0,1,0,0,0,0,0,0
TR,Turkey,country,Europe and Central Asia,38.963745,35.243322,QA,Qatar,country,Middle East and North Africa,25.354826,51.183884,2127.04565436248,2000,4445,292,20,255,137,48,3,818,2339,0,7,0,167,94,121,66,0,0,78,0,0,0,0,0
UG,Uganda,country,Sub-Saharan Africa,1.373333,32.290275,QA,Qatar,country,Middle East and North Africa,25.354826,51.183884,3352.61390091741,2000,8,0,0,0,0,0,0,8,0,0,0,0,0,0,0,0,0,0,0,0,0,0,0,0
UA,Ukraine,country,Europe and Central Asia,48.379433,31.16558,QA,Qatar,country,Middle East and North Africa,25.354826,51.183884,3101.60840918931,2000,50,0,0,0,0,0,0,0,50,0,0,0,0,0,0,0,0,0,0,0,0,0,0,0
AE,United Arab Emirates,country,Middle East and North Africa,23.424076,53.847818,QA,Qatar,country,Middle East and North Africa,25.354826,51.183884,345.147488919567,2000,62763,17359,403,5542,144,45,32,2099,2154,0,9,1771,1190,449,8362,22297,0,320,587,0,0,0,0,0
GB,United Kingdom,country,Europe and Central Asia,55.378051,-3.435973,QA,Qatar,country,Middle East and North Africa,25.354826,51.183884,5508.47058423377,2000,5941,889,15,658,185,0,41,289,152,0,40,537,720,889,175,1058,0,34,259,0,0,0,0,0
TZ,Tanzania,country,Sub-Saharan Africa,-6.369028,34.888822,QA,Qatar,country,Middle East and North Africa,25.354826,51.183884,3947.44892099199,2000,65,0,0,0,55,0,0,2,0,0,8,0,0,0,0,0,0,0,0,0,0,0,0,0
US,USA,country,North America,37.09024,-95.712891,QA,Qatar,country,Middle East and North Africa,25.354826,51.183884,12269.4355771819,2000,7514,825,456,183,165,137,195,692,2059,0,54,75,246,1369,134,287,0,523,114,0,0,0,0,0
UY,Uruguay,country,Latin America and the Caribbean,-32.522779,-55.765835,QA,Qatar,country,Middle East and North Africa,25.354826,51.183884,13012.7332702695,2000,6,0,0,0,0,0,0,0,6,0,0,0,0,0,0,0,0,0,0,0,0,0,0,0
VE,Venezuela,country,Latin America and the Caribbean,6.42375,-66.58973,QA,Qatar,country,Middle East and North Africa,25.354826,51.183884,12439.8280329988,2000,22,0,0,0,0,0,0,0,22,0,0,0,0,0,0,0,0,0,0,0,0,0,0,0
VN,Vietnam,country,East Asia and Pacific,14.058324,108.277199,QA,Qatar,country,Middle East and North Africa,25.354826,51.183884,6070.41396758098,2000,66,5,0,0,0,0,0,1,0,0,56,0,4,0,0,0,0,0,0,0,0,0,0,0
YE,Yemen,country,Middle East and North Africa,15.552727,48.516388,QA,Qatar,country,Middle East and North Africa,25.354826,51.183884,1125.95689628297,2000,9,0,0,2,0,0,0,0,6,0,0,0,1,0,0,0,0,0,0,0,0,0,0,0
AF,Afghanistan,country,South Asia,33.93911,67.709953,QA,Qatar,country,Middle East and North Africa,25.354826,51.183884,1858.93735856554,2001,3,0,0,0,0,1,1,0,0,0,1,0,0,0,0,0,0,0,0,0,0,0,0,0
DZ,Algeria,country,Middle East and North Africa,28.033886,1.659626,QA,Qatar,country,Middle East and North Africa,25.354826,51.183884,4900.86323617494,2001,0,0,0,0,0,0,0,0,0,0,0,0,0,0,0,0,0,0,0,0,0,0,0,0
AR,Argentina,country,Latin America and the Caribbean,-38.416097,-63.616672,QA,Qatar,country,Middle East and North Africa,25.354826,51.183884,13833.5780448946,2001,14305,13706,0,0,34,0,0,0,248,0,0,0,0,0,123,0,0,185,9,0,0,0,0,0
AU,Australia,country,East Asia and Pacific,-25.274398,133.775136,QA,Qatar,country,Middle East and North Africa,25.354826,51.183884,10513.3003057911,2001,70023,62045,0,59,509,0,7,866,292,0,1,1992,97,13,22,1041,0,2606,473,0,0,0,0,0
AT,Austria,country,Europe and Central Asia,47.516231,14.550072,QA,Qatar,country,Middle East and North Africa,25.354826,51.183884,4044.81151352353,2001,213,2,0,0,1,0,0,0,39,0,0,0,94,0,0,0,0,0,77,0,0,0,0,0
AZ,Azerbaijan,country,Europe and Central Asia,40.143105,47.576927,QA,Qatar,country,Middle East and North Africa,25.354826,51.183884,1680.07734393668,2001,0,0,0,0,0,0,0,0,0,0,0,0,0,0,0,0,0,0,0,0,0,0,0,0
BH,Bahrain,country,Middle East and North Africa,25.930414,50.637772,QA,Qatar,country,Middle East and North Africa,25.354826,51.183884,84.3154243988478,2001,15200,195,6,2,0,0,0,14,99,0,21,5,44,5,1,14725,0,11,72,0,0,0,0,0
BD,Bangladesh,country,South Asia,23.684994,90.356331,QA,Qatar,country,Middle East and North Africa,25.354826,51.183884,3957.70887263231,2001,1682,11,0,0,0,0,1,1610,28,0,2,0,22,8,0,0,0,0,0,0,0,0,0,0
BE,Belgium,country,Europe and Central Asia,50.503887,4.469936,QA,Qatar,country,Middle East and North Africa,25.354826,51.183884,4850.26746905,2001,1977,160,294,3,0,0,0,889,104,0,0,96,48,2,193,162,0,2,24,0,0,0,0,0
BA,Bosnia & Herzegovina,country,Europe and Central Asia,43.915886,17.679076,QA,Qatar,country,Middle East and North Africa,25.354826,51.183884,3660.06476558476,2001,2,0,0,2,0,0,0,0,0,0,0,0,0,0,0,0,0,0,0,0,0,0,0,0
BR,Brazil,country,Latin America and the Caribbean,-14.235004,-51.92528,QA,Qatar,country,Middle East and North Africa,25.354826,51.183884,11988.6607078962,2001,22697,9,0,1,74,0,17,1,165,0,2,0,123,0,26,0,0,22279,0,0,0,0,0,0
BG,Bulgaria,country,Europe and Central Asia,42.733883,25.48583,QA,Qatar,country,Middle East and North Africa,25.354826,51.183884,3037.89564401813,2001,37,7,0,0,0,0,0,27,1,0,0,0,0,0,0,0,0,2,0,0,0,0,0,0
KH,Cambodia,country,East Asia and Pacific,12.565679,104.990963,QA,Qatar,country,Middle East and North Africa,25.354826,51.183884,5802.00032310029,2001,0,0,0,0,0,0,0,0,0,0,0,0,0,0,0,0,0,0,0,0,0,0,0,0
CA,Canada,country,North America,56.130366,-106.346771,QA,Qatar,country,Middle East and North Africa,25.354826,51.183884,10720.6947495884,2001,6982,5624,393,2,475,0,31,29,230,0,24,0,3,70,0,9,0,12,80,0,0,0,0,0
CL,Chile,country,Latin America and the Caribbean,-35.675147,-71.542969,QA,Qatar,country,Middle East and North Africa,25.354826,51.183884,14503.4056622373,2001,1684,0,0,1,0,0,0,5,1678,0,0,0,0,0,0,0,0,0,0,0,0,0,0,0
HK,Hong Kong,country,East Asia and Pacific,22.396428,114.109497,QA,Qatar,country,Middle East and North Africa,25.354826,51.183884,6354.3433796268,2001,96,5,0,82,0,0,1,0,0,0,1,0,6,1,0,0,0,0,0,0,0,0,0,0
CN,China,country,East Asia and Pacific,35.86166,104.195397,QA,Qatar,country,Middle East and North Africa,25.354826,51.183884,5148.65977529813,2001,3284,26,3,14,62,44,112,1929,307,5,107,0,4,40,13,1,0,615,2,0,0,0,0,0
TW,Taiwan,country,East Asia and Pacific,23.69781,120.960515,QA,Qatar,country,Middle East and North Africa,25.354826,51.183884,6983.31660815456,2001,25,1,0,0,0,1,8,4,0,0,3,1,0,7,0,0,0,0,0,0,0,0,0,0
CO,Colombia,country,Latin America and the Caribbean,4.570868,-74.297333,QA,Qatar,country,Middle East and North Africa,25.354826,51.183884,13275.6464070741,2001,9,0,0,0,0,0,0,0,0,0,0,0,1,8,0,0,0,0,0,0,0,0,0,0
CR,Costa Rica,country,Latin America and the Caribbean,9.748917,-83.753428,QA,Qatar,country,Middle East and North Africa,25.354826,51.183884,13783.4220465229,2001,1,0,0,0,0,0,0,0,0,0,0,0,1,0,0,0,0,0,0,0,0,0,0,0
CU,Cuba,country,Latin America and the Caribbean,21.521757,-77.781167,QA,Qatar,country,Middle East and North Africa,25.354826,51.183884,12446.8061583985,2001,0,0,0,0,0,0,0,0,0,0,0,0,0,0,0,0,0,0,0,0,0,0,0,0
CY,Cyprus,country,Europe and Central Asia,35.126413,33.429859,QA,Qatar,country,Middle East and North Africa,25.354826,51.183884,2019.46943000519,2001,237,142,2,0,0,0,0,20,11,0,1,0,6,1,19,4,0,0,31,0,0,0,0,0
CZ,Czech Republic,country,Europe and Central Asia,49.817492,15.472962,QA,Qatar,country,Middle East and North Africa,25.354826,51.183884,4097.98161753022,2001,7,0,0,0,0,0,0,0,2,0,0,0,0,0,0,0,0,0,5,0,0,0,0,0
CD,"Congo, Dem. Rep.",country,Sub-Saharan Africa,-4.038333,21.758664,QA,Qatar,country,Middle East and North Africa,25.354826,51.183884,4561.41225190108,2001,1,0,0,0,0,0,0,0,0,0,1,0,0,0,0,0,0,0,0,0,0,0,0,0
DK,Denmark,country,Europe and Central Asia,56.26392,9.501785,QA,Qatar,country,Middle East and North Africa,25.354826,51.183884,4790.67468566132,2001,3181,54,75,9,0,0,0,131,193,0,0,208,27,4,34,169,0,1565,712,0,0,0,0,0
DO,Dominican Republic,country,Latin America and the Caribbean,18.735693,-70.162651,QA,Qatar,country,Middle East and North Africa,25.354826,51.183884,12013.309239255,2001,0,0,0,0,0,0,0,0,0,0,0,0,0,0,0,0,0,0,0,0,0,0,0,0
EC,Ecuador,country,Latin America and the Caribbean,-1.831239,-78.183406,QA,Qatar,country,Middle East and North Africa,25.354826,51.183884,14016.7718260196,2001,14,0,0,0,0,0,0,0,0,0,0,0,10,4,0,0,0,0,0,0,0,0,0,0
EG,Egypt,country,Middle East and North Africa,26.820553,30.802498,QA,Qatar,country,Middle East and North Africa,25.354826,51.183884,2042.03510875953,2001,6340,801,483,44,231,2,92,1574,2405,0,1,34,34,457,2,52,0,127,1,0,0,0,0,0
EE,Estonia,country,Europe and Central Asia,58.595272,25.013607,QA,Qatar,country,Middle East and North Africa,25.354826,51.183884,4229.15629792364,2001,2,0,0,0,0,0,0,0,0,0,0,0,0,2,0,0,0,0,0,0,0,0,0,0
ET,Ethiopia,country,Sub-Saharan Africa,9.145,40.489673,QA,Qatar,country,Middle East and North Africa,25.354826,51.183884,2130.07756778551,2001,53,0,0,0,0,0,0,0,0,0,0,0,53,0,0,0,0,0,0,0,0,0,0,0
FI,Finland,country,Europe and Central Asia,61.92411,25.748151,QA,Qatar,country,Middle East and North Africa,25.354826,51.183884,4493.63724887276,2001,17,0,0,13,0,0,0,0,0,0,0,0,4,0,0,0,0,0,0,0,0,0,0,0
FR,France,country,Europe and Central Asia,46.227638,2.213749,QA,Qatar,country,Middle East and North Africa,25.354826,51.183884,4895.64442622759,2001,6582,422,41,32,0,4,6,37,1203,9,5,49,63,392,2,1215,0,2082,1020,0,0,0,0,0
DE,Germany,country,Europe and Central Asia,51.165691,10.451526,QA,Qatar,country,Middle East and North Africa,25.354826,51.183884,4483.1973558276,2001,32049,17966,84,9205,0,0,0,1,70,0,2,7,114,149,117,122,0,0,4212,0,0,0,0,0
GR,Greece,country,Europe and Central Asia,39.074208,21.824312,QA,Qatar,country,Middle East and North Africa,25.354826,51.183884,3138.41931698602,2001,244,39,0,9,0,0,0,76,80,0,0,0,26,3,7,4,0,0,0,0,0,0,0,0
GT,Guatemala,country,Latin America and the Caribbean,15.783471,-90.230759,QA,Qatar,country,Middle East and North Africa,25.354826,51.183884,13835.0539317015,2001,181,17,0,0,0,0,0,3,27,0,123,0,10,0,0,0,0,0,1,0,0,0,0,0
HN,Honduras,country,Latin America and the Caribbean,15.199999,-86.241905,QA,Qatar,country,Middle East and North Africa,25.354826,51.183884,13580.9137748294,2001,0,0,0,0,0,0,0,0,0,0,0,0,0,0,0,0,0,0,0,0,0,0,0,0
HU,Hungary,country,Europe and Central Asia,47.162494,19.503304,QA,Qatar,country,Middle East and North Africa,25.354826,51.183884,3694.46088140632,2001,193,3,0,0,0,2,1,0,0,0,0,1,0,0,0,0,0,183,3,0,0,0,0,0
IS,Iceland,country,Europe and Central Asia,64.963051,-19.020835,QA,Qatar,country,Middle East and North Africa,25.354826,51.183884,6549.50693367197,2001,0,0,0,0,0,0,0,0,0,0,0,0,0,0,0,0,0,0,0,0,0,0,0,0
IN,India,country,South Asia,20.593684,78.96288,QA,Qatar,country,Middle East and North Africa,25.354826,51.183884,2890.46548305451,2001,57450,31438,31,434,2968,155,3256,11115,1289,21,1080,527,1387,194,144,188,0,2250,973,0,0,0,0,0
ID,Indonesia,country,East Asia and Pacific,-0.789275,113.921327,QA,Qatar,country,Middle East and North Africa,25.354826,51.183884,7338.21855402515,2001,386,101,0,37,0,0,0,28,58,0,0,0,56,105,1,0,0,0,0,0,0,0,0,0
IR,Iran,country,Middle East and North Africa,32.427908,53.688046,QA,Qatar,country,Middle East and North Africa,25.354826,51.183884,824.242618121911,2001,24362,896,60,89,330,220,181,14756,3601,0,203,2713,7,354,26,279,0,2,645,0,0,0,0,0
IQ,Iraq,country,Middle East and North Africa,33.223191,43.679291,QA,Qatar,country,Middle East and North Africa,25.354826,51.183884,1138.54036991087,2001,377,337,0,0,0,0,0,40,0,0,0,0,0,0,0,0,0,0,0,0,0,0,0,0
IE,Ireland,country,Europe and Central Asia,53.41291,-8.24389,QA,Qatar,country,Middle East and North Africa,25.354826,51.183884,5771.27032392702,2001,478,0,23,0,0,0,0,0,0,0,0,0,31,0,0,39,0,42,343,0,0,0,0,0
IT,Italy,country,Europe and Central Asia,41.87194,12.56738,QA,Qatar,country,Middle East and North Africa,25.354826,51.183884,3979.42184482395,2001,1959,671,9,21,105,19,31,548,195,2,1,10,162,54,6,76,0,0,49,0,0,0,0,0
JP,Japan,country,East Asia and Pacific,36.204824,138.252924,QA,Qatar,country,Middle East and North Africa,25.354826,51.183884,8140.63594225345,2001,39,3,0,0,0,1,12,4,5,0,1,0,0,10,3,0,0,0,0,0,0,0,0,0
JO,Jordan,country,Middle East and North Africa,30.585164,36.238414,QA,Qatar,country,Middle East and North Africa,25.354826,51.183884,1578.80501435514,2001,37910,11,1716,9,5,1,18,32633,2643,0,39,113,10,177,7,7,0,75,446,0,0,0,0,0
KZ,Kazakhstan,country,Europe and Central Asia,48.019573,66.923684,QA,Qatar,country,Middle East and North Africa,25.354826,51.183884,2875.08946709367,2001,77,0,0,0,0,6,0,71,0,0,0,0,0,0,0,0,0,0,0,0,0,0,0,0
KE,Kenya,country,Sub-Saharan Africa,-0.023559,37.906193,QA,Qatar,country,Middle East and North Africa,25.354826,51.183884,3165.60377832167,2001,140,0,0,12,1,0,0,30,78,0,0,0,1,18,0,0,0,0,0,0,0,0,0,0
KW,Kuwait,country,Middle East and North Africa,29.31166,47.481766,QA,Qatar,country,Middle East and North Africa,25.354826,51.183884,572.663535541343,2001,2688,310,76,39,22,11,6,359,877,0,0,37,8,44,58,609,0,16,216,0,0,0,0,0
LB,Lebanon,country,Middle East and North Africa,33.854721,35.862285,QA,Qatar,country,Middle East and North Africa,25.354826,51.183884,1755.91107323137,2001,9833,34,1656,122,85,8,5,1275,6078,0,43,0,209,240,59,4,0,2,12,1,0,0,0,0
LY,Libya,country,Middle East and North Africa,26.3351,17.228331,QA,Qatar,country,Middle East and North Africa,25.354826,51.183884,3393.79092946569,2001,0,0,0,0,0,0,0,0,0,0,0,0,0,0,0,0,0,0,0,0,0,0,0,0
LU,Luxembourg,country,Europe and Central Asia,49.815273,6.129583,QA,Qatar,country,Middle East and North Africa,25.354826,51.183884,4714.1229292717,2001,56,0,0,0,0,0,0,0,3,0,0,17,1,0,0,20,0,15,0,0,0,0,0,0
MG,Madagascar,country,Sub-Saharan Africa,-18.766947,46.869107,QA,Qatar,country,Middle East and North Africa,25.354826,51.183884,4933.79086015172,2001,7,0,0,0,0,0,0,0,0,0,7,0,0,0,0,0,0,0,0,0,0,0,0,0
MY,Malaysia,country,East Asia and Pacific,4.210484,101.975766,QA,Qatar,country,Middle East and North Africa,25.354826,51.183884,5905.27589013407,2001,1915,306,236,71,18,3,40,122,434,0,1,0,35,291,276,0,0,74,8,0,0,0,0,0
MV,Maldives,country,South Asia,3.202778,73.22068,QA,Qatar,country,Middle East and North Africa,25.354826,51.183884,3412.28580361741,2001,10,0,4,0,0,0,0,5,1,0,0,0,0,0,0,0,0,0,0,0,0,0,0,0
MT,Malta,country,Middle East and North Africa,35.937496,14.375416,QA,Qatar,country,Middle East and North Africa,25.354826,51.183884,3691.5676859738,2001,373,79,0,30,0,0,0,21,81,0,3,0,87,54,0,18,0,0,0,0,0,0,0,0
MX,Mexico,country,Latin America and the Caribbean,23.634501,-102.552784,QA,Qatar,country,Middle East and North Africa,25.354826,51.183884,13892.861932842,2001,197,0,0,4,184,0,0,0,0,0,2,0,2,0,0,5,0,0,0,0,0,0,0,0
MA,Morocco,country,Middle East and North Africa,31.791702,-7.09262,QA,Qatar,country,Middle East and North Africa,25.354826,51.183884,5675.97207688539,2001,105,0,1,0,0,0,0,51,27,0,0,0,26,0,0,0,0,0,0,0,0,0,0,0
MZ,Mozambique,country,Sub-Saharan Africa,-18.665695,35.529562,QA,Qatar,country,Middle East and North Africa,25.354826,51.183884,5185.32210576508,2001,5,0,0,0,0,0,0,0,5,0,0,0,0,0,0,0,0,0,0,0,0,0,0,0
MM,Myanmar,country,East Asia and Pacific,21.913965,95.956223,QA,Qatar,country,Middle East and North Africa,25.354826,51.183884,4561.34562151873,2001,9,0,0,0,0,0,0,0,1,0,5,0,0,0,0,3,0,0,0,0,0,0,0,0
NL,Netherlands,country,Europe and Central Asia,52.132633,5.291266,QA,Qatar,country,Middle East and North Africa,25.354826,51.183884,4853.89419546757,2001,11049,492,849,55,0,0,11,752,266,2,0,22,234,728,232,1512,0,41,5853,0,0,0,0,0
NZ,New Zealand,country,East Asia and Pacific,-40.900557,174.885971,QA,Qatar,country,Middle East and North Africa,25.354826,51.183884,14610.9649601459,2001,1151,4,0,37,0,0,0,129,250,0,0,0,0,1,0,0,0,549,181,0,0,0,0,0
NG,Nigeria,country,Sub-Saharan Africa,9.081999,8.675277,QA,Qatar,country,Middle East and North Africa,25.354826,51.183884,4842.08008379081,2001,0,0,0,0,0,0,0,0,0,0,0,0,0,0,0,0,0,0,0,0,0,0,0,0
NO,Norway,country,Europe and Central Asia,60.472024,8.468946,QA,Qatar,country,Middle East and North Africa,25.354826,51.183884,5074.62552742738,2001,5,0,0,0,0,0,0,0,0,0,0,0,0,1,2,0,0,2,0,0,0,0,0,0
OM,Oman,country,Middle East and North Africa,21.512583,55.923255,QA,Qatar,country,Middle East and North Africa,25.354826,51.183884,645.837727578887,2001,4020,857,148,51,0,0,5,182,341,1,1,597,18,260,424,1066,0,38,31,0,0,0,0,0
PK,Pakistan,country,South Asia,30.375321,69.345116,QA,Qatar,country,Middle East and North Africa,25.354826,51.183884,1870.04838492386,2001,46366,38405,19,11,273,13,18,3236,2459,422,182,985,8,32,0,0,0,303,0,0,0,0,0,0
PA,Panama,country,Latin America and the Caribbean,8.537981,-80.782127,QA,Qatar,country,Middle East and North Africa,25.354826,51.183884,13611.7456300628,2001,1,0,0,0,1,0,0,0,0,0,0,0,0,0,0,0,0,0,0,0,0,0,0,0
PY,Paraguay,country,Latin America and the Caribbean,-23.442503,-58.443832,QA,Qatar,country,Middle East and North Africa,25.354826,51.183884,12987.6688482076,2001,17,0,0,0,0,0,0,0,0,0,0,0,0,0,0,0,0,17,0,0,0,0,0,0
PH,Philippines,country,East Asia and Pacific,12.879721,121.774017,QA,Qatar,country,Middle East and North Africa,25.354826,51.183884,7475.87054064651,2001,9481,116,9,3,2,2,132,4,9049,0,15,0,11,123,4,2,0,8,1,0,0,0,0,0
PL,Poland,country,Europe and Central Asia,51.919438,19.145136,QA,Qatar,country,Middle East and North Africa,25.354826,51.183884,4001.83128431686,2001,212,63,46,18,0,0,0,0,6,0,0,0,79,0,0,0,0,0,0,0,0,0,0,0
PT,Portugal,country,Europe and Central Asia,39.399872,-8.224454,QA,Qatar,country,Middle East and North Africa,25.354826,51.183884,5694.82931882001,2001,1,0,0,0,0,0,0,0,0,0,0,0,0,0,0,1,0,0,0,0,0,0,0,0
KR,"Korea, Rep.",country,East Asia and Pacific,35.907757,127.766922,QA,Qatar,country,Middle East and North Africa,25.354826,51.183884,7247.28025769129,2001,57,35,0,14,0,0,0,0,0,0,0,0,0,7,0,0,0,0,1,0,0,0,0,0
RU,Russian Federation,country,Europe and Central Asia,61.52401,105.318756,QA,Qatar,country,Middle East and North Africa,25.354826,51.183884,5681.16484581311,2001,0,0,0,0,0,0,0,0,0,0,0,0,0,0,0,0,0,0,0,0,0,0,0,0
SA,Saudi Arabia,country,Middle East and North Africa,23.885942,45.079162,QA,Qatar,country,Middle East and North Africa,25.354826,51.183884,638.990388286206,2001,72505,1574,3979,384,42,0,43,8057,10839,0,19,660,308,1881,3177,16744,195,3336,21462,0,0,0,0,0
SG,Singapore,country,East Asia and Pacific,1.352083,103.819836,QA,Qatar,country,Middle East and North Africa,25.354826,51.183884,6240.21727791532,2001,941,78,0,45,0,0,0,0,14,0,0,0,11,105,592,96,0,0,0,0,0,0,0,0
SK,Slovak Rep.,country,Europe and Central Asia,48.669026,19.699024,QA,Qatar,country,Middle East and North Africa,25.354826,51.183884,3768.29383225172,2001,3,0,0,0,0,0,0,0,0,0,0,0,3,0,0,0,0,0,0,0,0,0,0,0
SI,Slovenia,country,Europe and Central Asia,46.151241,14.995463,QA,Qatar,country,Middle East and North Africa,25.354826,51.183884,3952.28992868058,2001,2,0,0,0,0,0,0,2,0,0,0,0,0,0,0,0,0,0,0,0,0,0,0,0
SO,Somalia,country,Sub-Saharan Africa,5.152149,46.199616,QA,Qatar,country,Middle East and North Africa,25.354826,51.183884,2310.98944218845,2001,5,0,0,2,0,0,0,0,3,0,0,0,0,0,0,0,0,0,0,0,0,0,0,0
ZA,S. Africa,country,Sub-Saharan Africa,-30.559482,22.937506,QA,Qatar,country,Middle East and North Africa,25.354826,51.183884,6914.09331916231,2001,5535,63,33,2,5,2,0,25,5197,0,2,29,72,33,0,52,0,20,0,0,0,0,0,0
ES,Spain,country,Europe and Central Asia,40.463667,-3.74922,QA,Qatar,country,Middle East and North Africa,25.354826,51.183884,5310.81937791307,2001,1563,108,3,7,8,0,0,758,215,0,1,15,169,31,227,0,0,0,21,0,0,0,0,0
LK,Sri Lanka,country,South Asia,7.873054,80.771797,QA,Qatar,country,Middle East and North Africa,25.354826,51.183884,3692.08702970037,2001,1556,14,0,0,3,59,458,659,176,0,9,3,131,44,0,0,0,0,0,0,0,0,0,0
SD,Sudan,country,Sub-Saharan Africa,12.862807,30.217636,QA,Qatar,country,Middle East and North Africa,25.354826,51.183884,2600.98745827774,2001,1183,172,0,0,3,2,0,8,501,0,8,58,0,33,1,0,0,397,0,0,0,0,0,0
SZ,Swaziland,country,Sub-Saharan Africa,-26.522503,31.465866,QA,Qatar,country,Middle East and North Africa,25.354826,51.183884,6150.87117330842,2001,0,0,0,0,0,0,0,0,0,0,0,0,0,0,0,0,0,0,0,0,0,0,0,0
SE,Sweden,country,Europe and Central Asia,60.128161,18.643501,QA,Qatar,country,Middle East and North Africa,25.354826,51.183884,4602.39331635238,2001,18,0,0,0,0,0,0,0,0,0,0,0,10,0,0,1,0,0,7,0,0,0,0,0
CH,Switzerland,country,Europe and Central Asia,46.818188,8.227512,QA,Qatar,country,Middle East and North Africa,25.354826,51.183884,4464.69294166418,2001,616,69,0,8,0,0,0,0,29,0,0,0,131,155,0,222,0,0,2,0,0,0,0,0
SY,Syrian Arab Rep.,country,Middle East and North Africa,34.802075,38.996815,QA,Qatar,country,Middle East and North Africa,25.354826,51.183884,1573.72646731644,2001,19344,8,913,87,71,85,1,10949,6371,0,61,0,22,80,37,0,0,3,656,0,0,0,0,0
TH,Thailand,country,East Asia and Pacific,15.870032,100.992541,QA,Qatar,country,Middle East and North Africa,25.354826,51.183884,5266.35918492563,2001,2504,1665,23,2,16,0,26,510,173,0,10,14,13,51,0,0,0,0,1,0,0,0,0,0
TN,Tunisia,country,Middle East and North Africa,33.886917,9.537499,QA,Qatar,country,Middle East and North Africa,25.354826,51.183884,4111.41302133711,2001,217,0,0,1,0,0,0,0,121,0,0,0,0,34,61,0,0,0,0,0,0,0,0,0
TR,Turkey,country,Europe and Central Asia,38.963745,35.243322,QA,Qatar,country,Middle East and North Africa,25.354826,51.183884,2127.04565436248,2001,7350,266,63,226,193,66,3,1894,4104,0,14,0,160,58,182,65,0,0,56,0,0,0,0,0
UA,Ukraine,country,Europe and Central Asia,48.379433,31.16558,QA,Qatar,country,Middle East and North Africa,25.354826,51.183884,3101.60840918931,2001,2,0,0,0,0,1,0,0,0,0,0,0,0,0,0,0,0,0,1,0,0,0,0,0
AE,United Arab Emirates,country,Middle East and North Africa,23.424076,53.847818,QA,Qatar,country,Middle East and North Africa,25.354826,51.183884,345.147488919567,2001,80366,26841,270,8451,175,119,25,1678,3283,4,8,13623,1309,792,7817,14677,0,336,958,0,0,0,0,0
GB,United Kingdom,country,Europe and Central Asia,55.378051,-3.435973,QA,Qatar,country,Middle East and North Africa,25.354826,51.183884,5508.47058423377,2001,5418,958,26,63,55,3,40,301,128,1,28,421,499,1135,113,1508,0,2,137,0,0,0,0,0
TZ,Tanzania,country,Sub-Saharan Africa,-6.369028,34.888822,QA,Qatar,country,Middle East and North Africa,25.354826,51.183884,3947.44892099199,2001,107,0,0,0,88,0,0,0,0,0,18,0,1,0,0,0,0,0,0,0,0,0,0,0
US,USA,country,North America,37.09024,-95.712891,QA,Qatar,country,Middle East and North Africa,25.354826,51.183884,12269.4355771819,2001,9059,776,380,128,186,261,231,740,2198,0,316,32,352,1999,246,432,0,694,88,0,0,0,0,0
VE,Venezuela,country,Latin America and the Caribbean,6.42375,-66.58973,QA,Qatar,country,Middle East and North Africa,25.354826,51.183884,12439.8280329988,2001,0,0,0,0,0,0,0,0,0,0,0,0,0,0,0,0,0,0,0,0,0,0,0,0
VN,Vietnam,country,East Asia and Pacific,14.058324,108.277199,QA,Qatar,country,Middle East and North Africa,25.354826,51.183884,6070.41396758098,2001,80,0,0,0,0,0,5,0,0,0,66,0,0,0,0,0,0,9,0,0,0,0,0,0
YE,Yemen,country,Middle East and North Africa,15.552727,48.516388,QA,Qatar,country,Middle East and North Africa,25.354826,51.183884,1125.95689628297,2001,242,0,0,2,0,0,0,153,82,0,0,0,4,1,0,0,0,0,0,0,0,0,0,0
ZW,Zimbabwe,country,Sub-Saharan Africa,-19.015438,29.154857,QA,Qatar,country,Middle East and North Africa,25.354826,51.183884,5484.98949563285,2001,7,0,0,0,0,0,0,0,4,0,3,0,0,0,0,0,0,0,0,0,0,0,0,0
AF,Afghanistan,country,South Asia,33.93911,67.709953,QA,Qatar,country,Middle East and North Africa,25.354826,51.183884,1858.93735856554,2002,27,21,0,0,0,0,0,0,3,0,2,0,1,0,0,0,0,0,0,0,0,0,0,0
DZ,Algeria,country,Middle East and North Africa,28.033886,1.659626,QA,Qatar,country,Middle East and North Africa,25.354826,51.183884,4900.86323617494,2002,13,0,0,0,0,0,0,2,6,0,0,0,0,0,0,0,0,5,0,0,0,0,0,0
AR,Argentina,country,Latin America and the Caribbean,-38.416097,-63.616672,QA,Qatar,country,Middle East and North Africa,25.354826,51.183884,13833.5780448946,2002,10375,9757,0,4,29,0,0,2,97,0,0,0,29,7,152,0,0,268,30,0,0,0,0,0
AU,Australia,country,East Asia and Pacific,-25.274398,133.775136,QA,Qatar,country,Middle East and North Africa,25.354826,51.183884,10513.3003057911,2002,23753,12572,30,60,332,11,33,1027,356,0,10,4036,120,17,16,1647,0,3207,279,0,0,0,0,0
AT,Austria,country,Europe and Central Asia,47.516231,14.550072,QA,Qatar,country,Middle East and North Africa,25.354826,51.183884,4044.81151352353,2002,410,3,0,1,1,0,0,0,149,0,0,0,103,1,0,104,0,0,48,0,0,0,0,0
BH,Bahrain,country,Middle East and North Africa,25.930414,50.637772,QA,Qatar,country,Middle East and North Africa,25.354826,51.183884,84.3154243988478,2002,10521,142,14,4,0,0,0,40,55,1,13,1,43,11,0,10057,1,10,130,0,0,0,0,0
BD,Bangladesh,country,South Asia,23.684994,90.356331,QA,Qatar,country,Middle East and North Africa,25.354826,51.183884,3957.70887263231,2002,1802,19,0,0,0,0,0,1733,11,0,5,0,33,1,0,0,0,0,0,0,0,0,0,0
BE,Belgium,country,Europe and Central Asia,50.503887,4.469936,QA,Qatar,country,Middle East and North Africa,25.354826,51.183884,4850.26746905,2002,8544,264,930,5302,0,0,2,1320,130,0,0,71,48,27,73,374,0,3,0,0,0,0,0,0
BA,Bosnia & Herzegovina,country,Europe and Central Asia,43.915886,17.679076,QA,Qatar,country,Middle East and North Africa,25.354826,51.183884,3660.06476558476,2002,1,0,0,1,0,0,0,0,0,0,0,0,0,0,0,0,0,0,0,0,0,0,0,0
BR,Brazil,country,Latin America and the Caribbean,-14.235004,-51.92528,QA,Qatar,country,Middle East and North Africa,25.354826,51.183884,11988.6607078962,2002,23126,7,0,1,0,0,38,5,135,0,2,0,123,0,0,0,0,22815,0,0,0,0,0,0
BG,Bulgaria,country,Europe and Central Asia,42.733883,25.48583,QA,Qatar,country,Middle East and North Africa,25.354826,51.183884,3037.89564401813,2002,2,0,0,0,0,0,0,0,0,0,0,0,1,0,0,0,0,0,1,0,0,0,0,0
CA,Canada,country,North America,56.130366,-106.346771,QA,Qatar,country,Middle East and North Africa,25.354826,51.183884,10720.6947495884,2002,15647,14217,437,3,517,1,26,15,53,3,24,3,2,41,0,174,0,0,131,0,0,0,0,0
CL,Chile,country,Latin America and the Caribbean,-35.675147,-71.542969,QA,Qatar,country,Middle East and North Africa,25.354826,51.183884,14503.4056622373,2002,1603,0,0,0,0,1,0,9,1592,0,0,0,0,1,0,0,0,0,0,0,0,0,0,0
HK,Hong Kong,country,East Asia and Pacific,22.396428,114.109497,QA,Qatar,country,Middle East and North Africa,25.354826,51.183884,6354.3433796268,2002,49,4,0,30,0,0,4,6,0,0,0,0,1,4,0,0,0,0,0,0,0,0,0,0
CN,China,country,East Asia and Pacific,35.86166,104.195397,QA,Qatar,country,Middle East and North Africa,25.354826,51.183884,5148.65977529813,2002,4478,61,5,22,155,32,140,2708,393,33,165,0,3,45,2,0,0,714,0,0,0,0,0,0
TW,Taiwan,country,East Asia and Pacific,23.69781,120.960515,QA,Qatar,country,Middle East and North Africa,25.354826,51.183884,6983.31660815456,2002,50,0,0,3,0,1,0,34,3,3,1,0,0,3,2,0,0,0,0,0,0,0,0,0
CO,Colombia,country,Latin America and the Caribbean,4.570868,-74.297333,QA,Qatar,country,Middle East and North Africa,25.354826,51.183884,13275.6464070741,2002,92,0,0,0,0,0,0,0,78,0,0,0,3,11,0,0,0,0,0,0,0,0,0,0
CU,Cuba,country,Latin America and the Caribbean,21.521757,-77.781167,QA,Qatar,country,Middle East and North Africa,25.354826,51.183884,12446.8061583985,2002,0,0,0,0,0,0,0,0,0,0,0,0,0,0,0,0,0,0,0,0,0,0,0,0
CY,Cyprus,country,Europe and Central Asia,35.126413,33.429859,QA,Qatar,country,Middle East and North Africa,25.354826,51.183884,2019.46943000519,2002,306,152,0,5,0,0,0,43,47,0,0,0,9,0,0,0,0,0,50,0,0,0,0,0
CZ,Czech Republic,country,Europe and Central Asia,49.817492,15.472962,QA,Qatar,country,Middle East and North Africa,25.354826,51.183884,4097.98161753022,2002,37,0,0,0,0,0,0,0,7,0,0,0,0,0,0,0,0,0,30,0,0,0,0,0
DK,Denmark,country,Europe and Central Asia,56.26392,9.501785,QA,Qatar,country,Middle East and North Africa,25.354826,51.183884,4790.67468566132,2002,2642,74,30,5,9,0,0,20,175,0,0,0,14,13,1,237,0,1011,1053,0,0,0,0,0
EC,Ecuador,country,Latin America and the Caribbean,-1.831239,-78.183406,QA,Qatar,country,Middle East and North Africa,25.354826,51.183884,14016.7718260196,2002,10,0,0,0,0,0,0,0,0,0,0,0,0,10,0,0,0,0,0,0,0,0,0,0
EG,Egypt,country,Middle East and North Africa,26.820553,30.802498,QA,Qatar,country,Middle East and North Africa,25.354826,51.183884,2042.03510875953,2002,9768,827,894,63,165,0,112,3143,3665,3,5,28,31,614,3,1,9,129,85,0,0,0,0,0
EE,Estonia,country,Europe and Central Asia,58.595272,25.013607,QA,Qatar,country,Middle East and North Africa,25.354826,51.183884,4229.15629792364,2002,31,3,0,0,0,0,0,21,4,0,0,0,0,3,0,0,0,0,0,0,0,0,0,0
ET,Ethiopia,country,Sub-Saharan Africa,9.145,40.489673,QA,Qatar,country,Middle East and North Africa,25.354826,51.183884,2130.07756778551,2002,70,0,0,1,0,0,0,5,0,0,1,0,62,0,0,0,0,1,0,0,0,0,0,0
FI,Finland,country,Europe and Central Asia,61.92411,25.748151,QA,Qatar,country,Middle East and North Africa,25.354826,51.183884,4493.63724887276,2002,36,1,0,26,0,0,0,0,0,0,0,5,2,1,0,1,0,0,0,0,0,0,0,0
FR,France,country,Europe and Central Asia,46.227638,2.213749,QA,Qatar,country,Middle East and North Africa,25.354826,51.183884,4895.64442622759,2002,5473,595,0,147,31,0,8,43,1089,3,6,0,74,538,3,953,0,980,1003,0,0,0,0,0
DE,Germany,country,Europe and Central Asia,51.165691,10.451526,QA,Qatar,country,Middle East and North Africa,25.354826,51.183884,4483.1973558276,2002,7431,376,84,3644,0,0,0,6,63,4,6,30,130,227,130,100,0,1,2630,0,0,0,0,0
GR,Greece,country,Europe and Central Asia,39.074208,21.824312,QA,Qatar,country,Middle East and North Africa,25.354826,51.183884,3138.41931698602,2002,774,45,0,12,0,0,0,67,102,3,0,500,15,0,17,0,0,0,13,0,0,0,0,0
GT,Guatemala,country,Latin America and the Caribbean,15.783471,-90.230759,QA,Qatar,country,Middle East and North Africa,25.354826,51.183884,13835.0539317015,2002,226,13,0,0,0,0,0,0,0,0,199,0,8,6,0,0,0,0,0,0,0,0,0,0
GN,Guinea,country,Sub-Saharan Africa,9.945587,-9.696645,QA,Qatar,country,Middle East and North Africa,25.354826,51.183884,6626.69817266931,2002,5,0,0,0,0,0,2,0,3,0,0,0,0,0,0,0,0,0,0,0,0,0,0,0
HU,Hungary,country,Europe and Central Asia,47.162494,19.503304,QA,Qatar,country,Middle East and North Africa,25.354826,51.183884,3694.46088140632,2002,4,0,0,2,0,0,0,0,1,0,0,0,0,1,0,0,0,0,0,0,0,0,0,0
IN,India,country,South Asia,20.593684,78.96288,QA,Qatar,country,Middle East and North Africa,25.354826,51.183884,2890.46548305451,2002,82037,38862,11,3564,3099,224,7497,14924,1512,3,1400,3685,1470,251,96,500,0,2939,2000,0,0,0,0,0
ID,Indonesia,country,East Asia and Pacific,-0.789275,113.921327,QA,Qatar,country,Middle East and North Africa,25.354826,51.183884,7338.21855402515,2002,546,281,1,50,3,1,94,2,15,0,14,9,46,30,0,0,0,0,0,0,0,0,0,0
IR,Iran,country,Middle East and North Africa,32.427908,53.688046,QA,Qatar,country,Middle East and North Africa,25.354826,51.183884,824.242618121911,2002,29640,171,72,99,343,295,165,17837,3469,0,180,5337,11,466,49,1026,0,0,120,0,0,0,0,0
IE,Ireland,country,Europe and Central Asia,53.41291,-8.24389,QA,Qatar,country,Middle East and North Africa,25.354826,51.183884,5771.27032392702,2002,525,174,0,0,0,0,0,0,0,0,0,0,41,0,0,33,0,3,274,0,0,0,0,0
IT,Italy,country,Europe and Central Asia,41.87194,12.56738,QA,Qatar,country,Middle East and North Africa,25.354826,51.183884,3979.42184482395,2002,2135,672,1,27,100,3,11,392,215,2,32,28,225,110,5,248,0,0,64,0,0,0,0,0
JP,Japan,country,East Asia and Pacific,36.204824,138.252924,QA,Qatar,country,Middle East and North Africa,25.354826,51.183884,8140.63594225345,2002,75,1,22,0,0,0,1,0,0,2,2,0,0,33,1,11,0,1,1,0,0,0,0,0
JO,Jordan,country,Middle East and North Africa,30.585164,36.238414,QA,Qatar,country,Middle East and North Africa,25.354826,51.183884,1578.80501435514,2002,36415,100,1433,16,22,2,58,31268,2124,0,94,206,26,279,5,1,0,65,716,0,0,0,0,0
KZ,Kazakhstan,country,Europe and Central Asia,48.019573,66.923684,QA,Qatar,country,Middle East and North Africa,25.354826,51.183884,2875.08946709367,2002,22,0,0,0,0,2,0,20,0,0,0,0,0,0,0,0,0,0,0,0,0,0,0,0
KE,Kenya,country,Sub-Saharan Africa,-0.023559,37.906193,QA,Qatar,country,Middle East and North Africa,25.354826,51.183884,3165.60377832167,2002,185,0,0,12,0,0,0,13,130,0,0,0,1,29,0,0,0,0,0,0,0,0,0,0
KW,Kuwait,country,Middle East and North Africa,29.31166,47.481766,QA,Qatar,country,Middle East and North Africa,25.354826,51.183884,572.663535541343,2002,7868,260,95,81,4,33,24,337,561,0,0,0,10,32,69,6106,0,21,235,0,0,0,0,0
LV,Latvia,country,Europe and Central Asia,56.879635,24.603189,QA,Qatar,country,Middle East and North Africa,25.354826,51.183884,4101.94378525625,2002,12,0,0,0,0,0,0,12,0,0,0,0,0,0,0,0,0,0,0,0,0,0,0,0
LB,Lebanon,country,Middle East and North Africa,33.854721,35.862285,QA,Qatar,country,Middle East and North Africa,25.354826,51.183884,1755.91107323137,2002,11505,11,2156,94,153,2,7,2142,5984,0,29,0,321,257,82,47,0,0,219,1,0,0,0,0
LY,Libya,country,Middle East and North Africa,26.3351,17.228331,QA,Qatar,country,Middle East and North Africa,25.354826,51.183884,3393.79092946569,2002,0,0,0,0,0,0,0,0,0,0,0,0,0,0,0,0,0,0,0,0,0,0,0,0
LU,Luxembourg,country,Europe and Central Asia,49.815273,6.129583,QA,Qatar,country,Middle East and North Africa,25.354826,51.183884,4714.1229292717,2002,62,0,0,2,0,0,0,0,1,0,0,0,0,0,0,0,0,2,57,0,0,0,0,0
MG,Madagascar,country,Sub-Saharan Africa,-18.766947,46.869107,QA,Qatar,country,Middle East and North Africa,25.354826,51.183884,4933.79086015172,2002,4,0,0,0,0,0,0,0,0,0,4,0,0,0,0,0,0,0,0,0,0,0,0,0
MY,Malaysia,country,East Asia and Pacific,4.210484,101.975766,QA,Qatar,country,Middle East and North Africa,25.354826,51.183884,5905.27589013407,2002,1785,322,283,47,16,2,39,22,279,0,8,0,46,301,294,5,0,74,47,0,0,0,0,0
MV,Maldives,country,South Asia,3.202778,73.22068,QA,Qatar,country,Middle East and North Africa,25.354826,51.183884,3412.28580361741,2002,0,0,0,0,0,0,0,0,0,0,0,0,0,0,0,0,0,0,0,0,0,0,0,0
MT,Malta,country,Middle East and North Africa,35.937496,14.375416,QA,Qatar,country,Middle East and North Africa,25.354826,51.183884,3691.5676859738,2002,318,66,0,85,0,0,0,0,53,0,2,0,37,48,0,27,0,0,0,0,0,0,0,0
MU,Mauritius,country,Sub-Saharan Africa,-20.348404,57.552152,QA,Qatar,country,Middle East and North Africa,25.354826,51.183884,5134.0856042119,2002,1,0,0,1,0,0,0,0,0,0,0,0,0,0,0,0,0,0,0,0,0,0,0,0
MX,Mexico,country,Latin America and the Caribbean,23.634501,-102.552784,QA,Qatar,country,Middle East and North Africa,25.354826,51.183884,13892.861932842,2002,310,0,0,3,209,0,0,2,0,0,5,0,0,0,0,91,0,0,0,0,0,0,0,0
MA,Morocco,country,Middle East and North Africa,31.791702,-7.09262,QA,Qatar,country,Middle East and North Africa,25.354826,51.183884,5675.97207688539,2002,32,0,0,0,0,0,0,7,7,0,0,0,17,0,1,0,0,0,0,0,0,0,0,0
MM,Myanmar,country,East Asia and Pacific,21.913965,95.956223,QA,Qatar,country,Middle East and North Africa,25.354826,51.183884,4561.34562151873,2002,14,0,0,0,4,0,0,10,0,0,0,0,0,0,0,0,0,0,0,0,0,0,0,0
NP,Nepal,country,South Asia,28.394857,84.124008,QA,Qatar,country,Middle East and North Africa,25.354826,51.183884,3278.22469513691,2002,1,0,0,0,0,0,0,1,0,0,0,0,0,0,0,0,0,0,0,0,0,0,0,0
NL,Netherlands,country,Europe and Central Asia,52.132633,5.291266,QA,Qatar,country,Middle East and North Africa,25.354826,51.183884,4853.89419546757,2002,10740,165,818,37,6,0,10,760,126,0,1,26,321,702,21,1919,0,17,5811,0,0,0,0,0
NZ,New Zealand,country,East Asia and Pacific,-40.900557,174.885971,QA,Qatar,country,Middle East and North Africa,25.354826,51.183884,14610.9649601459,2002,1364,2,0,5,3,0,0,65,351,0,0,18,4,1,0,1,0,589,325,0,0,0,0,0
NO,Norway,country,Europe and Central Asia,60.472024,8.468946,QA,Qatar,country,Middle East and North Africa,25.354826,51.183884,5074.62552742738,2002,7,0,0,0,0,0,0,0,0,0,0,0,0,5,0,1,0,0,1,0,0,0,0,0
OM,Oman,country,Middle East and North Africa,21.512583,55.923255,QA,Qatar,country,Middle East and North Africa,25.354826,51.183884,645.837727578887,2002,6339,1597,142,64,1,28,18,929,520,0,2,226,8,466,711,1368,10,0,259,0,0,0,0,0
PK,Pakistan,country,South Asia,30.375321,69.345116,QA,Qatar,country,Middle East and North Africa,25.354826,51.183884,1870.04838492386,2002,33940,26334,48,29,255,9,11,1590,2568,375,199,1713,7,27,1,1,0,773,0,0,0,0,0,0
PY,Paraguay,country,Latin America and the Caribbean,-23.442503,-58.443832,QA,Qatar,country,Middle East and North Africa,25.354826,51.183884,12987.6688482076,2002,3,0,0,0,0,0,0,0,0,0,0,0,0,0,0,0,0,3,0,0,0,0,0,0
PH,Philippines,country,East Asia and Pacific,12.879721,121.774017,QA,Qatar,country,Middle East and North Africa,25.354826,51.183884,7475.87054064651,2002,10943,213,5,8,1,4,216,34,10240,0,7,0,10,168,10,8,0,12,7,0,0,0,0,0
PL,Poland,country,Europe and Central Asia,51.919438,19.145136,QA,Qatar,country,Middle East and North Africa,25.354826,51.183884,4001.83128431686,2002,391,47,186,10,0,0,0,0,5,0,0,5,134,0,0,0,0,0,4,0,0,0,0,0
PT,Portugal,country,Europe and Central Asia,39.399872,-8.224454,QA,Qatar,country,Middle East and North Africa,25.354826,51.183884,5694.82931882001,2002,25,0,0,0,0,0,0,0,0,0,0,0,0,0,5,0,0,0,20,0,0,0,0,0
KR,"Korea, Rep.",country,East Asia and Pacific,35.907757,127.766922,QA,Qatar,country,Middle East and North Africa,25.354826,51.183884,7247.28025769129,2002,84,36,1,19,1,0,0,1,0,1,1,0,0,19,0,5,0,0,0,0,0,0,0,0
RO,Romania,country,Europe and Central Asia,45.943161,24.96676,QA,Qatar,country,Middle East and North Africa,25.354826,51.183884,3269.24800202341,2002,4,0,0,0,0,0,0,0,4,0,0,0,0,0,0,0,0,0,0,0,0,0,0,0
RU,Russian Federation,country,Europe and Central Asia,61.52401,105.318756,QA,Qatar,country,Middle East and North Africa,25.354826,51.183884,5681.16484581311,2002,13,0,0,9,0,1,0,0,0,0,0,0,0,0,0,3,0,0,0,0,0,0,0,0
SA,Saudi Arabia,country,Middle East and North Africa,23.885942,45.079162,QA,Qatar,country,Middle East and North Africa,25.354826,51.183884,638.990388286206,2002,84543,7842,3706,373,19,0,61,11602,12584,0,16,3725,268,1502,6208,11952,107,2620,22065,0,0,0,0,0
SG,Singapore,country,East Asia and Pacific,1.352083,103.819836,QA,Qatar,country,Middle East and North Africa,25.354826,51.183884,6240.21727791532,2002,799,77,0,48,2,0,3,0,4,0,4,0,10,14,415,212,0,0,10,0,0,0,0,0
SK,Slovak Rep.,country,Europe and Central Asia,48.669026,19.699024,QA,Qatar,country,Middle East and North Africa,25.354826,51.183884,3768.29383225172,2002,1,0,0,0,0,0,0,0,0,0,0,0,0,1,0,0,0,0,0,0,0,0,0,0
SO,Somalia,country,Sub-Saharan Africa,5.152149,46.199616,QA,Qatar,country,Middle East and North Africa,25.354826,51.183884,2310.98944218845,2002,4,0,0,0,0,0,0,0,4,0,0,0,0,0,0,0,0,0,0,0,0,0,0,0
ZA,S. Africa,country,Sub-Saharan Africa,-30.559482,22.937506,QA,Qatar,country,Middle East and North Africa,25.354826,51.183884,6914.09331916231,2002,5828,60,0,432,0,0,0,31,4961,0,1,15,194,61,0,55,0,15,3,0,0,0,0,0
ES,Spain,country,Europe and Central Asia,40.463667,-3.74922,QA,Qatar,country,Middle East and North Africa,25.354826,51.183884,5310.81937791307,2002,1833,51,0,28,2,0,2,952,162,0,1,28,171,86,327,0,0,1,22,0,0,0,0,0
LK,Sri Lanka,country,South Asia,7.873054,80.771797,QA,Qatar,country,Middle East and North Africa,25.354826,51.183884,3692.08702970037,2002,1384,191,0,0,2,31,382,468,105,0,9,0,122,74,0,0,0,0,0,0,0,0,0,0
SD,Sudan,country,Sub-Saharan Africa,12.862807,30.217636,QA,Qatar,country,Middle East and North Africa,25.354826,51.183884,2600.98745827774,2002,1459,299,0,0,0,0,72,30,472,0,0,167,0,28,1,0,0,390,0,0,0,0,0,0
SZ,Swaziland,country,Sub-Saharan Africa,-26.522503,31.465866,QA,Qatar,country,Middle East and North Africa,25.354826,51.183884,6150.87117330842,2002,9,3,0,0,0,0,0,0,0,0,0,0,1,4,0,1,0,0,0,0,0,0,0,0
SE,Sweden,country,Europe and Central Asia,60.128161,18.643501,QA,Qatar,country,Middle East and North Africa,25.354826,51.183884,4602.39331635238,2002,51,0,0,0,0,0,0,0,0,0,0,0,18,1,1,29,0,0,2,0,0,0,0,0
CH,Switzerland,country,Europe and Central Asia,46.818188,8.227512,QA,Qatar,country,Middle East and North Africa,25.354826,51.183884,4464.69294166418,2002,663,36,0,29,0,0,0,0,20,0,0,1,125,128,0,217,0,0,107,0,0,0,0,0
SY,Syrian Arab Rep.,country,Middle East and North Africa,34.802075,38.996815,QA,Qatar,country,Middle East and North Africa,25.354826,51.183884,1573.72646731644,2002,20164,38,1278,105,53,70,0,11101,5985,0,97,0,24,137,52,1,0,0,1223,0,0,0,0,0
TH,Thailand,country,East Asia and Pacific,15.870032,100.992541,QA,Qatar,country,Middle East and North Africa,25.354826,51.183884,5266.35918492563,2002,2241,1490,23,10,10,2,30,152,314,0,16,104,40,22,1,19,0,8,0,0,0,0,0,0
TO,Tonga,country,East Asia and Pacific,-21.178986,-175.198242,QA,Qatar,country,Middle East and North Africa,25.354826,51.183884,15294.3635859041,2002,2,0,0,0,0,0,0,0,0,0,0,0,0,2,0,0,0,0,0,0,0,0,0,0
TN,Tunisia,country,Middle East and North Africa,33.886917,9.537499,QA,Qatar,country,Middle East and North Africa,25.354826,51.183884,4111.41302133711,2002,186,5,0,0,0,0,0,0,98,0,0,0,2,1,80,0,0,0,0,0,0,0,0,0
TR,Turkey,country,Europe and Central Asia,38.963745,35.243322,QA,Qatar,country,Middle East and North Africa,25.354826,51.183884,2127.04565436248,2002,19878,12335,28,299,225,37,7,1718,4380,0,25,215,173,74,150,77,0,9,126,0,0,0,0,0
UA,Ukraine,country,Europe and Central Asia,48.379433,31.16558,QA,Qatar,country,Middle East and North Africa,25.354826,51.183884,3101.60840918931,2002,0,0,0,0,0,0,0,0,0,0,0,0,0,0,0,0,0,0,0,0,0,0,0,0
AE,United Arab Emirates,country,Middle East and North Africa,23.424076,53.847818,QA,Qatar,country,Middle East and North Africa,25.354826,51.183884,345.147488919567,2002,73101,24410,278,9347,49,88,159,1245,4361,5,16,3404,1694,1039,6985,17880,0,400,1741,0,0,0,0,0
GB,United Kingdom,country,Europe and Central Asia,55.378051,-3.435973,QA,Qatar,country,Middle East and North Africa,25.354826,51.183884,5508.47058423377,2002,5542,800,3,71,49,2,42,258,140,0,69,465,412,1195,69,1748,0,2,217,0,0,0,0,0
TZ,Tanzania,country,Sub-Saharan Africa,-6.369028,34.888822,QA,Qatar,country,Middle East and North Africa,25.354826,51.183884,3947.44892099199,2002,154,0,0,0,141,2,0,0,0,0,11,0,0,0,0,0,0,0,0,0,0,0,0,0
US,USA,country,North America,37.09024,-95.712891,QA,Qatar,country,Middle East and North Africa,25.354826,51.183884,12269.4355771819,2002,25377,7533,393,80,67,202,145,1006,2621,0,62,48,247,9921,332,847,0,1693,180,0,0,0,0,0
UY,Uruguay,country,Latin America and the Caribbean,-32.522779,-55.765835,QA,Qatar,country,Middle East and North Africa,25.354826,51.183884,13012.7332702695,2002,194,0,0,0,0,0,0,0,0,0,0,0,0,0,0,0,0,194,0,0,0,0,0,0
VN,Vietnam,country,East Asia and Pacific,14.058324,108.277199,QA,Qatar,country,Middle East and North Africa,25.354826,51.183884,6070.41396758098,2002,340,0,0,0,0,0,68,0,0,0,133,115,0,8,0,16,0,0,0,0,0,0,0,0
YE,Yemen,country,Middle East and North Africa,15.552727,48.516388,QA,Qatar,country,Middle East and North Africa,25.354826,51.183884,1125.95689628297,2002,59,38,0,1,0,0,0,0,5,0,0,0,13,2,0,0,0,0,0,0,0,0,0,0
DZ,Algeria,country,Middle East and North Africa,28.033886,1.659626,QA,Qatar,country,Middle East and North Africa,25.354826,51.183884,4900.86323617494,2003,17,0,0,0,0,0,0,12,5,0,0,0,0,0,0,0,0,0,0,0,0,0,0,0
AR,Argentina,country,Latin America and the Caribbean,-38.416097,-63.616672,QA,Qatar,country,Middle East and North Africa,25.354826,51.183884,13833.5780448946,2003,7592,6671,0,4,22,0,6,3,145,0,5,0,3,0,188,0,0,545,0,0,0,0,0,0
AU,Australia,country,East Asia and Pacific,-25.274398,133.775136,QA,Qatar,country,Middle East and North Africa,25.354826,51.183884,10513.3003057911,2003,10832,2767,4,54,173,8,20,1570,247,0,8,1049,148,14,6,1027,0,3479,258,0,0,0,0,0
AT,Austria,country,Europe and Central Asia,47.516231,14.550072,QA,Qatar,country,Middle East and North Africa,25.354826,51.183884,4044.81151352353,2003,596,2,0,0,0,1,0,0,118,0,0,0,104,0,54,252,0,0,65,0,0,0,0,0
AZ,Azerbaijan,country,Europe and Central Asia,40.143105,47.576927,QA,Qatar,country,Middle East and North Africa,25.354826,51.183884,1680.07734393668,2003,1,0,0,0,0,0,1,0,0,0,0,0,0,0,0,0,0,0,0,0,0,0,0,0
BH,Bahrain,country,Middle East and North Africa,25.930414,50.637772,QA,Qatar,country,Middle East and North Africa,25.354826,51.183884,84.3154243988478,2003,10080,67,2,1,0,0,0,23,51,0,9,3,19,21,5,9474,0,0,405,0,0,0,0,0
BD,Bangladesh,country,South Asia,23.684994,90.356331,QA,Qatar,country,Middle East and North Africa,25.354826,51.183884,3957.70887263231,2003,1427,29,0,0,0,0,0,1313,10,0,2,0,60,10,0,0,0,3,0,0,0,0,0,0
BE,Belgium,country,Europe and Central Asia,50.503887,4.469936,QA,Qatar,country,Middle East and North Africa,25.354826,51.183884,4850.26746905,2003,3467,224,515,678,25,0,0,1341,194,0,0,130,47,76,0,214,0,0,23,0,0,0,0,0
BR,Brazil,country,Latin America and the Caribbean,-14.235004,-51.92528,QA,Qatar,country,Middle East and North Africa,25.354826,51.183884,11988.6607078962,2003,29930,1,0,11,1,0,22,5,223,0,0,0,35,1,0,0,0,29631,0,0,0,0,0,0
BG,Bulgaria,country,Europe and Central Asia,42.733883,25.48583,QA,Qatar,country,Middle East and North Africa,25.354826,51.183884,3037.89564401813,2003,4,0,0,0,0,0,0,0,0,0,0,0,0,0,0,0,0,0,4,0,0,0,0,0
KH,Cambodia,country,East Asia and Pacific,12.565679,104.990963,QA,Qatar,country,Middle East and North Africa,25.354826,51.183884,5802.00032310029,2003,16,14,0,0,0,0,0,0,2,0,0,0,0,0,0,0,0,0,0,0,0,0,0,0
CA,Canada,country,North America,56.130366,-106.346771,QA,Qatar,country,Middle East and North Africa,25.354826,51.183884,10720.6947495884,2003,10674,9139,390,40,436,8,21,59,59,3,12,0,2,57,2,279,0,3,164,0,0,0,0,0
CL,Chile,country,Latin America and the Caribbean,-35.675147,-71.542969,QA,Qatar,country,Middle East and North Africa,25.354826,51.183884,14503.4056622373,2003,1733,0,0,0,2,2,0,21,1708,0,0,0,0,0,0,0,0,0,0,0,0,0,0,0
HK,Hong Kong,country,East Asia and Pacific,22.396428,114.109497,QA,Qatar,country,Middle East and North Africa,25.354826,51.183884,6354.3433796268,2003,25,3,0,12,0,0,4,2,0,2,0,0,2,0,0,0,0,0,0,0,0,0,0,0
CN,China,country,East Asia and Pacific,35.86166,104.195397,QA,Qatar,country,Middle East and North Africa,25.354826,51.183884,5148.65977529813,2003,11773,6651,3,24,193,48,145,2458,433,29,725,0,4,90,2,0,0,968,0,0,0,0,0,0
TW,Taiwan,country,East Asia and Pacific,23.69781,120.960515,QA,Qatar,country,Middle East and North Africa,25.354826,51.183884,6983.31660815456,2003,37,0,0,0,0,0,1,18,9,4,0,0,0,5,0,0,0,0,0,0,0,0,0,0
CO,Colombia,country,Latin America and the Caribbean,4.570868,-74.297333,QA,Qatar,country,Middle East and North Africa,25.354826,51.183884,13275.6464070741,2003,31,0,0,0,0,0,1,0,0,0,0,0,8,22,0,0,0,0,0,0,0,0,0,0
CR,Costa Rica,country,Latin America and the Caribbean,9.748917,-83.753428,QA,Qatar,country,Middle East and North Africa,25.354826,51.183884,13783.4220465229,2003,0,0,0,0,0,0,0,0,0,0,0,0,0,0,0,0,0,0,0,0,0,0,0,0
CU,Cuba,country,Latin America and the Caribbean,21.521757,-77.781167,QA,Qatar,country,Middle East and North Africa,25.354826,51.183884,12446.8061583985,2003,0,0,0,0,0,0,0,0,0,0,0,0,0,0,0,0,0,0,0,0,0,0,0,0
CY,Cyprus,country,Europe and Central Asia,35.126413,33.429859,QA,Qatar,country,Middle East and North Africa,25.354826,51.183884,2019.46943000519,2003,397,50,0,4,0,0,0,11,139,0,0,0,4,130,0,6,0,0,53,0,0,0,0,0
CZ,Czech Republic,country,Europe and Central Asia,49.817492,15.472962,QA,Qatar,country,Middle East and North Africa,25.354826,51.183884,4097.98161753022,2003,98,0,0,0,0,1,0,0,10,0,0,0,0,1,0,0,0,0,86,0,0,0,0,0
DK,Denmark,country,Europe and Central Asia,56.26392,9.501785,QA,Qatar,country,Middle East and North Africa,25.354826,51.183884,4790.67468566132,2003,3337,58,57,54,0,0,0,110,154,0,1,0,22,14,0,453,0,1363,1051,0,0,0,0,0
DO,Dominican Republic,country,Latin America and the Caribbean,18.735693,-70.162651,QA,Qatar,country,Middle East and North Africa,25.354826,51.183884,12013.309239255,2003,0,0,0,0,0,0,0,0,0,0,0,0,0,0,0,0,0,0,0,0,0,0,0,0
EC,Ecuador,country,Latin America and the Caribbean,-1.831239,-78.183406,QA,Qatar,country,Middle East and North Africa,25.354826,51.183884,14016.7718260196,2003,84,0,0,0,0,0,0,0,54,0,0,0,0,30,0,0,0,0,0,0,0,0,0,0
EG,Egypt,country,Middle East and North Africa,26.820553,30.802498,QA,Qatar,country,Middle East and North Africa,25.354826,51.183884,2042.03510875953,2003,10045,1364,688,75,196,6,32,2933,3849,0,4,20,35,595,1,35,1,170,42,0,0,0,0,0
ET,Ethiopia,country,Sub-Saharan Africa,9.145,40.489673,QA,Qatar,country,Middle East and North Africa,25.354826,51.183884,2130.07756778551,2003,60,0,0,0,0,0,0,0,0,0,0,0,60,0,0,0,0,0,0,0,0,0,0,0
FI,Finland,country,Europe and Central Asia,61.92411,25.748151,QA,Qatar,country,Middle East and North Africa,25.354826,51.183884,4493.63724887276,2003,21,0,0,13,0,0,0,0,0,0,0,3,1,0,0,4,0,0,0,0,0,0,0,0
FR,France,country,Europe and Central Asia,46.227638,2.213749,QA,Qatar,country,Middle East and North Africa,25.354826,51.183884,4895.64442622759,2003,6067,697,96,246,5,1,13,74,835,9,14,1,177,428,1,1369,0,1463,638,0,0,0,0,0
DE,Germany,country,Europe and Central Asia,51.165691,10.451526,QA,Qatar,country,Middle East and North Africa,25.354826,51.183884,4483.1973558276,2003,11519,8145,110,1281,2,0,5,2,22,0,0,56,170,256,149,209,0,1,1111,0,0,0,0,0
GR,Greece,country,Europe and Central Asia,39.074208,21.824312,QA,Qatar,country,Middle East and North Africa,25.354826,51.183884,3138.41931698602,2003,238,45,0,10,5,5,0,93,74,0,0,0,6,0,0,0,0,0,0,0,0,0,0,0
