sourceCode,sourceName,sourceGrouping,sourceRegion,sourceLat,sourceLong,destCode,destName,destGrouping,destRegion,destLat,destLong,distance,year,totalTons,cereals,roots,sugarCrops,pulses,nuts,oilCrops,vegetables,fruits,fibers,spices,fodderCrops,coffeeTea,tobaccoRubber,oilsFats,beverages,livestock,animalMeats,animalProducts,animalHides,nimalOther,pesticides,fertilizers,machinery
AL,Albania,country,Europe and Central Asia,41.153332,20.168331,NZ,New Zealand,country,East Asia and Pacific,-40.900557,174.885971,17921.6231298064,1986,0,0,0,0,0,0,0,0,0,0,0,0,0,0,0,0,0,0,0,0,0,0,0,0
AG,Antigua & Barbuda,country,Latin America and the Caribbean,17.060816,-61.796428,NZ,New Zealand,country,East Asia and Pacific,-40.900557,174.885971,14035.8032904426,1986,0,0,0,0,0,0,0,0,0,0,0,0,0,0,0,0,0,0,0,0,0,0,0,0
AR,Argentina,country,Latin America and the Caribbean,-38.416097,-63.616672,NZ,New Zealand,country,East Asia and Pacific,-40.900557,174.885971,9396.35490511559,1986,9172,0,0,0,0,0,0,0,15,0,0,0,0,128,9029,0,0,0,0,0,0,0,0,0
AU,Australia,country,East Asia and Pacific,-25.274398,133.775136,NZ,New Zealand,country,East Asia and Pacific,-40.900557,174.885971,4162.27214264836,1986,163516,33340,0,65470,589,61,2092,3860,36764,201,25,7183,1301,150,2216,6706,0,769,465,2324,0,0,0,0
AT,Austria,country,Europe and Central Asia,47.516231,14.550072,NZ,New Zealand,country,East Asia and Pacific,-40.900557,174.885971,18310.6283212618,1986,74,0,0,1,0,0,0,0,3,0,0,0,0,0,0,0,0,0,70,0,0,0,0,0
BD,Bangladesh,country,South Asia,23.684994,90.356331,NZ,New Zealand,country,East Asia and Pacific,-40.900557,174.885971,11283.724065472,1986,9,0,0,0,0,0,0,0,0,0,0,0,9,0,0,0,0,0,0,0,0,0,0,0
BE,Belgium,country,Europe and Central Asia,50.503887,4.469936,NZ,New Zealand,country,East Asia and Pacific,-40.900557,174.885971,18736.7606707317,1986,923,2,0,35,0,0,2,0,2,19,0,0,7,0,856,0,0,0,0,0,0,0,0,0
BW,Botswana,country,Sub-Saharan Africa,-22.328474,24.684866,NZ,New Zealand,country,East Asia and Pacific,-40.900557,174.885971,12353.7921077055,1986,37,0,0,37,0,0,0,0,0,0,0,0,0,0,0,0,0,0,0,0,0,0,0,0
BR,Brazil,country,Latin America and the Caribbean,-14.235004,-51.92528,NZ,New Zealand,country,East Asia and Pacific,-40.900557,174.885971,12234.2778670789,1986,2571,0,0,190,0,8,0,2,1551,42,3,0,66,690,19,0,0,0,0,0,0,0,0,0
BN,Brunei Darussalam,country,,4.535277,114.727669,NZ,New Zealand,country,East Asia and Pacific,-40.900557,174.885971,7919.90059738602,1986,0,0,0,0,0,0,0,0,0,0,0,0,0,0,0,0,0,0,0,0,0,0,0,0
BG,Bulgaria,country,Europe and Central Asia,42.733883,25.48583,NZ,New Zealand,country,East Asia and Pacific,-40.900557,174.885971,17504.5714485223,1986,29,0,0,0,0,0,0,28,0,0,1,0,0,0,0,0,0,0,0,0,0,0,0,0
CA,Canada,country,North America,56.130366,-106.346771,NZ,New Zealand,country,East Asia and Pacific,-40.900557,174.885971,13078.8822655872,1986,2831,1,0,32,734,0,384,9,335,0,0,33,0,25,680,6,0,589,3,0,0,0,0,0
KY,Cayman Islands,country,Latin America and the Caribbean,19.513469,-80.566956,NZ,New Zealand,country,East Asia and Pacific,-40.900557,174.885971,12627.1217964497,1986,19,0,0,0,0,0,0,0,19,0,0,0,0,0,0,0,0,0,0,0,0,0,0,0
CL,Chile,country,Latin America and the Caribbean,-35.675147,-71.542969,NZ,New Zealand,country,East Asia and Pacific,-40.900557,174.885971,9146.62956844645,1986,33,0,0,17,0,0,0,0,11,0,0,0,0,0,0,5,0,0,0,0,0,0,0,0
HK,Hong Kong,country,East Asia and Pacific,22.396428,114.109497,NZ,New Zealand,country,East Asia and Pacific,-40.900557,174.885971,9432.9557257228,1986,416,7,0,10,9,42,167,23,23,53,0,0,43,0,23,16,0,0,0,0,0,0,0,0
CN,China,country,East Asia and Pacific,35.86166,104.195397,NZ,New Zealand,country,East Asia and Pacific,-40.900557,174.885971,11179.691715032,1986,3545,258,0,16,23,147,549,73,333,16,28,0,2002,26,74,0,0,0,0,0,0,0,0,0
TW,Taiwan,country,East Asia and Pacific,23.69781,120.960515,NZ,New Zealand,country,East Asia and Pacific,-40.900557,174.885971,9094.58432340962,1986,419,3,0,0,0,0,9,178,181,3,8,0,0,5,32,0,0,0,0,0,0,0,0,0
CO,Colombia,country,Latin America and the Caribbean,4.570868,-74.297333,NZ,New Zealand,country,East Asia and Pacific,-40.900557,174.885971,12095.8733055889,1986,50,0,0,0,0,0,0,0,0,0,0,0,50,0,0,0,0,0,0,0,0,0,0,0
CK,Cook Islands,country,East Asia and Pacific,-21.236736,-159.777671,NZ,New Zealand,country,East Asia and Pacific,-40.900557,174.885971,3237.50614341193,1986,1718,0,0,0,0,2,9,89,1613,0,5,0,0,0,0,0,0,0,0,0,0,0,0,0
CR,Costa Rica,country,Latin America and the Caribbean,9.748917,-83.753428,NZ,New Zealand,country,East Asia and Pacific,-40.900557,174.885971,11680.5525259308,1986,41,0,0,0,0,0,0,0,0,0,0,0,41,0,0,0,0,0,0,0,0,0,0,0
CI,Ivory Coast,country,Sub-Saharan Africa,7.539989,-5.54708,NZ,New Zealand,country,East Asia and Pacific,-40.900557,174.885971,16323.5786695911,1986,273,0,0,0,0,0,0,0,0,0,0,0,273,0,0,0,0,0,0,0,0,0,0,0
CU,Cuba,country,Latin America and the Caribbean,21.521757,-77.781167,NZ,New Zealand,country,East Asia and Pacific,-40.900557,174.885971,12993.5688041845,1986,0,0,0,0,0,0,0,0,0,0,0,0,0,0,0,0,0,0,0,0,0,0,0,0
CY,Cyprus,country,Europe and Central Asia,35.126413,33.429859,NZ,New Zealand,country,East Asia and Pacific,-40.900557,174.885971,16624.8543183993,1986,3,0,0,0,0,0,0,0,3,0,0,0,0,0,0,0,0,0,0,0,0,0,0,0
CZ,Czech Republic,country,Europe and Central Asia,49.817492,15.472962,NZ,New Zealand,country,East Asia and Pacific,-40.900557,174.885971,18155.249643041,1986,0,0,0,0,0,0,0,0,0,0,0,0,0,0,0,0,0,0,0,0,0,0,0,0
DK,Denmark,country,Europe and Central Asia,56.26392,9.501785,NZ,New Zealand,country,East Asia and Pacific,-40.900557,174.885971,18026.0204362707,1986,433,21,0,5,0,0,1,0,8,0,0,0,14,1,0,289,0,0,94,0,0,0,0,0
EC,Ecuador,country,Latin America and the Caribbean,-1.831239,-78.183406,NZ,New Zealand,country,East Asia and Pacific,-40.900557,174.885971,11297.0383583639,1986,19856,0,0,0,0,0,0,0,19564,0,0,0,292,0,0,0,0,0,0,0,0,0,0,0
EG,Egypt,country,Middle East and North Africa,26.820553,30.802498,NZ,New Zealand,country,East Asia and Pacific,-40.900557,174.885971,16399.7029091802,1986,2,0,0,0,0,0,0,1,0,0,1,0,0,0,0,0,0,0,0,0,0,0,0,0
ET,Ethiopia,country,Sub-Saharan Africa,9.145,40.489673,NZ,New Zealand,country,East Asia and Pacific,-40.900557,174.885971,14334.184766532,1986,45,0,0,0,0,0,0,0,0,0,0,0,45,0,0,0,0,0,0,0,0,0,0,0
FJ,Fiji,country,East Asia and Pacific,-16.578193,179.414413,NZ,New Zealand,country,East Asia and Pacific,-40.900557,174.885971,2742.36387410259,1986,39376,56,0,38794,0,0,4,68,340,0,11,0,0,0,0,103,0,0,0,0,0,0,0,0
FI,Finland,country,Europe and Central Asia,61.92411,25.748151,NZ,New Zealand,country,East Asia and Pacific,-40.900557,174.885971,16922.1260128795,1986,2,0,0,2,0,0,0,0,0,0,0,0,0,0,0,0,0,0,0,0,0,0,0,0
FR,France,country,Europe and Central Asia,46.227638,2.213749,NZ,New Zealand,country,East Asia and Pacific,-40.900557,174.885971,19200.9265063066,1986,1827,16,0,321,0,0,3,4,6,0,0,0,10,28,9,1380,0,2,48,0,0,0,0,0
GH,Ghana,country,Sub-Saharan Africa,7.946527,-1.023194,NZ,New Zealand,country,East Asia and Pacific,-40.900557,174.885971,16346.7796240982,1986,2520,0,0,0,0,0,0,0,0,0,0,0,2520,0,0,0,0,0,0,0,0,0,0,0
GR,Greece,country,Europe and Central Asia,39.074208,21.824312,NZ,New Zealand,country,East Asia and Pacific,-40.900557,174.885971,17740.0326256701,1986,326,56,0,0,0,0,41,2,218,0,0,0,0,0,0,9,0,0,0,0,0,0,0,0
GT,Guatemala,country,Latin America and the Caribbean,15.783471,-90.230759,NZ,New Zealand,country,East Asia and Pacific,-40.900557,174.885971,11564.6594723362,1986,105,0,0,0,0,0,0,0,0,0,3,0,102,0,0,0,0,0,0,0,0,0,0,0
HN,Honduras,country,Latin America and the Caribbean,15.199999,-86.241905,NZ,New Zealand,country,East Asia and Pacific,-40.900557,174.885971,11856.5131484343,1986,1,0,0,0,0,0,0,0,1,0,0,0,0,0,0,0,0,0,0,0,0,0,0,0
HU,Hungary,country,Europe and Central Asia,47.162494,19.503304,NZ,New Zealand,country,East Asia and Pacific,-40.900557,174.885971,17958.0937861549,1986,77,0,0,0,0,0,0,64,0,0,10,0,0,0,0,3,0,0,0,0,0,0,0,0
IN,India,country,South Asia,20.593684,78.96288,NZ,New Zealand,country,East Asia and Pacific,-40.900557,174.885971,11984.2976921897,1986,2540,28,0,0,11,356,188,31,3,0,55,0,1699,94,75,0,0,0,0,0,0,0,0,0
ID,Indonesia,country,East Asia and Pacific,-0.789275,113.921327,NZ,New Zealand,country,East Asia and Pacific,-40.900557,174.885971,7561.27854515998,1986,3301,0,0,0,0,0,36,0,10,0,42,0,3205,8,0,0,0,0,0,0,0,0,0,0
IR,Iran,country,Middle East and North Africa,32.427908,53.688046,NZ,New Zealand,country,East Asia and Pacific,-40.900557,174.885971,14801.7992409038,1986,209,0,0,0,0,0,0,0,209,0,0,0,0,0,0,0,0,0,0,0,0,0,0,0
IQ,Iraq,country,Middle East and North Africa,33.223191,43.679291,NZ,New Zealand,country,East Asia and Pacific,-40.900557,174.885971,15677.1857445538,1986,93,0,0,0,0,0,0,0,93,0,0,0,0,0,0,0,0,0,0,0,0,0,0,0
IE,Ireland,country,Europe and Central Asia,53.41291,-8.24389,NZ,New Zealand,country,East Asia and Pacific,-40.900557,174.885971,18624.9919137641,1986,347,0,0,55,0,0,0,0,0,0,0,0,0,0,0,292,0,0,0,0,0,0,0,0
IL,Israel,country,Middle East and North Africa,31.046051,34.851612,NZ,New Zealand,country,East Asia and Pacific,-40.900557,174.885971,16309.5261752265,1986,79,2,0,0,0,0,12,60,4,0,0,0,0,0,0,1,0,0,0,0,0,0,0,0
IT,Italy,country,Europe and Central Asia,41.87194,12.56738,NZ,New Zealand,country,East Asia and Pacific,-40.900557,174.885971,18559.4352153087,1986,745,40,0,2,0,0,0,169,242,8,0,0,0,7,39,236,0,0,2,0,0,0,0,0
JM,Jamaica,country,Latin America and the Caribbean,18.109581,-77.297508,NZ,New Zealand,country,East Asia and Pacific,-40.900557,174.885971,12806.7458218431,1986,379,0,0,0,0,0,0,0,24,0,9,0,0,0,0,346,0,0,0,0,0,0,0,0
JP,Japan,country,East Asia and Pacific,36.204824,138.252924,NZ,New Zealand,country,East Asia and Pacific,-40.900557,174.885971,9362.64636961408,1986,998,27,0,137,1,0,26,18,4,109,2,0,298,95,264,16,0,1,0,0,0,0,0,0
KE,Kenya,country,Sub-Saharan Africa,-0.023559,37.906193,NZ,New Zealand,country,East Asia and Pacific,-40.900557,174.885971,13751.0427397015,1986,175,0,0,0,0,0,0,0,0,0,0,0,175,0,0,0,0,0,0,0,0,0,0,0
KI,Kiribati,country,East Asia and Pacific,-3.370417,-168.734039,NZ,New Zealand,country,East Asia and Pacific,-40.900557,174.885971,4488.74074732655,1986,0,0,0,0,0,0,0,0,0,0,0,0,0,0,0,0,0,0,0,0,0,0,0,0
KW,Kuwait,country,Middle East and North Africa,29.31166,47.481766,NZ,New Zealand,country,East Asia and Pacific,-40.900557,174.885971,15153.6414391444,1986,17,0,0,0,0,0,0,0,17,0,0,0,0,0,0,0,0,0,0,0,0,0,0,0
MG,Madagascar,country,Sub-Saharan Africa,-18.766947,46.869107,NZ,New Zealand,country,East Asia and Pacific,-40.900557,174.885971,11499.8066796815,1986,7,0,0,0,0,0,0,0,0,0,7,0,0,0,0,0,0,0,0,0,0,0,0,0
MW,Malawi,country,Sub-Saharan Africa,-13.254308,34.301525,NZ,New Zealand,country,East Asia and Pacific,-40.900557,174.885971,12771.1520475471,1986,491,0,0,0,1,0,0,0,0,0,0,0,96,394,0,0,0,0,0,0,0,0,0,0
MY,Malaysia,country,East Asia and Pacific,4.210484,101.975766,NZ,New Zealand,country,East Asia and Pacific,-40.900557,174.885971,8906.84726377256,1986,13807,0,0,73,0,0,270,0,1036,0,113,0,1043,6145,5127,0,0,0,0,0,0,0,0,0
MU,Mauritius,country,Sub-Saharan Africa,-20.348404,57.552152,NZ,New Zealand,country,East Asia and Pacific,-40.900557,174.885971,10643.1034141026,1986,32,0,0,0,0,0,0,0,4,0,0,0,28,0,0,0,0,0,0,0,0,0,0,0
MX,Mexico,country,Latin America and the Caribbean,23.634501,-102.552784,NZ,New Zealand,country,East Asia and Pacific,-40.900557,174.885971,11126.7175692642,1986,258,0,0,0,0,0,66,0,70,0,3,0,0,0,0,119,0,0,0,0,0,0,0,0
MA,Morocco,country,Middle East and North Africa,31.791702,-7.09262,NZ,New Zealand,country,East Asia and Pacific,-40.900557,174.885971,19008.1982180734,1986,0,0,0,0,0,0,0,0,0,0,0,0,0,0,0,0,0,0,0,0,0,0,0,0
MM,Myanmar,country,East Asia and Pacific,21.913965,95.956223,NZ,New Zealand,country,East Asia and Pacific,-40.900557,174.885971,10719.9465181803,1986,0,0,0,0,0,0,0,0,0,0,0,0,0,0,0,0,0,0,0,0,0,0,0,0
NP,Nepal,country,South Asia,28.394857,84.124008,NZ,New Zealand,country,East Asia and Pacific,-40.900557,174.885971,12097.6790760783,1986,28,0,0,0,28,0,0,0,0,0,0,0,0,0,0,0,0,0,0,0,0,0,0,0
NL,Netherlands,country,Europe and Central Asia,52.132633,5.291266,NZ,New Zealand,country,East Asia and Pacific,-40.900557,174.885971,18557.9955703276,1986,6372,0,2,96,5,0,6,37,1,0,4,0,314,78,5589,231,0,0,9,0,0,0,0,0
NC,New Caledonia,country,East Asia and Pacific,-20.904305,165.618042,NZ,New Zealand,country,East Asia and Pacific,-40.900557,174.885971,2391.9752823077,1986,0,0,0,0,0,0,0,0,0,0,0,0,0,0,0,0,0,0,0,0,0,0,0,0
NG,Nigeria,country,Sub-Saharan Africa,9.081999,8.675277,NZ,New Zealand,country,East Asia and Pacific,-40.900557,174.885971,16243.223974048,1986,2,0,0,0,0,0,0,0,0,0,0,0,0,2,0,0,0,0,0,0,0,0,0,0
NU,Niue,country,East Asia and Pacific,-19.054445,-169.867233,NZ,New Zealand,country,East Asia and Pacific,-40.900557,174.885971,2831.90213110697,1986,49,0,0,16,0,0,8,8,17,0,0,0,0,0,0,0,0,0,0,0,0,0,0,0
NO,Norway,country,Europe and Central Asia,60.472024,8.468946,NZ,New Zealand,country,East Asia and Pacific,-40.900557,174.885971,17668.408105188,1986,9,2,0,0,0,0,0,0,3,0,0,0,0,0,0,0,0,0,4,0,0,0,0,0
PK,Pakistan,country,South Asia,30.375321,69.345116,NZ,New Zealand,country,East Asia and Pacific,-40.900557,174.885971,13401.0918718991,1986,333,6,0,0,0,0,0,0,298,29,0,0,0,0,0,0,0,0,0,0,0,0,0,0
PG,Papua New Guinea,country,East Asia and Pacific,-6.314993,143.95555,NZ,New Zealand,country,East Asia and Pacific,-40.900557,174.885971,4924.58692523464,1986,2026,0,0,0,0,0,0,0,0,0,5,0,2021,0,0,0,0,0,0,0,0,0,0,0
PE,Peru,country,Latin America and the Caribbean,-9.189967,-75.015152,NZ,New Zealand,country,East Asia and Pacific,-40.900557,174.885971,10990.9553522264,1986,12,0,0,0,0,0,0,0,0,0,0,0,0,12,0,0,0,0,0,0,0,0,0,0
PH,Philippines,country,East Asia and Pacific,12.879721,121.774017,NZ,New Zealand,country,East Asia and Pacific,-40.900557,174.885971,8099.85217465175,1986,17584,0,0,0,0,0,333,0,17069,79,0,0,17,74,0,12,0,0,0,0,0,0,0,0
PL,Poland,country,Europe and Central Asia,51.919438,19.145136,NZ,New Zealand,country,East Asia and Pacific,-40.900557,174.885971,17824.3212390698,1986,61,0,0,9,0,0,0,0,0,0,0,0,52,0,0,0,0,0,0,0,0,0,0,0
PT,Portugal,country,Europe and Central Asia,39.399872,-8.224454,NZ,New Zealand,country,East Asia and Pacific,-40.900557,174.885971,19724.5669567711,1986,317,0,0,0,0,0,0,37,0,0,0,0,0,5,0,275,0,0,0,0,0,0,0,0
KR,"Korea, Rep.",country,East Asia and Pacific,35.907757,127.766922,NZ,New Zealand,country,East Asia and Pacific,-40.900557,174.885971,9810.81970612616,1986,345,0,0,14,0,0,0,0,65,26,0,0,0,240,0,0,0,0,0,0,0,0,0,0
RO,Romania,country,Europe and Central Asia,45.943161,24.96676,NZ,New Zealand,country,East Asia and Pacific,-40.900557,174.885971,17557.3128405345,1986,25,0,0,0,0,0,0,10,0,0,15,0,0,0,0,0,0,0,0,0,0,0,0,0
WS,Samoa,country,East Asia and Pacific,-13.759029,-172.104629,NZ,New Zealand,country,East Asia and Pacific,-40.900557,174.885971,3275.06524040985,1986,3270,0,0,0,0,0,86,71,136,0,0,766,14,0,2197,0,0,0,0,0,0,0,0,0
SG,Singapore,country,East Asia and Pacific,1.352083,103.819836,NZ,New Zealand,country,East Asia and Pacific,-40.900557,174.885971,8540.2553979967,1986,2271,2,0,0,13,106,518,0,66,0,46,0,903,43,574,0,0,0,0,0,0,0,0,0
ZA,S. Africa,country,Sub-Saharan Africa,-30.559482,22.937506,NZ,New Zealand,country,East Asia and Pacific,-40.900557,174.885971,11574.4935810264,1986,3878,0,0,736,0,121,1520,0,1030,0,0,0,234,0,93,144,0,0,0,0,0,0,0,0
ES,Spain,country,Europe and Central Asia,40.463667,-3.74922,NZ,New Zealand,country,East Asia and Pacific,-40.900557,174.885971,19912.4518342504,1986,1522,0,0,51,0,0,71,302,864,0,4,0,0,2,135,93,0,0,0,0,0,0,0,0
LK,Sri Lanka,country,South Asia,7.873054,80.771797,NZ,New Zealand,country,East Asia and Pacific,-40.900557,174.885971,10936.5626349214,1986,1820,0,0,0,0,11,85,0,0,0,64,0,1558,102,0,0,0,0,0,0,0,0,0,0
SD,Sudan,country,Sub-Saharan Africa,12.862807,30.217636,NZ,New Zealand,country,East Asia and Pacific,-40.900557,174.885971,15398.1706633699,1986,0,0,0,0,0,0,0,0,0,0,0,0,0,0,0,0,0,0,0,0,0,0,0,0
SE,Sweden,country,Europe and Central Asia,60.128161,18.643501,NZ,New Zealand,country,East Asia and Pacific,-40.900557,174.885971,17346.6289722826,1986,77,6,0,0,0,0,0,0,0,0,0,0,0,15,27,29,0,0,0,0,0,0,0,0
CH,Switzerland,country,Europe and Central Asia,46.818188,8.227512,NZ,New Zealand,country,East Asia and Pacific,-40.900557,174.885971,18782.7649603474,1986,34,0,0,1,2,0,0,1,2,0,0,0,11,6,0,5,0,0,6,0,0,0,0,0
TH,Thailand,country,East Asia and Pacific,15.870032,100.992541,NZ,New Zealand,country,East Asia and Pacific,-40.900557,174.885971,9874.25556631662,1986,22975,1212,0,20000,85,0,32,14,1090,15,0,0,47,464,16,0,0,0,0,0,0,0,0,0
TO,Tonga,country,East Asia and Pacific,-21.178986,-175.198242,NZ,New Zealand,country,East Asia and Pacific,-40.900557,174.885971,2386.43805419347,1986,6214,0,0,0,0,0,898,55,3123,0,2,1410,0,0,726,0,0,0,0,0,0,0,0,0
TN,Tunisia,country,Middle East and North Africa,33.886917,9.537499,NZ,New Zealand,country,East Asia and Pacific,-40.900557,174.885971,18527.7043490347,1986,7,0,0,0,0,0,0,0,7,0,0,0,0,0,0,0,0,0,0,0,0,0,0,0
TR,Turkey,country,Europe and Central Asia,38.963745,35.243322,NZ,New Zealand,country,East Asia and Pacific,-40.900557,174.885971,16616.4394144971,1986,435,0,0,0,5,0,0,0,419,0,3,0,0,8,0,0,0,0,0,0,0,0,0,0
GB,United Kingdom,country,Europe and Central Asia,55.378051,-3.435973,NZ,New Zealand,country,East Asia and Pacific,-40.900557,174.885971,18421.1892053959,1986,2871,104,0,227,0,0,34,129,116,232,13,5,77,46,539,1196,0,0,43,110,0,0,0,0
TZ,Tanzania,country,Sub-Saharan Africa,-6.369028,34.888822,NZ,New Zealand,country,East Asia and Pacific,-40.900557,174.885971,13378.8503298,1986,4,0,0,0,0,0,0,0,0,0,0,0,4,0,0,0,0,0,0,0,0,0,0,0
US,USA,country,North America,37.09024,-95.712891,NZ,New Zealand,country,East Asia and Pacific,-40.900557,174.885971,12564.0565528273,1986,19352,1578,0,82,776,108,2297,167,10096,17,5,1500,148,1012,1176,383,0,7,0,0,0,0,0,0
RU,Russian Federation,country,Europe and Central Asia,61.52401,105.318756,NZ,New Zealand,country,East Asia and Pacific,-40.900557,174.885971,12993.8682996691,1986,94,53,0,17,4,0,0,2,6,0,0,0,2,0,3,0,0,0,7,0,0,0,0,0
VU,Vanuatu,country,East Asia and Pacific,-15.376706,166.959158,NZ,New Zealand,country,East Asia and Pacific,-40.900557,174.885971,2942.69568630398,1986,0,0,0,0,0,0,0,0,0,0,0,0,0,0,0,0,0,0,0,0,0,0,0,0
VN,Vietnam,country,East Asia and Pacific,14.058324,108.277199,NZ,New Zealand,country,East Asia and Pacific,-40.900557,174.885971,9174.08799999238,1986,43,0,0,0,0,0,0,0,0,0,0,0,0,0,43,0,0,0,0,0,0,0,0,0
BA,Bosnia & Herzegovina,country,Europe and Central Asia,43.915886,17.679076,NZ,New Zealand,country,East Asia and Pacific,-40.900557,174.885971,18140.546641982,1986,32,0,0,21,0,0,0,7,0,0,4,0,0,0,0,0,0,0,0,0,0,0,0,0
ZM,Zambia,country,Sub-Saharan Africa,-13.133897,27.849332,NZ,New Zealand,country,East Asia and Pacific,-40.900557,174.885971,13130.8804829829,1986,135,0,0,0,0,0,0,0,0,0,0,0,0,135,0,0,0,0,0,0,0,0,0,0
ZW,Zimbabwe,country,Sub-Saharan Africa,-19.015438,29.154857,NZ,New Zealand,country,East Asia and Pacific,-40.900557,174.885971,12485.7532968442,1986,868,0,0,0,0,0,0,0,0,0,0,0,0,868,0,0,0,0,0,0,0,0,0,0
AL,Albania,country,Europe and Central Asia,41.153332,20.168331,NZ,New Zealand,country,East Asia and Pacific,-40.900557,174.885971,17921.6231298064,1987,0,0,0,0,0,0,0,0,0,0,0,0,0,0,0,0,0,0,0,0,0,0,0,0
DZ,Algeria,country,Middle East and North Africa,28.033886,1.659626,NZ,New Zealand,country,East Asia and Pacific,-40.900557,174.885971,18477.4086830962,1987,8,0,0,0,0,0,0,0,8,0,0,0,0,0,0,0,0,0,0,0,0,0,0,0
AR,Argentina,country,Latin America and the Caribbean,-38.416097,-63.616672,NZ,New Zealand,country,East Asia and Pacific,-40.900557,174.885971,9396.35490511559,1987,15106,0,0,36,46,0,35,0,0,0,0,0,2,77,14910,0,2,0,0,0,0,0,0,0
AU,Australia,country,East Asia and Pacific,-25.274398,133.775136,NZ,New Zealand,country,East Asia and Pacific,-40.900557,174.885971,4162.27214264836,1987,278370,104346,104,88343,106,483,1935,7364,37054,227,29,7701,2204,54,1804,23660,1869,2328,628,0,0,0,0,0
AT,Austria,country,Europe and Central Asia,47.516231,14.550072,NZ,New Zealand,country,East Asia and Pacific,-40.900557,174.885971,18310.6283212618,1987,167,0,0,0,0,0,0,2,100,0,0,0,0,0,0,0,0,0,65,0,0,0,0,0
BE,Belgium,country,Europe and Central Asia,50.503887,4.469936,NZ,New Zealand,country,East Asia and Pacific,-40.900557,174.885971,18736.7606707317,1987,902,0,0,50,0,0,0,0,0,18,0,0,12,0,822,0,0,0,0,0,0,0,0,0
BR,Brazil,country,Latin America and the Caribbean,-14.235004,-51.92528,NZ,New Zealand,country,East Asia and Pacific,-40.900557,174.885971,12234.2778670789,1987,3177,0,0,197,0,94,0,0,2157,93,3,15,127,469,20,2,0,0,0,0,0,0,0,0
VG,British Virgin Islands,country,Latin America and the Caribbean,18.420695,-64.639968,NZ,New Zealand,country,East Asia and Pacific,-40.900557,174.885971,13891.6399437239,1987,0,0,0,0,0,0,0,0,0,0,0,0,0,0,0,0,0,0,0,0,0,0,0,0
BG,Bulgaria,country,Europe and Central Asia,42.733883,25.48583,NZ,New Zealand,country,East Asia and Pacific,-40.900557,174.885971,17504.5714485223,1987,10,0,0,0,0,0,0,10,0,0,0,0,0,0,0,0,0,0,0,0,0,0,0,0
CA,Canada,country,North America,56.130366,-106.346771,NZ,New Zealand,country,East Asia and Pacific,-40.900557,174.885971,13078.8822655872,1987,3060,42,0,32,400,0,63,51,358,0,0,502,5,0,491,24,0,325,767,0,0,0,0,0
CL,Chile,country,Latin America and the Caribbean,-35.675147,-71.542969,NZ,New Zealand,country,East Asia and Pacific,-40.900557,174.885971,9146.62956844645,1987,496,0,0,0,472,0,0,20,2,0,0,0,2,0,0,0,16,0,0,0,0,0,0,0
HK,Hong Kong,country,East Asia and Pacific,22.396428,114.109497,NZ,New Zealand,country,East Asia and Pacific,-40.900557,174.885971,9432.9557257228,1987,1239,24,17,438,43,49,230,14,51,96,2,0,66,7,76,126,0,0,0,0,0,0,0,0
CN,China,country,East Asia and Pacific,35.86166,104.195397,NZ,New Zealand,country,East Asia and Pacific,-40.900557,174.885971,11179.691715032,1987,7366,441,0,8,8,136,1713,152,636,17,36,1529,2428,22,201,16,0,23,0,0,0,0,0,0
TW,Taiwan,country,East Asia and Pacific,23.69781,120.960515,NZ,New Zealand,country,East Asia and Pacific,-40.900557,174.885971,9094.58432340962,1987,679,27,0,168,0,1,10,200,87,1,16,0,0,136,32,1,6,0,0,0,0,0,0,0
CO,Colombia,country,Latin America and the Caribbean,4.570868,-74.297333,NZ,New Zealand,country,East Asia and Pacific,-40.900557,174.885971,12095.8733055889,1987,150,0,0,0,0,0,0,0,0,0,0,0,150,0,0,0,0,0,0,0,0,0,0,0
CK,Cook Islands,country,East Asia and Pacific,-21.236736,-159.777671,NZ,New Zealand,country,East Asia and Pacific,-40.900557,174.885971,3237.50614341193,1987,1486,0,0,0,0,0,3,208,1271,0,4,0,0,0,0,0,0,0,0,0,0,0,0,0
CR,Costa Rica,country,Latin America and the Caribbean,9.748917,-83.753428,NZ,New Zealand,country,East Asia and Pacific,-40.900557,174.885971,11680.5525259308,1987,78,0,0,0,0,0,0,0,0,0,0,0,78,0,0,0,0,0,0,0,0,0,0,0
CI,Ivory Coast,country,Sub-Saharan Africa,7.539989,-5.54708,NZ,New Zealand,country,East Asia and Pacific,-40.900557,174.885971,16323.5786695911,1987,26,0,0,0,0,0,0,0,0,0,0,0,26,0,0,0,0,0,0,0,0,0,0,0
CU,Cuba,country,Latin America and the Caribbean,21.521757,-77.781167,NZ,New Zealand,country,East Asia and Pacific,-40.900557,174.885971,12993.5688041845,1987,3,0,0,0,0,0,0,0,0,0,0,0,0,3,0,0,0,0,0,0,0,0,0,0
CY,Cyprus,country,Europe and Central Asia,35.126413,33.429859,NZ,New Zealand,country,East Asia and Pacific,-40.900557,174.885971,16624.8543183993,1987,92,0,0,0,0,0,0,0,92,0,0,0,0,0,0,0,6,0,0,0,0,0,0,0
DK,Denmark,country,Europe and Central Asia,56.26392,9.501785,NZ,New Zealand,country,East Asia and Pacific,-40.900557,174.885971,18026.0204362707,1987,612,8,0,7,2,0,3,0,18,0,4,0,25,0,0,445,0,31,69,0,0,0,0,0
EC,Ecuador,country,Latin America and the Caribbean,-1.831239,-78.183406,NZ,New Zealand,country,East Asia and Pacific,-40.900557,174.885971,11297.0383583639,1987,31661,0,0,0,0,0,0,0,31347,0,0,0,314,0,0,0,0,0,0,0,0,0,0,0
EG,Egypt,country,Middle East and North Africa,26.820553,30.802498,NZ,New Zealand,country,East Asia and Pacific,-40.900557,174.885971,16399.7029091802,1987,4,0,0,0,0,0,0,1,0,0,3,0,0,0,0,0,0,0,0,0,0,0,0,0
SV,El Salvador,country,Latin America and the Caribbean,13.794185,-88.89653,NZ,New Zealand,country,East Asia and Pacific,-40.900557,174.885971,11535.7981249654,1987,0,0,0,0,0,0,0,0,0,0,0,0,0,0,0,0,0,0,0,0,0,0,0,0
ET,Ethiopia,country,Sub-Saharan Africa,9.145,40.489673,NZ,New Zealand,country,East Asia and Pacific,-40.900557,174.885971,14334.184766532,1987,4,0,0,0,0,0,0,0,0,0,0,0,4,0,0,0,0,0,0,0,0,0,0,0
FJ,Fiji,country,East Asia and Pacific,-16.578193,179.414413,NZ,New Zealand,country,East Asia and Pacific,-40.900557,174.885971,2742.36387410259,1987,45359,69,0,44575,1,0,4,52,252,0,18,0,6,0,243,139,0,0,0,0,0,0,0,0
FI,Finland,country,Europe and Central Asia,61.92411,25.748151,NZ,New Zealand,country,East Asia and Pacific,-40.900557,174.885971,16922.1260128795,1987,2,0,0,1,0,0,0,0,0,0,0,0,0,0,0,1,0,0,0,0,0,0,0,0
FR,France,country,Europe and Central Asia,46.227638,2.213749,NZ,New Zealand,country,East Asia and Pacific,-40.900557,174.885971,19200.9265063066,1987,1342,1,0,67,0,2,14,11,14,0,0,0,47,32,4,1105,372,1,44,0,0,0,0,0
PF,French Polynesia,country,East Asia and Pacific,-17.679742,-149.406843,NZ,New Zealand,country,East Asia and Pacific,-40.900557,174.885971,4275.5063389946,1987,0,0,0,0,0,0,0,0,0,0,0,0,0,0,0,0,0,0,0,0,0,0,0,0
GH,Ghana,country,Sub-Saharan Africa,7.946527,-1.023194,NZ,New Zealand,country,East Asia and Pacific,-40.900557,174.885971,16346.7796240982,1987,334,0,0,0,0,0,0,0,0,0,0,0,334,0,0,0,0,0,0,0,0,0,0,0
GR,Greece,country,Europe and Central Asia,39.074208,21.824312,NZ,New Zealand,country,East Asia and Pacific,-40.900557,174.885971,17740.0326256701,1987,840,0,0,2,0,1,36,0,798,0,0,0,0,0,1,2,11,0,0,0,0,0,0,0
GT,Guatemala,country,Latin America and the Caribbean,15.783471,-90.230759,NZ,New Zealand,country,East Asia and Pacific,-40.900557,174.885971,11564.6594723362,1987,74,0,0,0,0,0,0,0,0,0,0,0,74,0,0,0,0,0,0,0,0,0,0,0
HU,Hungary,country,Europe and Central Asia,47.162494,19.503304,NZ,New Zealand,country,East Asia and Pacific,-40.900557,174.885971,17958.0937861549,1987,130,0,0,0,0,0,0,110,12,0,8,0,0,0,0,0,0,0,0,0,0,0,0,0
IN,India,country,South Asia,20.593684,78.96288,NZ,New Zealand,country,East Asia and Pacific,-40.900557,174.885971,11984.2976921897,1987,2970,33,0,1,12,448,522,15,0,20,44,0,1534,68,273,0,0,0,0,0,0,0,0,0
ID,Indonesia,country,East Asia and Pacific,-0.789275,113.921327,NZ,New Zealand,country,East Asia and Pacific,-40.900557,174.885971,7561.27854515998,1987,4487,0,0,0,0,2,8,0,0,13,45,0,4123,0,296,0,0,0,0,0,0,0,0,0
IR,Iran,country,Middle East and North Africa,32.427908,53.688046,NZ,New Zealand,country,East Asia and Pacific,-40.900557,174.885971,14801.7992409038,1987,157,0,0,0,0,0,0,0,143,0,14,0,0,0,0,0,0,0,0,0,0,0,0,0
IQ,Iraq,country,Middle East and North Africa,33.223191,43.679291,NZ,New Zealand,country,East Asia and Pacific,-40.900557,174.885971,15677.1857445538,1987,45,0,0,0,0,0,0,0,45,0,0,0,0,0,0,0,0,0,0,0,0,0,0,0
IE,Ireland,country,Europe and Central Asia,53.41291,-8.24389,NZ,New Zealand,country,East Asia and Pacific,-40.900557,174.885971,18624.9919137641,1987,336,0,0,39,0,0,0,0,0,0,0,0,8,0,0,289,0,0,0,0,0,0,0,0
IL,Israel,country,Middle East and North Africa,31.046051,34.851612,NZ,New Zealand,country,East Asia and Pacific,-40.900557,174.885971,16309.5261752265,1987,271,0,0,0,0,0,0,271,0,0,0,0,0,0,0,0,0,0,0,0,0,0,0,0
IT,Italy,country,Europe and Central Asia,41.87194,12.56738,NZ,New Zealand,country,East Asia and Pacific,-40.900557,174.885971,18559.4352153087,1987,693,70,0,4,0,0,0,312,206,0,2,0,13,7,43,33,242,0,3,0,0,0,0,0
JM,Jamaica,country,Latin America and the Caribbean,18.109581,-77.297508,NZ,New Zealand,country,East Asia and Pacific,-40.900557,174.885971,12806.7458218431,1987,509,0,0,0,0,0,0,0,13,0,10,0,0,0,0,486,0,0,0,0,0,0,0,0
JP,Japan,country,East Asia and Pacific,36.204824,138.252924,NZ,New Zealand,country,East Asia and Pacific,-40.900557,174.885971,9362.64636961408,1987,1594,50,0,323,0,0,23,7,12,78,0,0,663,1,376,61,0,0,0,0,0,0,0,0
KE,Kenya,country,Sub-Saharan Africa,-0.023559,37.906193,NZ,New Zealand,country,East Asia and Pacific,-40.900557,174.885971,13751.0427397015,1987,351,0,0,0,0,0,0,0,0,0,0,0,351,0,0,0,0,0,0,0,0,0,0,0
KI,Kiribati,country,East Asia and Pacific,-3.370417,-168.734039,NZ,New Zealand,country,East Asia and Pacific,-40.900557,174.885971,4488.74074732655,1987,0,0,0,0,0,0,0,0,0,0,0,0,0,0,0,0,0,0,0,0,0,0,0,0
MG,Madagascar,country,Sub-Saharan Africa,-18.766947,46.869107,NZ,New Zealand,country,East Asia and Pacific,-40.900557,174.885971,11499.8066796815,1987,8,0,0,0,0,0,0,0,0,0,8,0,0,0,0,0,0,0,0,0,0,0,0,0
MW,Malawi,country,Sub-Saharan Africa,-13.254308,34.301525,NZ,New Zealand,country,East Asia and Pacific,-40.900557,174.885971,12771.1520475471,1987,441,0,0,0,1,0,0,0,0,0,0,0,126,314,0,0,0,0,0,0,0,0,0,0
MY,Malaysia,country,East Asia and Pacific,4.210484,101.975766,NZ,New Zealand,country,East Asia and Pacific,-40.900557,174.885971,8906.84726377256,1987,18707,1,1,4211,0,0,514,0,1143,15,136,0,555,4879,7252,0,0,0,0,0,0,0,0,0
MU,Mauritius,country,Sub-Saharan Africa,-20.348404,57.552152,NZ,New Zealand,country,East Asia and Pacific,-40.900557,174.885971,10643.1034141026,1987,21081,0,0,21012,0,0,0,0,0,0,0,0,69,0,0,0,0,0,0,0,0,0,0,0
MX,Mexico,country,Latin America and the Caribbean,23.634501,-102.552784,NZ,New Zealand,country,East Asia and Pacific,-40.900557,174.885971,11126.7175692642,1987,326,0,0,0,0,0,103,0,88,0,2,0,0,0,0,133,0,0,0,0,0,0,0,0
MZ,Mozambique,country,Sub-Saharan Africa,-18.665695,35.529562,NZ,New Zealand,country,East Asia and Pacific,-40.900557,174.885971,12189.460349767,1987,15,0,0,0,0,15,0,0,0,0,0,0,0,0,0,0,0,0,0,0,0,0,0,0
NP,Nepal,country,South Asia,28.394857,84.124008,NZ,New Zealand,country,East Asia and Pacific,-40.900557,174.885971,12097.6790760783,1987,40,0,0,0,40,0,0,0,0,0,0,0,0,0,0,0,0,0,0,0,0,0,0,0
NL,Netherlands,country,Europe and Central Asia,52.132633,5.291266,NZ,New Zealand,country,East Asia and Pacific,-40.900557,174.885971,18557.9955703276,1987,5151,11,0,84,0,0,0,47,8,0,1,0,548,118,4007,318,0,0,9,0,0,0,0,0
NU,Niue,country,East Asia and Pacific,-19.054445,-169.867233,NZ,New Zealand,country,East Asia and Pacific,-40.900557,174.885971,2831.90213110697,1987,25,0,0,9,0,0,10,0,6,0,0,0,0,0,0,0,0,0,0,0,0,0,0,0
NO,Norway,country,Europe and Central Asia,60.472024,8.468946,NZ,New Zealand,country,East Asia and Pacific,-40.900557,174.885971,17668.408105188,1987,4,1,0,0,0,0,0,0,0,0,0,0,0,0,0,0,0,0,3,0,0,0,0,0
PK,Pakistan,country,South Asia,30.375321,69.345116,NZ,New Zealand,country,East Asia and Pacific,-40.900557,174.885971,13401.0918718991,1987,205,0,0,0,0,0,0,0,190,15,0,0,0,0,0,0,0,0,0,0,0,0,0,0
PG,Papua New Guinea,country,East Asia and Pacific,-6.314993,143.95555,NZ,New Zealand,country,East Asia and Pacific,-40.900557,174.885971,4924.58692523464,1987,1755,0,0,0,0,0,0,0,0,0,5,0,1750,0,0,0,0,0,0,0,0,0,0,0
PE,Peru,country,Latin America and the Caribbean,-9.189967,-75.015152,NZ,New Zealand,country,East Asia and Pacific,-40.900557,174.885971,10990.9553522264,1987,20,0,0,0,0,3,0,0,0,0,0,0,17,0,0,0,0,0,0,0,0,0,0,0
PH,Philippines,country,East Asia and Pacific,12.879721,121.774017,NZ,New Zealand,country,East Asia and Pacific,-40.900557,174.885971,8099.85217465175,1987,16604,5,0,0,0,0,675,0,15625,11,0,0,0,288,0,0,0,0,0,0,0,0,0,0
PL,Poland,country,Europe and Central Asia,51.919438,19.145136,NZ,New Zealand,country,East Asia and Pacific,-40.900557,174.885971,17824.3212390698,1987,33,0,0,4,0,0,0,0,0,0,0,0,29,0,0,0,0,0,0,0,0,0,0,0
PT,Portugal,country,Europe and Central Asia,39.399872,-8.224454,NZ,New Zealand,country,East Asia and Pacific,-40.900557,174.885971,19724.5669567711,1987,470,0,0,0,0,0,0,401,0,0,0,0,0,4,0,65,297,0,0,0,0,0,0,0
PR,Puerto Rico,country,Latin America and the Caribbean,18.220833,-66.590149,NZ,New Zealand,country,East Asia and Pacific,-40.900557,174.885971,13714.5736655495,1987,0,0,0,0,0,0,0,0,0,0,0,0,0,0,0,0,0,0,0,0,0,0,0,0
KR,"Korea, Rep.",country,East Asia and Pacific,35.907757,127.766922,NZ,New Zealand,country,East Asia and Pacific,-40.900557,174.885971,9810.81970612616,1987,602,4,0,259,0,0,0,27,67,58,0,0,3,184,0,0,0,0,0,0,0,0,0,0
RO,Romania,country,Europe and Central Asia,45.943161,24.96676,NZ,New Zealand,country,East Asia and Pacific,-40.900557,174.885971,17557.3128405345,1987,52,0,0,0,0,0,0,40,0,0,12,0,0,0,0,0,0,0,0,0,0,0,0,0
WS,Samoa,country,East Asia and Pacific,-13.759029,-172.104629,NZ,New Zealand,country,East Asia and Pacific,-40.900557,174.885971,3275.06524040985,1987,3643,0,0,0,0,5,133,89,88,0,0,692,12,0,2591,33,0,0,0,0,0,0,0,0
SG,Singapore,country,East Asia and Pacific,1.352083,103.819836,NZ,New Zealand,country,East Asia and Pacific,-40.900557,174.885971,8540.2553979967,1987,5947,2,0,0,3,124,697,0,81,0,36,0,3559,634,811,0,0,0,0,0,0,0,0,0
ZA,S. Africa,country,Sub-Saharan Africa,-30.559482,22.937506,NZ,New Zealand,country,East Asia and Pacific,-40.900557,174.885971,11574.4935810264,1987,33,0,0,0,0,0,18,0,14,0,0,0,1,0,0,0,27,0,0,0,0,0,0,0
ES,Spain,country,Europe and Central Asia,40.463667,-3.74922,NZ,New Zealand,country,East Asia and Pacific,-40.900557,174.885971,19912.4518342504,1987,1791,0,0,168,0,8,119,480,848,13,7,0,0,7,141,0,147,0,0,0,0,0,0,0
LK,Sri Lanka,country,South Asia,7.873054,80.771797,NZ,New Zealand,country,East Asia and Pacific,-40.900557,174.885971,10936.5626349214,1987,1413,0,0,0,0,15,231,0,4,0,78,0,990,95,0,0,0,0,0,0,0,0,0,0
SD,Sudan,country,Sub-Saharan Africa,12.862807,30.217636,NZ,New Zealand,country,East Asia and Pacific,-40.900557,174.885971,15398.1706633699,1987,4,0,0,0,0,0,0,0,0,0,0,0,0,4,0,0,0,0,0,0,0,0,0,0
SZ,Swaziland,country,Sub-Saharan Africa,-26.522503,31.465866,NZ,New Zealand,country,East Asia and Pacific,-40.900557,174.885971,11635.0637713506,1987,0,0,0,0,0,0,0,0,0,0,0,0,0,0,0,0,0,0,0,0,0,0,0,0
SE,Sweden,country,Europe and Central Asia,60.128161,18.643501,NZ,New Zealand,country,East Asia and Pacific,-40.900557,174.885971,17346.6289722826,1987,68,11,0,0,0,0,0,0,0,0,0,0,2,4,19,32,0,0,0,0,0,0,0,0
CH,Switzerland,country,Europe and Central Asia,46.818188,8.227512,NZ,New Zealand,country,East Asia and Pacific,-40.900557,174.885971,18782.7649603474,1987,169,0,0,18,0,0,0,0,24,0,0,0,48,75,4,0,0,0,0,0,0,0,0,0
TH,Thailand,country,East Asia and Pacific,15.870032,100.992541,NZ,New Zealand,country,East Asia and Pacific,-40.900557,174.885971,9874.25556631662,1987,18018,1128,0,15651,30,2,25,61,485,24,3,0,136,305,87,10,0,0,71,0,0,0,0,0
TO,Tonga,country,East Asia and Pacific,-21.178986,-175.198242,NZ,New Zealand,country,East Asia and Pacific,-40.900557,174.885971,2386.43805419347,1987,6880,0,0,0,0,0,1024,43,4656,0,0,402,0,0,755,0,0,0,0,0,0,0,0,0
TT,Trinidad and Tobago,country,Latin America and the Caribbean,10.691803,-61.222503,NZ,New Zealand,country,East Asia and Pacific,-40.900557,174.885971,13624.0414285173,1987,1,0,0,0,0,0,0,0,0,0,0,0,0,0,0,1,0,0,0,0,0,0,0,0
TR,Turkey,country,Europe and Central Asia,38.963745,35.243322,NZ,New Zealand,country,East Asia and Pacific,-40.900557,174.885971,16616.4394144971,1987,1861,0,0,0,0,0,0,2,1826,0,0,0,0,33,0,0,0,0,0,0,0,0,0,0
UG,Uganda,country,Sub-Saharan Africa,1.373333,32.290275,NZ,New Zealand,country,East Asia and Pacific,-40.900557,174.885971,14251.1601019068,1987,1,0,0,0,0,0,0,0,0,0,0,0,1,0,0,0,0,0,0,0,0,0,0,0
GB,United Kingdom,country,Europe and Central Asia,55.378051,-3.435973,NZ,New Zealand,country,East Asia and Pacific,-40.900557,174.885971,18421.1892053959,1987,2496,147,0,430,0,5,41,81,126,165,11,9,173,42,101,1134,27,0,31,0,0,0,0,0
TZ,Tanzania,country,Sub-Saharan Africa,-6.369028,34.888822,NZ,New Zealand,country,East Asia and Pacific,-40.900557,174.885971,13378.8503298,1987,16,0,0,0,0,0,0,0,0,0,5,0,11,0,0,0,0,0,0,0,0,0,0,0
US,USA,country,North America,37.09024,-95.712891,NZ,New Zealand,country,East Asia and Pacific,-40.900557,174.885971,12564.0565528273,1987,33722,1761,1,1064,1237,559,2299,317,17220,1,5,7056,66,1142,544,409,13,38,3,0,0,0,0,0
UY,Uruguay,country,Latin America and the Caribbean,-32.522779,-55.765835,NZ,New Zealand,country,East Asia and Pacific,-40.900557,174.885971,10350.9591653017,1987,8,0,0,0,0,0,0,0,0,8,0,0,0,0,0,0,0,0,0,0,0,0,0,0
RU,Russian Federation,country,Europe and Central Asia,61.52401,105.318756,NZ,New Zealand,country,East Asia and Pacific,-40.900557,174.885971,12993.8682996691,1987,26,13,0,5,0,0,0,1,2,0,0,0,0,0,0,3,0,0,2,0,0,0,0,0
BA,Bosnia & Herzegovina,country,Europe and Central Asia,43.915886,17.679076,NZ,New Zealand,country,East Asia and Pacific,-40.900557,174.885971,18140.546641982,1987,54,0,0,8,0,0,0,10,30,0,5,0,0,0,0,1,0,0,0,0,0,0,0,0
ZM,Zambia,country,Sub-Saharan Africa,-13.133897,27.849332,NZ,New Zealand,country,East Asia and Pacific,-40.900557,174.885971,13130.8804829829,1987,68,0,0,0,0,0,0,0,0,0,0,0,0,68,0,0,0,0,0,0,0,0,0,0
ZW,Zimbabwe,country,Sub-Saharan Africa,-19.015438,29.154857,NZ,New Zealand,country,East Asia and Pacific,-40.900557,174.885971,12485.7532968442,1987,42,0,0,0,0,0,2,0,40,0,0,0,0,0,0,0,0,0,0,0,0,0,0,0
AF,Afghanistan,country,South Asia,33.93911,67.709953,NZ,New Zealand,country,East Asia and Pacific,-40.900557,174.885971,13738.7577664531,1988,0,0,0,0,0,0,0,0,0,0,0,0,0,0,0,0,0,0,0,0,0,0,0,0
AR,Argentina,country,Latin America and the Caribbean,-38.416097,-63.616672,NZ,New Zealand,country,East Asia and Pacific,-40.900557,174.885971,9396.35490511559,1988,10938,0,0,36,0,0,54,0,17,0,0,0,38,134,10659,0,0,0,0,0,0,0,0,0
AU,Australia,country,East Asia and Pacific,-25.274398,133.775136,NZ,New Zealand,country,East Asia and Pacific,-40.900557,174.885971,4162.27214264836,1988,328287,137436,2234,74501,352,1009,932,8101,32514,172,62,11343,4770,20705,2942,27451,0,2095,764,904,0,0,0,0
AT,Austria,country,Europe and Central Asia,47.516231,14.550072,NZ,New Zealand,country,East Asia and Pacific,-40.900557,174.885971,18310.6283212618,1988,1733,0,0,0,0,18,0,0,20,0,0,0,0,2,1693,0,0,0,0,0,0,0,0,0
BD,Bangladesh,country,South Asia,23.684994,90.356331,NZ,New Zealand,country,East Asia and Pacific,-40.900557,174.885971,11283.724065472,1988,11,0,0,0,0,0,0,0,0,11,0,0,0,0,0,0,0,0,0,0,0,0,0,0
BE,Belgium,country,Europe and Central Asia,50.503887,4.469936,NZ,New Zealand,country,East Asia and Pacific,-40.900557,174.885971,18736.7606707317,1988,3866,0,0,900,0,0,2,0,1,76,0,0,25,9,2853,0,0,0,0,0,0,0,0,0
BM,Bermuda,country,North America,32.321384,-64.75737,NZ,New Zealand,country,East Asia and Pacific,-40.900557,174.885971,14726.4162756133,1988,0,0,0,0,0,0,0,0,0,0,0,0,0,0,0,0,0,0,0,0,0,0,0,0
BR,Brazil,country,Latin America and the Caribbean,-14.235004,-51.92528,NZ,New Zealand,country,East Asia and Pacific,-40.900557,174.885971,12234.2778670789,1988,3421,0,0,272,0,24,0,3,784,21,3,0,267,925,1122,0,0,0,0,0,0,0,0,0
VG,British Virgin Islands,country,Latin America and the Caribbean,18.420695,-64.639968,NZ,New Zealand,country,East Asia and Pacific,-40.900557,174.885971,13891.6399437239,1988,1,0,0,0,0,0,0,0,0,0,0,0,0,0,0,1,0,0,0,0,0,0,0,0
BG,Bulgaria,country,Europe and Central Asia,42.733883,25.48583,NZ,New Zealand,country,East Asia and Pacific,-40.900557,174.885971,17504.5714485223,1988,19,0,0,0,0,0,0,0,0,0,2,0,0,0,0,17,0,0,0,0,0,0,0,0
BI,Burundi,country,Sub-Saharan Africa,-3.373056,29.918886,NZ,New Zealand,country,East Asia and Pacific,-40.900557,174.885971,13959.681757328,1988,9,0,0,0,0,0,0,0,0,0,0,0,0,9,0,0,0,0,0,0,0,0,0,0
CA,Canada,country,North America,56.130366,-106.346771,NZ,New Zealand,country,East Asia and Pacific,-40.900557,174.885971,13078.8822655872,1988,1920,53,251,22,9,0,53,272,290,0,0,0,4,174,278,36,0,474,4,0,0,0,0,0
KY,Cayman Islands,country,Latin America and the Caribbean,19.513469,-80.566956,NZ,New Zealand,country,East Asia and Pacific,-40.900557,174.885971,12627.1217964497,1988,0,0,0,0,0,0,0,0,0,0,0,0,0,0,0,0,0,0,0,0,0,0,0,0
TD,Chad,country,Sub-Saharan Africa,15.454166,18.732207,NZ,New Zealand,country,East Asia and Pacific,-40.900557,174.885971,16388.9399821207,1988,14,0,0,0,0,0,14,0,0,0,0,0,0,0,0,0,0,0,0,0,0,0,0,0
CL,Chile,country,Latin America and the Caribbean,-35.675147,-71.542969,NZ,New Zealand,country,East Asia and Pacific,-40.900557,174.885971,9146.62956844645,1988,1075,0,0,74,594,0,0,0,184,0,0,0,4,0,0,219,0,0,0,0,0,0,0,0
HK,Hong Kong,country,East Asia and Pacific,22.396428,114.109497,NZ,New Zealand,country,East Asia and Pacific,-40.900557,174.885971,9432.9557257228,1988,1362,61,27,12,19,63,387,34,11,139,4,0,65,268,33,233,0,6,0,0,0,0,0,0
CN,China,country,East Asia and Pacific,35.86166,104.195397,NZ,New Zealand,country,East Asia and Pacific,-40.900557,174.885971,11179.691715032,1988,6496,384,2,146,11,139,1404,115,1098,10,53,304,2356,189,238,29,0,18,0,0,0,0,0,0
CO,Colombia,country,Latin America and the Caribbean,4.570868,-74.297333,NZ,New Zealand,country,East Asia and Pacific,-40.900557,174.885971,12095.8733055889,1988,114,0,0,0,0,0,0,0,15,0,0,0,99,0,0,0,0,0,0,0,0,0,0,0
CK,Cook Islands,country,East Asia and Pacific,-21.236736,-159.777671,NZ,New Zealand,country,East Asia and Pacific,-40.900557,174.885971,3237.50614341193,1988,1955,0,0,0,0,0,0,99,1835,0,0,0,1,20,0,0,0,0,0,0,0,0,0,0
CR,Costa Rica,country,Latin America and the Caribbean,9.748917,-83.753428,NZ,New Zealand,country,East Asia and Pacific,-40.900557,174.885971,11680.5525259308,1988,252,0,0,0,0,0,0,0,0,0,0,0,252,0,0,0,0,0,0,0,0,0,0,0
CU,Cuba,country,Latin America and the Caribbean,21.521757,-77.781167,NZ,New Zealand,country,East Asia and Pacific,-40.900557,174.885971,12993.5688041845,1988,0,0,0,0,0,0,0,0,0,0,0,0,0,0,0,0,0,0,0,0,0,0,0,0
CY,Cyprus,country,Europe and Central Asia,35.126413,33.429859,NZ,New Zealand,country,East Asia and Pacific,-40.900557,174.885971,16624.8543183993,1988,29,0,0,4,0,0,0,0,0,0,0,0,0,9,0,16,0,0,0,0,0,0,0,0
CZ,Czech Republic,country,Europe and Central Asia,49.817492,15.472962,NZ,New Zealand,country,East Asia and Pacific,-40.900557,174.885971,18155.249643041,1988,14,0,0,0,0,0,0,0,0,0,0,0,0,0,0,14,0,0,0,0,0,0,0,0
KP,"Korea, Dem. Rep.",country,East Asia and Pacific,40.339852,127.510093,NZ,New Zealand,country,East Asia and Pacific,-40.900557,174.885971,10233.6808621783,1988,0,0,0,0,0,0,0,0,0,0,0,0,0,0,0,0,0,0,0,0,0,0,0,0
DK,Denmark,country,Europe and Central Asia,56.26392,9.501785,NZ,New Zealand,country,East Asia and Pacific,-40.900557,174.885971,18026.0204362707,1988,760,9,0,72,0,0,0,0,4,0,4,0,19,32,0,473,0,7,140,0,0,0,0,0
DM,Dominica,country,Latin America and the Caribbean,15.414999,-61.370976,NZ,New Zealand,country,East Asia and Pacific,-40.900557,174.885971,13955.5733985947,1988,0,0,0,0,0,0,0,0,0,0,0,0,0,0,0,0,0,0,0,0,0,0,0,0
DO,Dominican Republic,country,Latin America and the Caribbean,18.735693,-70.162651,NZ,New Zealand,country,East Asia and Pacific,-40.900557,174.885971,13449.0403569063,1988,2,0,0,0,0,0,0,0,0,0,0,0,0,2,0,0,0,0,0,0,0,0,0,0
EC,Ecuador,country,Latin America and the Caribbean,-1.831239,-78.183406,NZ,New Zealand,country,East Asia and Pacific,-40.900557,174.885971,11297.0383583639,1988,34559,0,0,0,0,0,0,0,34291,0,0,0,268,0,0,0,0,0,0,0,0,0,0,0
EG,Egypt,country,Middle East and North Africa,26.820553,30.802498,NZ,New Zealand,country,East Asia and Pacific,-40.900557,174.885971,16399.7029091802,1988,7,0,0,0,0,0,0,0,0,0,0,0,3,4,0,0,0,0,0,0,0,0,0,0
SV,El Salvador,country,Latin America and the Caribbean,13.794185,-88.89653,NZ,New Zealand,country,East Asia and Pacific,-40.900557,174.885971,11535.7981249654,1988,3,0,0,0,0,0,0,0,0,0,0,0,3,0,0,0,0,0,0,0,0,0,0,0
ET,Ethiopia,country,Sub-Saharan Africa,9.145,40.489673,NZ,New Zealand,country,East Asia and Pacific,-40.900557,174.885971,14334.184766532,1988,4,0,0,0,0,0,0,0,0,0,0,0,4,0,0,0,0,0,0,0,0,0,0,0
FK,Falkland Islands,country,,-51.796253,-59.523613,NZ,New Zealand,country,East Asia and Pacific,-40.900557,174.885971,8456.77248192368,1988,2,0,0,0,0,0,0,0,0,0,0,0,0,0,0,0,0,0,2,0,0,0,0,0
FJ,Fiji,country,East Asia and Pacific,-16.578193,179.414413,NZ,New Zealand,country,East Asia and Pacific,-40.900557,174.885971,2742.36387410259,1988,59971,209,1,58811,1,0,6,273,176,0,115,5,12,258,0,23,0,16,65,0,0,0,0,0
FI,Finland,country,Europe and Central Asia,61.92411,25.748151,NZ,New Zealand,country,East Asia and Pacific,-40.900557,174.885971,16922.1260128795,1988,54,5,0,0,0,0,0,0,0,0,0,0,0,49,0,0,0,0,0,0,0,0,0,0
FR,France,country,Europe and Central Asia,46.227638,2.213749,NZ,New Zealand,country,East Asia and Pacific,-40.900557,174.885971,19200.9265063066,1988,1991,3,0,87,0,0,14,7,2,0,3,302,9,79,0,1440,0,0,45,0,0,0,0,0
PF,French Polynesia,country,East Asia and Pacific,-17.679742,-149.406843,NZ,New Zealand,country,East Asia and Pacific,-40.900557,174.885971,4275.5063389946,1988,2,0,0,0,0,0,0,0,2,0,0,0,0,0,0,0,0,0,0,0,0,0,0,0
GH,Ghana,country,Sub-Saharan Africa,7.946527,-1.023194,NZ,New Zealand,country,East Asia and Pacific,-40.900557,174.885971,16346.7796240982,1988,104,0,0,0,0,0,0,0,0,0,0,0,104,0,0,0,0,0,0,0,0,0,0,0
GR,Greece,country,Europe and Central Asia,39.074208,21.824312,NZ,New Zealand,country,East Asia and Pacific,-40.900557,174.885971,17740.0326256701,1988,832,0,0,0,0,0,38,202,586,0,0,0,0,0,0,6,0,0,0,0,0,0,0,0
GP,Guadeloupe,country,Latin America and the Caribbean,16.995971,-62.067641,NZ,New Zealand,country,East Asia and Pacific,-40.900557,174.885971,14008.7379941618,1988,2,0,0,2,0,0,0,0,0,0,0,0,0,0,0,0,0,0,0,0,0,0,0,0
GT,Guatemala,country,Latin America and the Caribbean,15.783471,-90.230759,NZ,New Zealand,country,East Asia and Pacific,-40.900557,174.885971,11564.6594723362,1988,50,0,0,0,0,0,0,0,0,0,1,0,49,0,0,0,0,0,0,0,0,0,0,0
HN,Honduras,country,Latin America and the Caribbean,15.199999,-86.241905,NZ,New Zealand,country,East Asia and Pacific,-40.900557,174.885971,11856.5131484343,1988,367,0,0,0,0,0,0,0,0,0,4,0,363,0,0,0,0,0,0,0,0,0,0,0
HU,Hungary,country,Europe and Central Asia,47.162494,19.503304,NZ,New Zealand,country,East Asia and Pacific,-40.900557,174.885971,17958.0937861549,1988,312,0,0,0,0,0,0,258,43,0,7,0,0,0,0,4,0,0,0,0,0,0,0,0
IS,Iceland,country,Europe and Central Asia,64.963051,-19.020835,NZ,New Zealand,country,East Asia and Pacific,-40.900557,174.885971,17215.7942101088,1988,6,0,0,0,0,0,0,0,0,0,0,0,6,0,0,0,0,0,0,0,0,0,0,0
IN,India,country,South Asia,20.593684,78.96288,NZ,New Zealand,country,East Asia and Pacific,-40.900557,174.885971,11984.2976921897,1988,1198,57,0,0,0,282,111,22,1,40,51,0,503,121,10,0,0,0,0,0,0,0,0,0
ID,Indonesia,country,East Asia and Pacific,-0.789275,113.921327,NZ,New Zealand,country,East Asia and Pacific,-40.900557,174.885971,7561.27854515998,1988,5390,0,0,0,0,0,26,0,0,0,42,0,4390,63,869,0,0,0,0,0,0,0,0,0
IR,Iran,country,Middle East and North Africa,32.427908,53.688046,NZ,New Zealand,country,East Asia and Pacific,-40.900557,174.885971,14801.7992409038,1988,150,0,0,0,0,0,0,0,130,0,11,0,0,2,0,7,0,0,0,0,0,0,0,0
IQ,Iraq,country,Middle East and North Africa,33.223191,43.679291,NZ,New Zealand,country,East Asia and Pacific,-40.900557,174.885971,15677.1857445538,1988,52,0,0,0,0,0,0,0,52,0,0,0,0,0,0,0,0,0,0,0,0,0,0,0
IE,Ireland,country,Europe and Central Asia,53.41291,-8.24389,NZ,New Zealand,country,East Asia and Pacific,-40.900557,174.885971,18624.9919137641,1988,504,0,0,73,0,0,0,0,0,0,0,0,6,77,0,348,0,0,0,0,0,0,0,0
IL,Israel,country,Middle East and North Africa,31.046051,34.851612,NZ,New Zealand,country,East Asia and Pacific,-40.900557,174.885971,16309.5261752265,1988,261,11,0,0,0,0,5,237,6,0,0,0,0,0,0,2,0,0,0,0,0,0,0,0
IT,Italy,country,Europe and Central Asia,41.87194,12.56738,NZ,New Zealand,country,East Asia and Pacific,-40.900557,174.885971,18559.4352153087,1988,2263,66,0,13,0,11,0,1213,386,0,4,0,19,41,97,410,0,0,3,0,0,0,0,0
JM,Jamaica,country,Latin America and the Caribbean,18.109581,-77.297508,NZ,New Zealand,country,East Asia and Pacific,-40.900557,174.885971,12806.7458218431,1988,546,0,0,0,0,0,0,0,13,0,5,0,0,0,0,528,0,0,0,0,0,0,0,0
JP,Japan,country,East Asia and Pacific,36.204824,138.252924,NZ,New Zealand,country,East Asia and Pacific,-40.900557,174.885971,9362.64636961408,1988,1414,20,0,402,0,0,10,10,2,41,0,0,796,78,20,35,0,0,0,0,0,0,0,0
KE,Kenya,country,Sub-Saharan Africa,-0.023559,37.906193,NZ,New Zealand,country,East Asia and Pacific,-40.900557,174.885971,13751.0427397015,1988,433,0,0,0,0,0,0,0,0,0,0,0,433,0,0,0,0,0,0,0,0,0,0,0
KI,Kiribati,country,East Asia and Pacific,-3.370417,-168.734039,NZ,New Zealand,country,East Asia and Pacific,-40.900557,174.885971,4488.74074732655,1988,0,0,0,0,0,0,0,0,0,0,0,0,0,0,0,0,0,0,0,0,0,0,0,0
MG,Madagascar,country,Sub-Saharan Africa,-18.766947,46.869107,NZ,New Zealand,country,East Asia and Pacific,-40.900557,174.885971,11499.8066796815,1988,4,0,0,0,0,0,0,0,0,0,4,0,0,0,0,0,0,0,0,0,0,0,0,0
MW,Malawi,country,Sub-Saharan Africa,-13.254308,34.301525,NZ,New Zealand,country,East Asia and Pacific,-40.900557,174.885971,12771.1520475471,1988,569,0,0,0,12,0,0,0,0,0,0,0,0,557,0,0,0,0,0,0,0,0,0,0
MY,Malaysia,country,East Asia and Pacific,4.210484,101.975766,NZ,New Zealand,country,East Asia and Pacific,-40.900557,174.885971,8906.84726377256,1988,28981,8,0,7048,0,18,444,7,707,0,96,164,610,3432,16414,0,0,0,33,0,0,0,0,0
ML,Mali,country,Sub-Saharan Africa,17.570692,-3.996166,NZ,New Zealand,country,East Asia and Pacific,-40.900557,174.885971,17438.2317976654,1988,0,0,0,0,0,0,0,0,0,0,0,0,0,0,0,0,0,0,0,0,0,0,0,0
MU,Mauritius,country,Sub-Saharan Africa,-20.348404,57.552152,NZ,New Zealand,country,East Asia and Pacific,-40.900557,174.885971,10643.1034141026,1988,88,0,0,54,0,0,0,1,0,0,0,0,33,0,0,0,0,0,0,0,0,0,0,0
MX,Mexico,country,Latin America and the Caribbean,23.634501,-102.552784,NZ,New Zealand,country,East Asia and Pacific,-40.900557,174.885971,11126.7175692642,1988,879,0,0,1,0,3,402,2,219,0,1,0,4,2,0,245,0,0,0,0,0,0,0,0
MC,Monaco,country,Europe and Central Asia,43.750298,7.412841,NZ,New Zealand,country,East Asia and Pacific,-40.900557,174.885971,18960.0651317905,1988,2,0,0,0,0,0,2,0,0,0,0,0,0,0,0,0,0,0,0,0,0,0,0,0
MA,Morocco,country,Middle East and North Africa,31.791702,-7.09262,NZ,New Zealand,country,East Asia and Pacific,-40.900557,174.885971,19008.1982180734,1988,41,0,0,0,0,0,0,0,0,0,0,0,0,41,0,0,0,0,0,0,0,0,0,0
NP,Nepal,country,South Asia,28.394857,84.124008,NZ,New Zealand,country,East Asia and Pacific,-40.900557,174.885971,12097.6790760783,1988,0,0,0,0,0,0,0,0,0,0,0,0,0,0,0,0,0,0,0,0,0,0,0,0
NL,Netherlands,country,Europe and Central Asia,52.132633,5.291266,NZ,New Zealand,country,East Asia and Pacific,-40.900557,174.885971,18557.9955703276,1988,5564,39,39,421,3,0,33,49,10,9,4,0,712,216,3582,423,0,0,24,0,0,0,0,0
NC,New Caledonia,country,East Asia and Pacific,-20.904305,165.618042,NZ,New Zealand,country,East Asia and Pacific,-40.900557,174.885971,2391.9752823077,1988,0,0,0,0,0,0,0,0,0,0,0,0,0,0,0,0,0,0,0,0,0,0,0,0
NI,Nicaragua,country,Latin America and the Caribbean,12.865416,-85.207229,NZ,New Zealand,country,East Asia and Pacific,-40.900557,174.885971,11779.4781618257,1988,2,0,0,0,0,0,0,0,0,0,0,0,2,0,0,0,0,0,0,0,0,0,0,0
NU,Niue,country,East Asia and Pacific,-19.054445,-169.867233,NZ,New Zealand,country,East Asia and Pacific,-40.900557,174.885971,2831.90213110697,1988,22,0,0,19,0,0,0,0,3,0,0,0,0,0,0,0,0,0,0,0,0,0,0,0
NO,Norway,country,Europe and Central Asia,60.472024,8.468946,NZ,New Zealand,country,East Asia and Pacific,-40.900557,174.885971,17668.408105188,1988,17,10,0,0,0,0,0,0,0,0,0,0,0,1,0,0,0,0,6,0,0,0,0,0
PK,Pakistan,country,South Asia,30.375321,69.345116,NZ,New Zealand,country,East Asia and Pacific,-40.900557,174.885971,13401.0918718991,1988,224,0,0,0,0,0,0,0,126,61,0,0,0,37,0,0,0,0,0,0,0,0,0,0
PA,Panama,country,Latin America and the Caribbean,8.537981,-80.782127,NZ,New Zealand,country,East Asia and Pacific,-40.900557,174.885971,11843.6855878711,1988,55,0,0,0,0,0,0,0,0,0,0,0,55,0,0,0,0,0,0,0,0,0,0,0
PG,Papua New Guinea,country,East Asia and Pacific,-6.314993,143.95555,NZ,New Zealand,country,East Asia and Pacific,-40.900557,174.885971,4924.58692523464,1988,1461,0,0,506,0,0,0,0,1,0,6,0,948,0,0,0,0,0,0,0,0,0,0,0
PE,Peru,country,Latin America and the Caribbean,-9.189967,-75.015152,NZ,New Zealand,country,East Asia and Pacific,-40.900557,174.885971,10990.9553522264,1988,39,0,0,0,0,0,0,0,0,0,0,0,35,4,0,0,0,0,0,0,0,0,0,0
PH,Philippines,country,East Asia and Pacific,12.879721,121.774017,NZ,New Zealand,country,East Asia and Pacific,-40.900557,174.885971,8099.85217465175,1988,11934,26,0,3,0,0,295,0,11475,1,0,0,0,85,38,11,0,0,0,0,0,0,0,0
PL,Poland,country,Europe and Central Asia,51.919438,19.145136,NZ,New Zealand,country,East Asia and Pacific,-40.900557,174.885971,17824.3212390698,1988,37,0,0,8,0,0,0,0,0,0,0,0,29,0,0,0,0,0,0,0,0,0,0,0
PT,Portugal,country,Europe and Central Asia,39.399872,-8.224454,NZ,New Zealand,country,East Asia and Pacific,-40.900557,174.885971,19724.5669567711,1988,987,0,0,0,0,0,0,584,0,0,0,0,0,6,0,397,0,0,0,0,0,0,0,0
PR,Puerto Rico,country,Latin America and the Caribbean,18.220833,-66.590149,NZ,New Zealand,country,East Asia and Pacific,-40.900557,174.885971,13714.5736655495,1988,353,0,0,0,0,0,0,0,0,0,0,0,0,353,0,0,0,0,0,0,0,0,0,0
KR,"Korea, Rep.",country,East Asia and Pacific,35.907757,127.766922,NZ,New Zealand,country,East Asia and Pacific,-40.900557,174.885971,9810.81970612616,1988,507,3,0,51,0,0,0,7,29,146,0,0,12,259,0,0,0,0,0,0,0,0,0,0
RO,Romania,country,Europe and Central Asia,45.943161,24.96676,NZ,New Zealand,country,East Asia and Pacific,-40.900557,174.885971,17557.3128405345,1988,28,0,0,0,0,0,0,19,0,0,9,0,0,0,0,0,0,0,0,0,0,0,0,0
WS,Samoa,country,East Asia and Pacific,-13.759029,-172.104629,NZ,New Zealand,country,East Asia and Pacific,-40.900557,174.885971,3275.06524040985,1988,2951,0,0,0,0,0,141,21,33,0,0,873,12,837,964,69,0,0,1,0,0,0,0,0
SA,Saudi Arabia,country,Middle East and North Africa,23.885942,45.079162,NZ,New Zealand,country,East Asia and Pacific,-40.900557,174.885971,15032.3017086917,1988,16,0,0,0,0,0,0,1,15,0,0,0,0,0,0,0,0,0,0,0,0,0,0,0
SG,Singapore,country,East Asia and Pacific,1.352083,103.819836,NZ,New Zealand,country,East Asia and Pacific,-40.900557,174.885971,8540.2553979967,1988,8173,21,0,2908,5,0,257,3,0,0,48,0,3492,250,1182,6,0,1,0,0,0,0,0,0
SB,Solomon Islands,country,East Asia and Pacific,-9.64571,160.156194,NZ,New Zealand,country,East Asia and Pacific,-40.900557,174.885971,3769.5373353219,1988,0,0,0,0,0,0,0,0,0,0,0,0,0,0,0,0,0,0,0,0,0,0,0,0
SO,Somalia,country,Sub-Saharan Africa,5.152149,46.199616,NZ,New Zealand,country,East Asia and Pacific,-40.900557,174.885971,13576.58816547,1988,0,0,0,0,0,0,0,0,0,0,0,0,0,0,0,0,0,0,0,0,0,0,0,0
ZA,S. Africa,country,Sub-Saharan Africa,-30.559482,22.937506,NZ,New Zealand,country,East Asia and Pacific,-40.900557,174.885971,11574.4935810264,1988,0,0,0,0,0,0,0,0,0,0,0,0,0,0,0,0,0,0,0,0,0,0,0,0
ES,Spain,country,Europe and Central Asia,40.463667,-3.74922,NZ,New Zealand,country,East Asia and Pacific,-40.900557,174.885971,19912.4518342504,1988,2643,0,0,228,0,20,83,477,1239,0,17,0,78,11,214,276,0,0,0,0,0,0,0,0
LK,Sri Lanka,country,South Asia,7.873054,80.771797,NZ,New Zealand,country,East Asia and Pacific,-40.900557,174.885971,10936.5626349214,1988,1096,0,0,0,0,3,2,0,0,0,71,0,949,71,0,0,0,0,0,0,0,0,0,0
SZ,Swaziland,country,Sub-Saharan Africa,-26.522503,31.465866,NZ,New Zealand,country,East Asia and Pacific,-40.900557,174.885971,11635.0637713506,1988,0,0,0,0,0,0,0,0,0,0,0,0,0,0,0,0,0,0,0,0,0,0,0,0
SE,Sweden,country,Europe and Central Asia,60.128161,18.643501,NZ,New Zealand,country,East Asia and Pacific,-40.900557,174.885971,17346.6289722826,1988,115,12,0,0,0,0,0,0,0,0,0,0,0,16,33,54,0,0,0,0,0,0,0,0
CH,Switzerland,country,Europe and Central Asia,46.818188,8.227512,NZ,New Zealand,country,East Asia and Pacific,-40.900557,174.885971,18782.7649603474,1988,462,23,0,26,0,36,36,9,56,3,0,2,236,31,3,0,0,0,1,0,0,0,0,0
TH,Thailand,country,East Asia and Pacific,15.870032,100.992541,NZ,New Zealand,country,East Asia and Pacific,-40.900557,174.885971,9874.25556631662,1988,5964,1299,24,1633,26,1,8,409,1575,8,3,0,0,681,34,18,0,0,245,0,0,0,0,0
TO,Tonga,country,East Asia and Pacific,-21.178986,-175.198242,NZ,New Zealand,country,East Asia and Pacific,-40.900557,174.885971,2386.43805419347,1988,3291,0,0,0,0,0,561,0,1353,0,0,109,0,0,1259,9,0,0,0,0,0,0,0,0
TT,Trinidad and Tobago,country,Latin America and the Caribbean,10.691803,-61.222503,NZ,New Zealand,country,East Asia and Pacific,-40.900557,174.885971,13624.0414285173,1988,4,0,0,0,0,0,0,0,0,0,0,0,0,0,0,4,0,0,0,0,0,0,0,0
TN,Tunisia,country,Middle East and North Africa,33.886917,9.537499,NZ,New Zealand,country,East Asia and Pacific,-40.900557,174.885971,18527.7043490347,1988,14,0,0,0,0,0,0,0,14,0,0,0,0,0,0,0,0,0,0,0,0,0,0,0
TR,Turkey,country,Europe and Central Asia,38.963745,35.243322,NZ,New Zealand,country,East Asia and Pacific,-40.900557,174.885971,16616.4394144971,1988,959,0,0,0,0,17,0,2,938,0,2,0,0,0,0,0,0,0,0,0,0,0,0,0
GB,United Kingdom,country,Europe and Central Asia,55.378051,-3.435973,NZ,New Zealand,country,East Asia and Pacific,-40.900557,174.885971,18421.1892053959,1988,3981,572,0,310,0,0,65,65,151,303,10,25,404,581,108,1329,0,9,49,0,0,0,0,0
TZ,Tanzania,country,Sub-Saharan Africa,-6.369028,34.888822,NZ,New Zealand,country,East Asia and Pacific,-40.900557,174.885971,13378.8503298,1988,102,0,0,0,0,0,0,0,0,0,0,0,25,77,0,0,0,0,0,0,0,0,0,0
US,USA,country,North America,37.09024,-95.712891,NZ,New Zealand,country,East Asia and Pacific,-40.900557,174.885971,12564.0565528273,1988,38450,12257,8,703,1088,1036,2530,354,12305,20,3,4241,291,2293,789,524,0,0,8,0,0,0,0,0
UY,Uruguay,country,Latin America and the Caribbean,-32.522779,-55.765835,NZ,New Zealand,country,East Asia and Pacific,-40.900557,174.885971,10350.9591653017,1988,0,0,0,0,0,0,0,0,0,0,0,0,0,0,0,0,0,0,0,0,0,0,0,0
RU,Russian Federation,country,Europe and Central Asia,61.52401,105.318756,NZ,New Zealand,country,East Asia and Pacific,-40.900557,174.885971,12993.8682996691,1988,75,27,0,15,0,0,0,4,9,0,0,0,2,3,2,7,0,0,6,0,0,0,0,0
VN,Vietnam,country,East Asia and Pacific,14.058324,108.277199,NZ,New Zealand,country,East Asia and Pacific,-40.900557,174.885971,9174.08799999238,1988,3,0,0,0,0,0,0,0,0,0,0,0,3,0,0,0,0,0,0,0,0,0,0,0
BA,Bosnia & Herzegovina,country,Europe and Central Asia,43.915886,17.679076,NZ,New Zealand,country,East Asia and Pacific,-40.900557,174.885971,18140.546641982,1988,28,0,0,5,0,0,0,14,0,0,0,0,0,0,0,9,0,0,0,0,0,0,0,0
ZW,Zimbabwe,country,Sub-Saharan Africa,-19.015438,29.154857,NZ,New Zealand,country,East Asia and Pacific,-40.900557,174.885971,12485.7532968442,1988,1047,0,0,0,0,0,136,0,104,0,0,0,0,807,0,0,0,0,0,0,0,0,0,0
AR,Argentina,country,Latin America and the Caribbean,-38.416097,-63.616672,NZ,New Zealand,country,East Asia and Pacific,-40.900557,174.885971,9396.35490511559,1989,7016,0,0,18,72,0,0,0,0,0,0,0,196,115,6610,5,0,0,0,0,0,0,0,0
AU,Australia,country,East Asia and Pacific,-25.274398,133.775136,NZ,New Zealand,country,East Asia and Pacific,-40.900557,174.885971,4162.27214264836,1989,225287,106308,1174,62615,153,190,674,3508,19035,140,51,1372,2654,8901,5854,9947,0,1735,367,609,0,0,0,0
AT,Austria,country,Europe and Central Asia,47.516231,14.550072,NZ,New Zealand,country,East Asia and Pacific,-40.900557,174.885971,18310.6283212618,1989,13,0,0,0,0,0,0,0,13,0,0,0,0,0,0,0,0,0,0,0,0,0,0,0
BE,Belgium,country,Europe and Central Asia,50.503887,4.469936,NZ,New Zealand,country,East Asia and Pacific,-40.900557,174.885971,18736.7606707317,1989,1100,6,0,125,0,0,0,0,2,42,0,0,19,6,897,3,0,0,0,0,0,0,0,0
BR,Brazil,country,Latin America and the Caribbean,-14.235004,-51.92528,NZ,New Zealand,country,East Asia and Pacific,-40.900557,174.885971,12234.2778670789,1989,2266,0,0,125,0,38,3,0,1199,0,0,33,172,660,25,10,0,0,1,0,0,0,0,0
VG,British Virgin Islands,country,Latin America and the Caribbean,18.420695,-64.639968,NZ,New Zealand,country,East Asia and Pacific,-40.900557,174.885971,13891.6399437239,1989,0,0,0,0,0,0,0,0,0,0,0,0,0,0,0,0,0,0,0,0,0,0,0,0
BG,Bulgaria,country,Europe and Central Asia,42.733883,25.48583,NZ,New Zealand,country,East Asia and Pacific,-40.900557,174.885971,17504.5714485223,1989,25,0,0,0,0,0,0,0,0,0,0,0,0,0,0,25,0,0,0,0,0,0,0,0
CA,Canada,country,North America,56.130366,-106.346771,NZ,New Zealand,country,East Asia and Pacific,-40.900557,174.885971,13078.8822655872,1989,1870,1,249,12,0,0,48,12,29,0,0,0,12,86,366,45,0,1009,1,0,0,0,0,0
CL,Chile,country,Latin America and the Caribbean,-35.675147,-71.542969,NZ,New Zealand,country,East Asia and Pacific,-40.900557,174.885971,9146.62956844645,1989,914,0,0,28,40,0,0,0,543,0,0,0,5,0,0,298,0,0,0,0,0,0,0,0
HK,Hong Kong,country,East Asia and Pacific,22.396428,114.109497,NZ,New Zealand,country,East Asia and Pacific,-40.900557,174.885971,9432.9557257228,1989,1069,31,55,33,29,58,338,18,17,63,0,0,9,127,16,270,0,5,0,0,0,0,0,0
MO,"Macao SAR, China",country,East Asia and Pacific,22.198745,113.543873,NZ,New Zealand,country,East Asia and Pacific,-40.900557,174.885971,9455.19532567535,1989,0,0,0,0,0,0,0,0,0,0,0,0,0,0,0,0,0,0,0,0,0,0,0,0
CN,China,country,East Asia and Pacific,35.86166,104.195397,NZ,New Zealand,country,East Asia and Pacific,-40.900557,174.885971,11179.691715032,1989,3163,231,0,3,21,247,1316,84,619,24,35,0,402,102,48,0,0,31,0,0,0,0,0,0
CO,Colombia,country,Latin America and the Caribbean,4.570868,-74.297333,NZ,New Zealand,country,East Asia and Pacific,-40.900557,174.885971,12095.8733055889,1989,43,0,0,0,0,0,0,0,0,0,0,0,43,0,0,0,0,0,0,0,0,0,0,0
CK,Cook Islands,country,East Asia and Pacific,-21.236736,-159.777671,NZ,New Zealand,country,East Asia and Pacific,-40.900557,174.885971,3237.50614341193,1989,570,0,0,0,0,0,0,90,439,0,0,0,0,2,0,20,0,0,19,0,0,0,0,0
CR,Costa Rica,country,Latin America and the Caribbean,9.748917,-83.753428,NZ,New Zealand,country,East Asia and Pacific,-40.900557,174.885971,11680.5525259308,1989,52,0,0,0,0,0,0,0,0,0,0,0,52,0,0,0,0,0,0,0,0,0,0,0
CU,Cuba,country,Latin America and the Caribbean,21.521757,-77.781167,NZ,New Zealand,country,East Asia and Pacific,-40.900557,174.885971,12993.5688041845,1989,0,0,0,0,0,0,0,0,0,0,0,0,0,0,0,0,0,0,0,0,0,0,0,0
CY,Cyprus,country,Europe and Central Asia,35.126413,33.429859,NZ,New Zealand,country,East Asia and Pacific,-40.900557,174.885971,16624.8543183993,1989,9,0,0,0,0,0,0,0,0,0,0,0,5,4,0,0,0,0,0,0,0,0,0,0
CZ,Czech Republic,country,Europe and Central Asia,49.817492,15.472962,NZ,New Zealand,country,East Asia and Pacific,-40.900557,174.885971,18155.249643041,1989,26,0,0,0,0,0,0,0,0,0,0,0,0,4,0,22,0,0,0,0,0,0,0,0
DK,Denmark,country,Europe and Central Asia,56.26392,9.501785,NZ,New Zealand,country,East Asia and Pacific,-40.900557,174.885971,18026.0204362707,1989,364,23,0,2,0,0,0,0,0,0,4,0,10,31,0,140,0,120,34,0,0,0,0,0
EC,Ecuador,country,Latin America and the Caribbean,-1.831239,-78.183406,NZ,New Zealand,country,East Asia and Pacific,-40.900557,174.885971,11297.0383583639,1989,18932,0,0,0,0,0,0,0,18734,0,0,0,198,0,0,0,0,0,0,0,0,0,0,0
EG,Egypt,country,Middle East and North Africa,26.820553,30.802498,NZ,New Zealand,country,East Asia and Pacific,-40.900557,174.885971,16399.7029091802,1989,20,20,0,0,0,0,0,0,0,0,0,0,0,0,0,0,0,0,0,0,0,0,0,0
FJ,Fiji,country,East Asia and Pacific,-16.578193,179.414413,NZ,New Zealand,country,East Asia and Pacific,-40.900557,174.885971,2742.36387410259,1989,4490,92,1,3052,0,0,6,115,96,0,85,751,6,225,1,60,0,0,0,0,0,0,0,0
FI,Finland,country,Europe and Central Asia,61.92411,25.748151,NZ,New Zealand,country,East Asia and Pacific,-40.900557,174.885971,16922.1260128795,1989,7,7,0,0,0,0,0,0,0,0,0,0,0,0,0,0,0,0,0,0,0,0,0,0
FR,France,country,Europe and Central Asia,46.227638,2.213749,NZ,New Zealand,country,East Asia and Pacific,-40.900557,174.885971,19200.9265063066,1989,1061,0,0,55,57,0,10,2,0,0,3,0,10,42,0,871,0,0,11,0,0,0,0,0
PF,French Polynesia,country,East Asia and Pacific,-17.679742,-149.406843,NZ,New Zealand,country,East Asia and Pacific,-40.900557,174.885971,4275.5063389946,1989,61,0,0,0,0,0,0,0,61,0,0,0,0,0,0,0,0,0,0,0,0,0,0,0
GH,Ghana,country,Sub-Saharan Africa,7.946527,-1.023194,NZ,New Zealand,country,East Asia and Pacific,-40.900557,174.885971,16346.7796240982,1989,13,0,0,0,0,0,0,0,0,0,0,0,13,0,0,0,0,0,0,0,0,0,0,0
GR,Greece,country,Europe and Central Asia,39.074208,21.824312,NZ,New Zealand,country,East Asia and Pacific,-40.900557,174.885971,17740.0326256701,1989,734,0,0,9,0,0,27,0,695,0,0,0,0,0,0,3,0,0,0,0,0,0,0,0
GT,Guatemala,country,Latin America and the Caribbean,15.783471,-90.230759,NZ,New Zealand,country,East Asia and Pacific,-40.900557,174.885971,11564.6594723362,1989,36,0,0,0,0,0,0,0,0,0,0,0,36,0,0,0,0,0,0,0,0,0,0,0
HT,Haiti,country,Latin America and the Caribbean,18.971187,-72.285215,NZ,New Zealand,country,East Asia and Pacific,-40.900557,174.885971,13286.2341429835,1989,0,0,0,0,0,0,0,0,0,0,0,0,0,0,0,0,0,0,0,0,0,0,0,0
HN,Honduras,country,Latin America and the Caribbean,15.199999,-86.241905,NZ,New Zealand,country,East Asia and Pacific,-40.900557,174.885971,11856.5131484343,1989,2,0,0,0,0,0,0,0,0,0,2,0,0,0,0,0,0,0,0,0,0,0,0,0
HU,Hungary,country,Europe and Central Asia,47.162494,19.503304,NZ,New Zealand,country,East Asia and Pacific,-40.900557,174.885971,17958.0937861549,1989,135,0,0,0,0,0,0,70,17,0,2,0,6,0,0,40,0,0,0,0,0,0,0,0
IN,India,country,South Asia,20.593684,78.96288,NZ,New Zealand,country,East Asia and Pacific,-40.900557,174.885971,11984.2976921897,1989,1766,44,0,0,0,209,226,24,2,0,41,761,394,57,8,0,0,0,0,0,0,0,0,0
ID,Indonesia,country,East Asia and Pacific,-0.789275,113.921327,NZ,New Zealand,country,East Asia and Pacific,-40.900557,174.885971,7561.27854515998,1989,3139,1,0,12,0,10,4,0,0,11,24,0,1561,517,994,5,0,0,0,0,0,0,0,0
IR,Iran,country,Middle East and North Africa,32.427908,53.688046,NZ,New Zealand,country,East Asia and Pacific,-40.900557,174.885971,14801.7992409038,1989,17,0,0,0,0,3,0,0,14,0,0,0,0,0,0,0,0,0,0,0,0,0,0,0
IE,Ireland,country,Europe and Central Asia,53.41291,-8.24389,NZ,New Zealand,country,East Asia and Pacific,-40.900557,174.885971,18624.9919137641,1989,212,6,0,0,0,0,0,0,0,0,0,0,0,10,0,196,0,0,0,0,0,0,0,0
IL,Israel,country,Middle East and North Africa,31.046051,34.851612,NZ,New Zealand,country,East Asia and Pacific,-40.900557,174.885971,16309.5261752265,1989,4,0,0,0,0,0,2,0,0,0,0,0,0,0,0,2,0,0,0,0,0,0,0,0
IT,Italy,country,Europe and Central Asia,41.87194,12.56738,NZ,New Zealand,country,East Asia and Pacific,-40.900557,174.885971,18559.4352153087,1989,854,33,0,18,0,33,0,135,95,0,2,0,9,21,52,456,0,0,0,0,0,0,0,0
JM,Jamaica,country,Latin America and the Caribbean,18.109581,-77.297508,NZ,New Zealand,country,East Asia and Pacific,-40.900557,174.885971,12806.7458218431,1989,316,0,0,0,0,0,0,0,10,0,5,0,0,0,0,301,0,0,0,0,0,0,0,0
JP,Japan,country,East Asia and Pacific,36.204824,138.252924,NZ,New Zealand,country,East Asia and Pacific,-40.900557,174.885971,9362.64636961408,1989,712,50,0,0,0,0,15,7,0,0,0,0,538,69,7,26,0,0,0,0,0,0,0,0
KE,Kenya,country,Sub-Saharan Africa,-0.023559,37.906193,NZ,New Zealand,country,East Asia and Pacific,-40.900557,174.885971,13751.0427397015,1989,221,0,0,0,0,0,0,0,0,0,0,0,221,0,0,0,0,0,0,0,0,0,0,0
KI,Kiribati,country,East Asia and Pacific,-3.370417,-168.734039,NZ,New Zealand,country,East Asia and Pacific,-40.900557,174.885971,4488.74074732655,1989,12,0,0,0,0,0,12,0,0,0,0,0,0,0,0,0,0,0,0,0,0,0,0,0
MG,Madagascar,country,Sub-Saharan Africa,-18.766947,46.869107,NZ,New Zealand,country,East Asia and Pacific,-40.900557,174.885971,11499.8066796815,1989,4,0,0,0,0,0,0,0,0,0,4,0,0,0,0,0,0,0,0,0,0,0,0,0
MW,Malawi,country,Sub-Saharan Africa,-13.254308,34.301525,NZ,New Zealand,country,East Asia and Pacific,-40.900557,174.885971,12771.1520475471,1989,204,0,0,0,2,0,0,0,0,0,0,0,0,202,0,0,0,0,0,0,0,0,0,0
MY,Malaysia,country,East Asia and Pacific,4.210484,101.975766,NZ,New Zealand,country,East Asia and Pacific,-40.900557,174.885971,8906.84726377256,1989,14513,11,0,249,0,0,205,7,151,0,45,602,268,1260,11679,0,0,0,36,0,0,0,0,0
MV,Maldives,country,South Asia,3.202778,73.22068,NZ,New Zealand,country,East Asia and Pacific,-40.900557,174.885971,11232.619655528,1989,0,0,0,0,0,0,0,0,0,0,0,0,0,0,0,0,0,0,0,0,0,0,0,0
MU,Mauritius,country,Sub-Saharan Africa,-20.348404,57.552152,NZ,New Zealand,country,East Asia and Pacific,-40.900557,174.885971,10643.1034141026,1989,113,0,0,113,0,0,0,0,0,0,0,0,0,0,0,0,0,0,0,0,0,0,0,0
MX,Mexico,country,Latin America and the Caribbean,23.634501,-102.552784,NZ,New Zealand,country,East Asia and Pacific,-40.900557,174.885971,11126.7175692642,1989,688,0,0,24,0,2,68,0,267,0,0,0,0,1,0,326,0,0,0,0,0,0,0,0
MS,Montserrat,country,Latin America and the Caribbean,16.7425,-62.1874,NZ,New Zealand,country,East Asia and Pacific,-40.900557,174.885971,13981.1498786393,1989,13,0,0,0,0,0,0,0,0,0,0,0,13,0,0,0,0,0,0,0,0,0,0,0
MA,Morocco,country,Middle East and North Africa,31.791702,-7.09262,NZ,New Zealand,country,East Asia and Pacific,-40.900557,174.885971,19008.1982180734,1989,19,0,0,0,0,0,0,0,0,0,0,0,0,19,0,0,0,0,0,0,0,0,0,0
MM,Myanmar,country,East Asia and Pacific,21.913965,95.956223,NZ,New Zealand,country,East Asia and Pacific,-40.900557,174.885971,10719.9465181803,1989,8,0,0,0,0,0,0,0,0,0,0,0,0,0,0,8,0,0,0,0,0,0,0,0
NL,Netherlands,country,Europe and Central Asia,52.132633,5.291266,NZ,New Zealand,country,East Asia and Pacific,-40.900557,174.885971,18557.9955703276,1989,1857,31,28,161,1,0,3,109,70,2,1,0,214,159,845,213,0,0,20,0,0,0,0,0
NI,Nicaragua,country,Latin America and the Caribbean,12.865416,-85.207229,NZ,New Zealand,country,East Asia and Pacific,-40.900557,174.885971,11779.4781618257,1989,3,0,0,0,0,0,0,0,0,0,0,0,3,0,0,0,0,0,0,0,0,0,0,0
NG,Nigeria,country,Sub-Saharan Africa,9.081999,8.675277,NZ,New Zealand,country,East Asia and Pacific,-40.900557,174.885971,16243.223974048,1989,2,0,0,0,0,0,0,0,0,0,0,0,2,0,0,0,0,0,0,0,0,0,0,0
NU,Niue,country,East Asia and Pacific,-19.054445,-169.867233,NZ,New Zealand,country,East Asia and Pacific,-40.900557,174.885971,2831.90213110697,1989,3,0,0,0,0,0,0,3,0,0,0,0,0,0,0,0,0,0,0,0,0,0,0,0
NO,Norway,country,Europe and Central Asia,60.472024,8.468946,NZ,New Zealand,country,East Asia and Pacific,-40.900557,174.885971,17668.408105188,1989,6,4,0,0,0,0,0,0,0,0,0,0,0,2,0,0,0,0,0,0,0,0,0,0
OM,Oman,country,Middle East and North Africa,21.512583,55.923255,NZ,New Zealand,country,East Asia and Pacific,-40.900557,174.885971,13969.8993700863,1989,8,0,0,0,0,0,0,0,0,0,0,0,0,0,0,0,0,8,0,0,0,0,0,0
PK,Pakistan,country,South Asia,30.375321,69.345116,NZ,New Zealand,country,East Asia and Pacific,-40.900557,174.885971,13401.0918718991,1989,103,1,0,0,0,0,0,0,57,14,0,0,0,31,0,0,0,0,0,0,0,0,0,0
PG,Papua New Guinea,country,East Asia and Pacific,-6.314993,143.95555,NZ,New Zealand,country,East Asia and Pacific,-40.900557,174.885971,4924.58692523464,1989,1674,0,0,796,0,0,0,0,0,0,5,0,873,0,0,0,0,0,0,0,0,0,0,0
PE,Peru,country,Latin America and the Caribbean,-9.189967,-75.015152,NZ,New Zealand,country,East Asia and Pacific,-40.900557,174.885971,10990.9553522264,1989,6,0,0,0,0,0,0,0,0,0,0,0,0,6,0,0,0,0,0,0,0,0,0,0
PH,Philippines,country,East Asia and Pacific,12.879721,121.774017,NZ,New Zealand,country,East Asia and Pacific,-40.900557,174.885971,8099.85217465175,1989,7338,8,0,0,0,0,666,0,6563,7,0,0,0,37,45,12,0,0,0,0,0,0,0,0
PL,Poland,country,Europe and Central Asia,51.919438,19.145136,NZ,New Zealand,country,East Asia and Pacific,-40.900557,174.885971,17824.3212390698,1989,8,0,0,0,0,0,0,0,0,0,0,0,8,0,0,0,0,0,0,0,0,0,0,0
PT,Portugal,country,Europe and Central Asia,39.399872,-8.224454,NZ,New Zealand,country,East Asia and Pacific,-40.900557,174.885971,19724.5669567711,1989,374,0,0,0,0,0,0,85,9,0,0,0,0,8,0,272,0,0,0,0,0,0,0,0
PR,Puerto Rico,country,Latin America and the Caribbean,18.220833,-66.590149,NZ,New Zealand,country,East Asia and Pacific,-40.900557,174.885971,13714.5736655495,1989,198,0,0,0,0,0,0,0,0,0,0,0,0,198,0,0,0,0,0,0,0,0,0,0
KR,"Korea, Rep.",country,East Asia and Pacific,35.907757,127.766922,NZ,New Zealand,country,East Asia and Pacific,-40.900557,174.885971,9810.81970612616,1989,164,5,0,38,0,0,0,5,0,68,0,0,0,48,0,0,0,0,0,0,0,0,0,0
RO,Romania,country,Europe and Central Asia,45.943161,24.96676,NZ,New Zealand,country,East Asia and Pacific,-40.900557,174.885971,17557.3128405345,1989,12,0,0,0,0,0,0,0,0,0,2,0,0,0,0,10,0,0,0,0,0,0,0,0
WS,Samoa,country,East Asia and Pacific,-13.759029,-172.104629,NZ,New Zealand,country,East Asia and Pacific,-40.900557,174.885971,3275.06524040985,1989,2173,0,0,0,0,0,448,51,39,0,0,634,2,438,561,0,0,0,0,0,0,0,0,0
SL,Sierra Leone,country,Sub-Saharan Africa,8.460555,-11.779889,NZ,New Zealand,country,East Asia and Pacific,-40.900557,174.885971,16366.6492806756,1989,12,0,0,0,0,0,0,12,0,0,0,0,0,0,0,0,0,0,0,0,0,0,0,0
SG,Singapore,country,East Asia and Pacific,1.352083,103.819836,NZ,New Zealand,country,East Asia and Pacific,-40.900557,174.885971,8540.2553979967,1989,3354,53,0,0,4,0,99,2,3,0,38,0,2083,564,478,28,0,2,0,0,0,0,0,0
SB,Solomon Islands,country,East Asia and Pacific,-9.64571,160.156194,NZ,New Zealand,country,East Asia and Pacific,-40.900557,174.885971,3769.5373353219,1989,15,0,0,0,0,0,15,0,0,0,0,0,0,0,0,0,0,0,0,0,0,0,0,0
ES,Spain,country,Europe and Central Asia,40.463667,-3.74922,NZ,New Zealand,country,East Asia and Pacific,-40.900557,174.885971,19912.4518342504,1989,1838,0,0,92,0,11,63,135,1065,0,13,0,101,13,92,253,0,0,0,0,0,0,0,0
LK,Sri Lanka,country,South Asia,7.873054,80.771797,NZ,New Zealand,country,East Asia and Pacific,-40.900557,174.885971,10936.5626349214,1989,752,0,0,0,0,1,0,24,0,0,52,0,553,122,0,0,0,0,0,0,0,0,0,0
SD,Sudan,country,Sub-Saharan Africa,12.862807,30.217636,NZ,New Zealand,country,East Asia and Pacific,-40.900557,174.885971,15398.1706633699,1989,1,0,0,0,0,0,0,0,0,0,0,0,0,1,0,0,0,0,0,0,0,0,0,0
SZ,Swaziland,country,Sub-Saharan Africa,-26.522503,31.465866,NZ,New Zealand,country,East Asia and Pacific,-40.900557,174.885971,11635.0637713506,1989,0,0,0,0,0,0,0,0,0,0,0,0,0,0,0,0,0,0,0,0,0,0,0,0
SE,Sweden,country,Europe and Central Asia,60.128161,18.643501,NZ,New Zealand,country,East Asia and Pacific,-40.900557,174.885971,17346.6289722826,1989,45,9,0,0,0,0,0,0,0,0,0,0,0,10,0,26,0,0,0,0,0,0,0,0
CH,Switzerland,country,Europe and Central Asia,46.818188,8.227512,NZ,New Zealand,country,East Asia and Pacific,-40.900557,174.885971,18782.7649603474,1989,191,0,0,5,0,7,0,5,15,0,0,0,125,11,22,0,0,0,1,0,0,0,0,0
TH,Thailand,country,East Asia and Pacific,15.870032,100.992541,NZ,New Zealand,country,East Asia and Pacific,-40.900557,174.885971,9874.25556631662,1989,22929,1118,121,19979,8,1,7,387,743,2,0,0,13,210,16,11,0,0,313,0,0,0,0,0
TO,Tonga,country,East Asia and Pacific,-21.178986,-175.198242,NZ,New Zealand,country,East Asia and Pacific,-40.900557,174.885971,2386.43805419347,1989,775,0,0,0,53,0,80,0,54,0,0,0,0,0,588,0,0,0,0,0,0,0,0,0
TR,Turkey,country,Europe and Central Asia,38.963745,35.243322,NZ,New Zealand,country,East Asia and Pacific,-40.900557,174.885971,16616.4394144971,1989,1675,3,0,16,12,45,1,2,1596,0,0,0,0,0,0,0,0,0,0,0,0,0,0,0
GB,United Kingdom,country,Europe and Central Asia,55.378051,-3.435973,NZ,New Zealand,country,East Asia and Pacific,-40.900557,174.885971,18421.1892053959,1989,2856,236,0,295,79,0,47,59,190,222,6,0,218,317,60,1101,0,0,26,0,0,0,0,0
TZ,Tanzania,country,Sub-Saharan Africa,-6.369028,34.888822,NZ,New Zealand,country,East Asia and Pacific,-40.900557,174.885971,13378.8503298,1989,12,0,0,0,0,0,0,0,0,0,0,0,12,0,0,0,0,0,0,0,0,0,0,0
US,USA,country,North America,37.09024,-95.712891,NZ,New Zealand,country,East Asia and Pacific,-40.900557,174.885971,12564.0565528273,1989,72829,56925,9,538,1626,1282,994,300,8197,0,0,476,113,969,1006,364,0,21,7,2,0,0,0,0
RU,Russian Federation,country,Europe and Central Asia,61.52401,105.318756,NZ,New Zealand,country,East Asia and Pacific,-40.900557,174.885971,12993.8682996691,1989,12,0,0,0,0,0,0,0,0,0,0,0,0,0,0,12,0,0,0,0,0,0,0,0
VN,Vietnam,country,East Asia and Pacific,14.058324,108.277199,NZ,New Zealand,country,East Asia and Pacific,-40.900557,174.885971,9174.08799999238,1989,41,0,0,0,0,0,18,0,0,0,0,0,23,0,0,0,0,0,0,0,0,0,0,0
BA,Bosnia & Herzegovina,country,Europe and Central Asia,43.915886,17.679076,NZ,New Zealand,country,East Asia and Pacific,-40.900557,174.885971,18140.546641982,1989,18,0,0,18,0,0,0,0,0,0,0,0,0,0,0,0,0,0,0,0,0,0,0,0
ZM,Zambia,country,Sub-Saharan Africa,-13.133897,27.849332,NZ,New Zealand,country,East Asia and Pacific,-40.900557,174.885971,13130.8804829829,1989,47,0,0,0,0,0,0,0,0,0,0,0,0,47,0,0,0,0,0,0,0,0,0,0
ZW,Zimbabwe,country,Sub-Saharan Africa,-19.015438,29.154857,NZ,New Zealand,country,East Asia and Pacific,-40.900557,174.885971,12485.7532968442,1989,464,0,0,0,0,0,0,0,148,0,0,0,19,297,0,0,0,0,0,0,0,0,0,0
AR,Argentina,country,Latin America and the Caribbean,-38.416097,-63.616672,NZ,New Zealand,country,East Asia and Pacific,-40.900557,174.885971,9396.35490511559,1990,12642,0,0,17,56,0,0,0,76,0,0,0,433,129,11916,15,0,0,0,0,0,0,0,0
AU,Australia,country,East Asia and Pacific,-25.274398,133.775136,NZ,New Zealand,country,East Asia and Pacific,-40.900557,174.885971,4162.27214264836,1990,301163,142236,2457,58586,159,80,660,5868,25446,241,69,17339,5526,929,5376,25529,0,8491,808,1363,0,0,0,0
AT,Austria,country,Europe and Central Asia,47.516231,14.550072,NZ,New Zealand,country,East Asia and Pacific,-40.900557,174.885971,18310.6283212618,1990,13,0,0,0,0,0,0,0,0,0,0,3,0,6,0,4,0,0,0,0,0,0,0,0
BD,Bangladesh,country,South Asia,23.684994,90.356331,NZ,New Zealand,country,East Asia and Pacific,-40.900557,174.885971,11283.724065472,1990,28,0,0,0,0,0,0,0,0,0,0,0,28,0,0,0,0,0,0,0,0,0,0,0
BB,Barbados,country,Latin America and the Caribbean,13.193887,-59.543198,NZ,New Zealand,country,East Asia and Pacific,-40.900557,174.885971,13945.702846051,1990,0,0,0,0,0,0,0,0,0,0,0,0,0,0,0,0,0,0,0,0,0,0,0,0
BE,Belgium,country,Europe and Central Asia,50.503887,4.469936,NZ,New Zealand,country,East Asia and Pacific,-40.900557,174.885971,18736.7606707317,1990,2625,15,0,153,0,0,0,0,0,42,0,4,37,1,2336,37,0,0,0,0,0,0,0,0
BM,Bermuda,country,North America,32.321384,-64.75737,NZ,New Zealand,country,East Asia and Pacific,-40.900557,174.885971,14726.4162756133,1990,0,0,0,0,0,0,0,0,0,0,0,0,0,0,0,0,0,0,0,0,0,0,0,0
BR,Brazil,country,Latin America and the Caribbean,-14.235004,-51.92528,NZ,New Zealand,country,East Asia and Pacific,-40.900557,174.885971,12234.2778670789,1990,1998,0,0,343,0,53,0,2,466,21,0,33,367,664,46,3,0,0,0,0,0,0,0,0
BG,Bulgaria,country,Europe and Central Asia,42.733883,25.48583,NZ,New Zealand,country,East Asia and Pacific,-40.900557,174.885971,17504.5714485223,1990,158,0,0,0,0,0,0,0,0,0,14,0,0,0,0,144,0,0,0,0,0,0,0,0
CA,Canada,country,North America,56.130366,-106.346771,NZ,New Zealand,country,East Asia and Pacific,-40.900557,174.885971,13078.8822655872,1990,2220,86,221,17,547,0,101,56,40,0,0,0,10,20,51,113,0,953,5,0,0,0,0,0
KY,Cayman Islands,country,Latin America and the Caribbean,19.513469,-80.566956,NZ,New Zealand,country,East Asia and Pacific,-40.900557,174.885971,12627.1217964497,1990,101,0,0,0,0,0,0,0,50,0,0,0,51,0,0,0,0,0,0,0,0,0,0,0
CL,Chile,country,Latin America and the Caribbean,-35.675147,-71.542969,NZ,New Zealand,country,East Asia and Pacific,-40.900557,174.885971,9146.62956844645,1990,2509,0,0,138,0,0,0,1,2238,0,0,0,4,0,0,128,0,0,0,0,0,0,0,0
HK,Hong Kong,country,East Asia and Pacific,22.396428,114.109497,NZ,New Zealand,country,East Asia and Pacific,-40.900557,174.885971,9432.9557257228,1990,1629,69,102,17,53,110,375,31,16,121,0,0,206,35,28,444,0,22,0,0,0,0,0,0
MO,"Macao SAR, China",country,East Asia and Pacific,22.198745,113.543873,NZ,New Zealand,country,East Asia and Pacific,-40.900557,174.885971,9455.19532567535,1990,0,0,0,0,0,0,0,0,0,0,0,0,0,0,0,0,0,0,0,0,0,0,0,0
CN,China,country,East Asia and Pacific,35.86166,104.195397,NZ,New Zealand,country,East Asia and Pacific,-40.900557,174.885971,11179.691715032,1990,7540,577,1,18,58,361,3432,366,736,22,42,0,1620,127,104,29,0,47,0,0,0,0,0,0
TW,Taiwan,country,East Asia and Pacific,23.69781,120.960515,NZ,New Zealand,country,East Asia and Pacific,-40.900557,174.885971,9094.58432340962,1990,277,51,0,50,0,0,4,89,22,10,3,0,0,4,44,0,0,0,0,0,0,0,0,0
CO,Colombia,country,Latin America and the Caribbean,4.570868,-74.297333,NZ,New Zealand,country,East Asia and Pacific,-40.900557,174.885971,12095.8733055889,1990,176,0,0,0,0,0,30,0,0,0,0,0,146,0,0,0,0,0,0,0,0,0,0,0
CK,Cook Islands,country,East Asia and Pacific,-21.236736,-159.777671,NZ,New Zealand,country,East Asia and Pacific,-40.900557,174.885971,3237.50614341193,1990,580,0,0,0,0,0,0,108,470,0,0,0,0,0,0,0,0,0,2,0,0,0,0,0
CR,Costa Rica,country,Latin America and the Caribbean,9.748917,-83.753428,NZ,New Zealand,country,East Asia and Pacific,-40.900557,174.885971,11680.5525259308,1990,63,0,0,0,0,0,0,0,0,0,0,0,63,0,0,0,0,0,0,0,0,0,0,0
CU,Cuba,country,Latin America and the Caribbean,21.521757,-77.781167,NZ,New Zealand,country,East Asia and Pacific,-40.900557,174.885971,12993.5688041845,1990,0,0,0,0,0,0,0,0,0,0,0,0,0,0,0,0,0,0,0,0,0,0,0,0
CY,Cyprus,country,Europe and Central Asia,35.126413,33.429859,NZ,New Zealand,country,East Asia and Pacific,-40.900557,174.885971,16624.8543183993,1990,44,0,0,0,0,0,0,3,0,0,0,0,0,9,32,0,0,0,0,0,0,0,0,0
CZ,Czech Republic,country,Europe and Central Asia,49.817492,15.472962,NZ,New Zealand,country,East Asia and Pacific,-40.900557,174.885971,18155.249643041,1990,14,0,0,0,0,0,0,0,0,0,0,0,0,0,0,14,0,0,0,0,0,0,0,0
DK,Denmark,country,Europe and Central Asia,56.26392,9.501785,NZ,New Zealand,country,East Asia and Pacific,-40.900557,174.885971,18026.0204362707,1990,898,37,0,9,0,0,0,0,0,0,16,0,19,47,0,594,0,81,95,0,0,0,0,0
DO,Dominican Republic,country,Latin America and the Caribbean,18.735693,-70.162651,NZ,New Zealand,country,East Asia and Pacific,-40.900557,174.885971,13449.0403569063,1990,0,0,0,0,0,0,0,0,0,0,0,0,0,0,0,0,0,0,0,0,0,0,0,0
EC,Ecuador,country,Latin America and the Caribbean,-1.831239,-78.183406,NZ,New Zealand,country,East Asia and Pacific,-40.900557,174.885971,11297.0383583639,1990,51638,0,0,0,0,0,0,0,51422,0,0,0,216,0,0,0,0,0,0,0,0,0,0,0
EG,Egypt,country,Middle East and North Africa,26.820553,30.802498,NZ,New Zealand,country,East Asia and Pacific,-40.900557,174.885971,16399.7029091802,1990,45,43,0,0,0,0,0,0,0,0,0,0,0,2,0,0,0,0,0,0,0,0,0,0
ET,Ethiopia,country,Sub-Saharan Africa,9.145,40.489673,NZ,New Zealand,country,East Asia and Pacific,-40.900557,174.885971,14334.184766532,1990,5,0,0,0,0,0,0,0,0,0,0,0,5,0,0,0,0,0,0,0,0,0,0,0
FJ,Fiji,country,East Asia and Pacific,-16.578193,179.414413,NZ,New Zealand,country,East Asia and Pacific,-40.900557,174.885971,2742.36387410259,1990,41399,303,2,39288,0,0,25,156,87,0,200,29,10,7,1164,111,0,17,0,0,0,0,0,0
FI,Finland,country,Europe and Central Asia,61.92411,25.748151,NZ,New Zealand,country,East Asia and Pacific,-40.900557,174.885971,16922.1260128795,1990,28,23,0,0,0,0,0,0,0,0,0,0,0,0,0,5,0,0,0,0,0,0,0,0
FR,France,country,Europe and Central Asia,46.227638,2.213749,NZ,New Zealand,country,East Asia and Pacific,-40.900557,174.885971,19200.9265063066,1990,2216,2,0,217,6,0,20,1,5,2,3,16,6,64,5,1831,0,0,38,0,0,0,0,0
PF,French Polynesia,country,East Asia and Pacific,-17.679742,-149.406843,NZ,New Zealand,country,East Asia and Pacific,-40.900557,174.885971,4275.5063389946,1990,71,0,0,0,0,0,0,0,42,0,0,0,0,0,29,0,0,0,0,0,0,0,0,0
GH,Ghana,country,Sub-Saharan Africa,7.946527,-1.023194,NZ,New Zealand,country,East Asia and Pacific,-40.900557,174.885971,16346.7796240982,1990,38,0,0,0,0,0,0,0,0,0,0,0,38,0,0,0,0,0,0,0,0,0,0,0
GR,Greece,country,Europe and Central Asia,39.074208,21.824312,NZ,New Zealand,country,East Asia and Pacific,-40.900557,174.885971,17740.0326256701,1990,649,0,0,0,0,0,58,0,590,0,0,0,0,0,1,0,0,0,0,0,0,0,0,0
GT,Guatemala,country,Latin America and the Caribbean,15.783471,-90.230759,NZ,New Zealand,country,East Asia and Pacific,-40.900557,174.885971,11564.6594723362,1990,12,0,0,0,0,0,0,0,0,0,0,0,12,0,0,0,0,0,0,0,0,0,0,0
HN,Honduras,country,Latin America and the Caribbean,15.199999,-86.241905,NZ,New Zealand,country,East Asia and Pacific,-40.900557,174.885971,11856.5131484343,1990,21,0,0,0,0,0,0,0,0,0,4,0,17,0,0,0,0,0,0,0,0,0,0,0
HU,Hungary,country,Europe and Central Asia,47.162494,19.503304,NZ,New Zealand,country,East Asia and Pacific,-40.900557,174.885971,17958.0937861549,1990,541,0,0,0,0,0,0,433,56,0,11,0,9,0,0,32,0,0,0,0,0,0,0,0
IN,India,country,South Asia,20.593684,78.96288,NZ,New Zealand,country,East Asia and Pacific,-40.900557,174.885971,11984.2976921897,1990,2624,84,0,5,22,225,350,56,17,9,79,674,861,135,107,0,0,0,0,0,0,0,0,0
ID,Indonesia,country,East Asia and Pacific,-0.789275,113.921327,NZ,New Zealand,country,East Asia and Pacific,-40.900557,174.885971,7561.27854515998,1990,5884,11,0,1111,0,13,11,0,0,16,24,0,4023,417,237,21,0,0,0,0,0,0,0,0
IR,Iran,country,Middle East and North Africa,32.427908,53.688046,NZ,New Zealand,country,East Asia and Pacific,-40.900557,174.885971,14801.7992409038,1990,196,0,0,0,0,2,0,0,189,0,5,0,0,0,0,0,0,0,0,0,0,0,0,0
IE,Ireland,country,Europe and Central Asia,53.41291,-8.24389,NZ,New Zealand,country,East Asia and Pacific,-40.900557,174.885971,18624.9919137641,1990,568,0,0,83,0,0,0,0,0,0,0,0,0,15,0,470,0,0,0,0,0,0,0,0
IL,Israel,country,Middle East and North Africa,31.046051,34.851612,NZ,New Zealand,country,East Asia and Pacific,-40.900557,174.885971,16309.5261752265,1990,12,0,0,0,0,0,4,0,3,0,0,0,4,0,0,1,0,0,0,0,0,0,0,0
IT,Italy,country,Europe and Central Asia,41.87194,12.56738,NZ,New Zealand,country,East Asia and Pacific,-40.900557,174.885971,18559.4352153087,1990,2042,144,0,25,0,25,10,480,335,0,2,0,57,19,212,730,0,0,3,0,0,0,0,0
JM,Jamaica,country,Latin America and the Caribbean,18.109581,-77.297508,NZ,New Zealand,country,East Asia and Pacific,-40.900557,174.885971,12806.7458218431,1990,601,0,0,0,0,0,0,0,16,0,10,0,0,0,0,575,0,0,0,0,0,0,0,0
JP,Japan,country,East Asia and Pacific,36.204824,138.252924,NZ,New Zealand,country,East Asia and Pacific,-40.900557,174.885971,9362.64636961408,1990,2270,54,0,454,0,0,66,11,11,23,0,0,1496,55,2,98,0,0,0,0,0,0,0,0
KE,Kenya,country,Sub-Saharan Africa,-0.023559,37.906193,NZ,New Zealand,country,East Asia and Pacific,-40.900557,174.885971,13751.0427397015,1990,343,0,0,0,0,0,0,0,0,0,0,0,343,0,0,0,0,0,0,0,0,0,0,0
MG,Madagascar,country,Sub-Saharan Africa,-18.766947,46.869107,NZ,New Zealand,country,East Asia and Pacific,-40.900557,174.885971,11499.8066796815,1990,8,0,0,0,0,0,0,0,0,0,8,0,0,0,0,0,0,0,0,0,0,0,0,0
MW,Malawi,country,Sub-Saharan Africa,-13.254308,34.301525,NZ,New Zealand,country,East Asia and Pacific,-40.900557,174.885971,12771.1520475471,1990,203,0,0,0,4,0,0,0,0,0,0,0,0,199,0,0,0,0,0,0,0,0,0,0
MY,Malaysia,country,East Asia and Pacific,4.210484,101.975766,NZ,New Zealand,country,East Asia and Pacific,-40.900557,174.885971,8906.84726377256,1990,41372,47,0,15831,0,0,408,9,155,0,194,780,345,2981,20579,2,0,2,39,0,0,0,0,0
MU,Mauritius,country,Sub-Saharan Africa,-20.348404,57.552152,NZ,New Zealand,country,East Asia and Pacific,-40.900557,174.885971,10643.1034141026,1990,276,0,0,266,0,0,0,0,0,0,0,0,10,0,0,0,0,0,0,0,0,0,0,0
MX,Mexico,country,Latin America and the Caribbean,23.634501,-102.552784,NZ,New Zealand,country,East Asia and Pacific,-40.900557,174.885971,11126.7175692642,1990,952,0,0,0,36,1,114,0,317,0,0,0,0,8,0,476,0,0,0,0,0,0,0,0
MA,Morocco,country,Middle East and North Africa,31.791702,-7.09262,NZ,New Zealand,country,East Asia and Pacific,-40.900557,174.885971,19008.1982180734,1990,18,0,0,0,0,0,0,0,0,0,0,0,0,18,0,0,0,0,0,0,0,0,0,0
NL,Netherlands,country,Europe and Central Asia,52.132633,5.291266,NZ,New Zealand,country,East Asia and Pacific,-40.900557,174.885971,18557.9955703276,1990,3743,93,55,87,4,0,4,114,16,12,2,0,552,349,2021,378,0,31,25,0,0,0,0,0
NI,Nicaragua,country,Latin America and the Caribbean,12.865416,-85.207229,NZ,New Zealand,country,East Asia and Pacific,-40.900557,174.885971,11779.4781618257,1990,2,0,0,0,0,0,0,0,0,0,0,0,2,0,0,0,0,0,0,0,0,0,0,0
NU,Niue,country,East Asia and Pacific,-19.054445,-169.867233,NZ,New Zealand,country,East Asia and Pacific,-40.900557,174.885971,2831.90213110697,1990,8,0,0,8,0,0,0,0,0,0,0,0,0,0,0,0,0,0,0,0,0,0,0,0
NO,Norway,country,Europe and Central Asia,60.472024,8.468946,NZ,New Zealand,country,East Asia and Pacific,-40.900557,174.885971,17668.408105188,1990,19,9,0,0,0,0,0,0,0,0,0,0,0,7,0,0,0,0,3,0,0,0,0,0
PK,Pakistan,country,South Asia,30.375321,69.345116,NZ,New Zealand,country,East Asia and Pacific,-40.900557,174.885971,13401.0918718991,1990,309,1,0,0,0,0,0,0,226,21,0,0,0,61,0,0,0,0,0,0,0,0,0,0
PG,Papua New Guinea,country,East Asia and Pacific,-6.314993,143.95555,NZ,New Zealand,country,East Asia and Pacific,-40.900557,174.885971,4924.58692523464,1990,2161,0,0,0,0,0,20,0,0,0,5,0,2136,0,0,0,0,0,0,0,0,0,0,0
PE,Peru,country,Latin America and the Caribbean,-9.189967,-75.015152,NZ,New Zealand,country,East Asia and Pacific,-40.900557,174.885971,10990.9553522264,1990,8,0,0,0,0,0,0,0,0,0,0,0,0,8,0,0,0,0,0,0,0,0,0,0
PH,Philippines,country,East Asia and Pacific,12.879721,121.774017,NZ,New Zealand,country,East Asia and Pacific,-40.900557,174.885971,8099.85217465175,1990,3045,3,0,0,0,5,803,0,1862,34,0,0,15,80,53,190,0,0,0,0,0,0,0,0
PL,Poland,country,Europe and Central Asia,51.919438,19.145136,NZ,New Zealand,country,East Asia and Pacific,-40.900557,174.885971,17824.3212390698,1990,23,0,0,0,0,0,0,0,0,0,0,0,23,0,0,0,0,0,0,0,0,0,0,0
PT,Portugal,country,Europe and Central Asia,39.399872,-8.224454,NZ,New Zealand,country,East Asia and Pacific,-40.900557,174.885971,19724.5669567711,1990,555,0,0,28,0,0,0,69,11,0,0,0,0,13,0,434,0,0,0,0,0,0,0,0
PR,Puerto Rico,country,Latin America and the Caribbean,18.220833,-66.590149,NZ,New Zealand,country,East Asia and Pacific,-40.900557,174.885971,13714.5736655495,1990,0,0,0,0,0,0,0,0,0,0,0,0,0,0,0,0,0,0,0,0,0,0,0,0
KR,"Korea, Rep.",country,East Asia and Pacific,35.907757,127.766922,NZ,New Zealand,country,East Asia and Pacific,-40.900557,174.885971,9810.81970612616,1990,419,71,0,38,0,0,0,2,43,25,0,0,0,240,0,0,0,0,0,0,0,0,0,0
RO,Romania,country,Europe and Central Asia,45.943161,24.96676,NZ,New Zealand,country,East Asia and Pacific,-40.900557,174.885971,17557.3128405345,1990,15,0,0,0,0,0,0,0,0,0,1,0,0,0,0,14,0,0,0,0,0,0,0,0
WS,Samoa,country,East Asia and Pacific,-13.759029,-172.104629,NZ,New Zealand,country,East Asia and Pacific,-40.900557,174.885971,3275.06524040985,1990,3042,0,0,0,0,0,498,0,28,0,0,1109,0,0,1403,0,0,4,0,0,0,0,0,0
SG,Singapore,country,East Asia and Pacific,1.352083,103.819836,NZ,New Zealand,country,East Asia and Pacific,-40.900557,174.885971,8540.2553979967,1990,9171,35,0,2201,10,34,440,2,5,0,40,0,4829,613,895,46,0,0,21,0,0,0,0,0
SB,Solomon Islands,country,East Asia and Pacific,-9.64571,160.156194,NZ,New Zealand,country,East Asia and Pacific,-40.900557,174.885971,3769.5373353219,1990,206,20,0,0,0,0,158,0,0,0,0,0,28,0,0,0,0,0,0,0,0,0,0,0
ES,Spain,country,Europe and Central Asia,40.463667,-3.74922,NZ,New Zealand,country,East Asia and Pacific,-40.900557,174.885971,19912.4518342504,1990,1903,0,0,70,0,0,105,156,926,0,19,0,117,32,140,338,0,0,0,0,0,0,0,0
LK,Sri Lanka,country,South Asia,7.873054,80.771797,NZ,New Zealand,country,East Asia and Pacific,-40.900557,174.885971,10936.5626349214,1990,1327,11,0,0,0,6,348,114,1,0,88,0,667,92,0,0,0,0,0,0,0,0,0,0
SD,Sudan,country,Sub-Saharan Africa,12.862807,30.217636,NZ,New Zealand,country,East Asia and Pacific,-40.900557,174.885971,15398.1706633699,1990,0,0,0,0,0,0,0,0,0,0,0,0,0,0,0,0,0,0,0,0,0,0,0,0
SZ,Swaziland,country,Sub-Saharan Africa,-26.522503,31.465866,NZ,New Zealand,country,East Asia and Pacific,-40.900557,174.885971,11635.0637713506,1990,0,0,0,0,0,0,0,0,0,0,0,0,0,0,0,0,0,0,0,0,0,0,0,0
SE,Sweden,country,Europe and Central Asia,60.128161,18.643501,NZ,New Zealand,country,East Asia and Pacific,-40.900557,174.885971,17346.6289722826,1990,79,6,0,0,0,0,0,0,0,0,0,0,9,2,4,58,0,0,0,0,0,0,0,0
CH,Switzerland,country,Europe and Central Asia,46.818188,8.227512,NZ,New Zealand,country,East Asia and Pacific,-40.900557,174.885971,18782.7649603474,1990,506,0,0,30,0,61,6,31,40,0,0,0,245,18,32,43,0,0,0,0,0,0,0,0
TH,Thailand,country,East Asia and Pacific,15.870032,100.992541,NZ,New Zealand,country,East Asia and Pacific,-40.900557,174.885971,9874.25556631662,1990,27149,2835,4,19903,45,2,92,871,2220,0,1,0,0,461,77,23,0,0,614,1,0,0,0,0
TO,Tonga,country,East Asia and Pacific,-21.178986,-175.198242,NZ,New Zealand,country,East Asia and Pacific,-40.900557,174.885971,2386.43805419347,1990,1990,5,0,0,0,0,231,357,370,0,0,89,0,0,938,0,0,0,0,0,0,0,0,0
TT,Trinidad and Tobago,country,Latin America and the Caribbean,10.691803,-61.222503,NZ,New Zealand,country,East Asia and Pacific,-40.900557,174.885971,13624.0414285173,1990,0,0,0,0,0,0,0,0,0,0,0,0,0,0,0,0,0,0,0,0,0,0,0,0
TR,Turkey,country,Europe and Central Asia,38.963745,35.243322,NZ,New Zealand,country,East Asia and Pacific,-40.900557,174.885971,16616.4394144971,1990,2013,0,0,13,7,38,5,0,1922,0,0,0,0,28,0,0,0,0,0,0,0,0,0,0
GB,United Kingdom,country,Europe and Central Asia,55.378051,-3.435973,NZ,New Zealand,country,East Asia and Pacific,-40.900557,174.885971,18421.1892053959,1990,4110,901,0,497,0,3,58,121,181,270,10,32,304,231,93,1360,0,2,47,0,0,0,0,0
TZ,Tanzania,country,Sub-Saharan Africa,-6.369028,34.888822,NZ,New Zealand,country,East Asia and Pacific,-40.900557,174.885971,13378.8503298,1990,35,0,0,0,0,0,0,0,0,0,0,0,6,29,0,0,0,0,0,0,0,0,0,0
US,USA,country,North America,37.09024,-95.712891,NZ,New Zealand,country,East Asia and Pacific,-40.900557,174.885971,12564.0565528273,1990,103548,78417,123,1289,1534,1138,1859,510,12768,0,0,322,258,1827,2368,784,0,13,338,0,0,0,0,0
RU,Russian Federation,country,Europe and Central Asia,61.52401,105.318756,NZ,New Zealand,country,East Asia and Pacific,-40.900557,174.885971,12993.8682996691,1990,6,0,0,0,0,0,0,0,0,0,0,0,0,0,0,6,0,0,0,0,0,0,0,0
VU,Vanuatu,country,East Asia and Pacific,-15.376706,166.959158,NZ,New Zealand,country,East Asia and Pacific,-40.900557,174.885971,2942.69568630398,1990,2,0,0,0,0,0,0,0,0,0,0,0,2,0,0,0,0,0,0,0,0,0,0,0
VN,Vietnam,country,East Asia and Pacific,14.058324,108.277199,NZ,New Zealand,country,East Asia and Pacific,-40.900557,174.885971,9174.08799999238,1990,114,0,0,0,0,0,52,0,1,0,0,0,61,0,0,0,0,0,0,0,0,0,0,0
BA,Bosnia & Herzegovina,country,Europe and Central Asia,43.915886,17.679076,NZ,New Zealand,country,East Asia and Pacific,-40.900557,174.885971,18140.546641982,1990,47,0,0,11,0,0,0,0,0,0,2,0,0,0,0,34,0,0,0,0,0,0,0,0
ZM,Zambia,country,Sub-Saharan Africa,-13.133897,27.849332,NZ,New Zealand,country,East Asia and Pacific,-40.900557,174.885971,13130.8804829829,1990,111,0,0,0,0,0,0,0,0,0,0,0,0,111,0,0,0,0,0,0,0,0,0,0
ZW,Zimbabwe,country,Sub-Saharan Africa,-19.015438,29.154857,NZ,New Zealand,country,East Asia and Pacific,-40.900557,174.885971,12485.7532968442,1990,654,0,0,0,0,0,34,0,0,0,0,0,0,620,0,0,0,0,0,0,0,0,0,0
AR,Argentina,country,Latin America and the Caribbean,-38.416097,-63.616672,NZ,New Zealand,country,East Asia and Pacific,-40.900557,174.885971,9396.35490511559,1991,12799,70,0,43,0,0,341,0,14,0,0,0,702,134,11489,6,0,0,0,0,0,0,0,0
AU,Australia,country,East Asia and Pacific,-25.274398,133.775136,NZ,New Zealand,country,East Asia and Pacific,-40.900557,174.885971,4162.27214264836,1991,390248,167362,1863,126246,208,72,545,7996,23650,470,74,18079,5713,696,3016,24855,0,7370,897,1136,0,0,0,0
AT,Austria,country,Europe and Central Asia,47.516231,14.550072,NZ,New Zealand,country,East Asia and Pacific,-40.900557,174.885971,18310.6283212618,1991,8,0,0,0,0,0,0,0,0,0,0,0,0,0,0,0,0,0,8,0,0,0,0,0
BB,Barbados,country,Latin America and the Caribbean,13.193887,-59.543198,NZ,New Zealand,country,East Asia and Pacific,-40.900557,174.885971,13945.702846051,1991,0,0,0,0,0,0,0,0,0,0,0,0,0,0,0,0,0,0,0,0,0,0,0,0
BE,Belgium,country,Europe and Central Asia,50.503887,4.469936,NZ,New Zealand,country,East Asia and Pacific,-40.900557,174.885971,18736.7606707317,1991,464,2,0,26,0,0,0,18,2,2,0,0,37,6,319,52,0,0,0,0,0,0,0,0
BM,Bermuda,country,North America,32.321384,-64.75737,NZ,New Zealand,country,East Asia and Pacific,-40.900557,174.885971,14726.4162756133,1991,47,0,0,0,0,0,0,0,0,0,0,0,0,0,0,47,0,0,0,0,0,0,0,0
BR,Brazil,country,Latin America and the Caribbean,-14.235004,-51.92528,NZ,New Zealand,country,East Asia and Pacific,-40.900557,174.885971,12234.2778670789,1991,4407,0,0,511,0,8,18,0,2881,0,0,30,287,670,2,0,0,0,0,0,0,0,0,0
VG,British Virgin Islands,country,Latin America and the Caribbean,18.420695,-64.639968,NZ,New Zealand,country,East Asia and Pacific,-40.900557,174.885971,13891.6399437239,1991,4,0,0,0,0,0,0,0,0,0,0,0,0,0,0,4,0,0,0,0,0,0,0,0
BG,Bulgaria,country,Europe and Central Asia,42.733883,25.48583,NZ,New Zealand,country,East Asia and Pacific,-40.900557,174.885971,17504.5714485223,1991,23,0,0,0,0,0,0,10,0,0,4,0,0,0,0,9,0,0,0,0,0,0,0,0
CA,Canada,country,North America,56.130366,-106.346771,NZ,New Zealand,country,East Asia and Pacific,-40.900557,174.885971,13078.8822655872,1991,7451,4702,230,59,1391,0,81,102,31,0,0,0,11,10,106,65,0,662,1,0,0,0,0,0
KY,Cayman Islands,country,Latin America and the Caribbean,19.513469,-80.566956,NZ,New Zealand,country,East Asia and Pacific,-40.900557,174.885971,12627.1217964497,1991,52,0,0,0,0,0,0,0,0,0,0,0,52,0,0,0,0,0,0,0,0,0,0,0
CL,Chile,country,Latin America and the Caribbean,-35.675147,-71.542969,NZ,New Zealand,country,East Asia and Pacific,-40.900557,174.885971,9146.62956844645,1991,2381,8,0,342,1,0,24,146,1796,0,0,0,34,0,0,30,0,0,0,0,0,0,0,0
HK,Hong Kong,country,East Asia and Pacific,22.396428,114.109497,NZ,New Zealand,country,East Asia and Pacific,-40.900557,174.885971,9432.9557257228,1991,1843,87,46,28,18,80,665,40,14,143,0,0,178,26,49,452,0,17,0,0,0,0,0,0
CN,China,country,East Asia and Pacific,35.86166,104.195397,NZ,New Zealand,country,East Asia and Pacific,-40.900557,174.885971,11179.691715032,1991,7970,391,14,22,72,143,4148,243,626,20,49,0,1929,164,49,41,0,59,0,0,0,0,0,0
TW,Taiwan,country,East Asia and Pacific,23.69781,120.960515,NZ,New Zealand,country,East Asia and Pacific,-40.900557,174.885971,9094.58432340962,1991,254,23,0,4,1,0,10,56,25,14,8,0,0,101,4,8,0,0,0,0,0,0,0,0
CO,Colombia,country,Latin America and the Caribbean,4.570868,-74.297333,NZ,New Zealand,country,East Asia and Pacific,-40.900557,174.885971,12095.8733055889,1991,98,0,0,0,0,0,0,0,0,0,4,0,94,0,0,0,0,0,0,0,0,0,0,0
CK,Cook Islands,country,East Asia and Pacific,-21.236736,-159.777671,NZ,New Zealand,country,East Asia and Pacific,-40.900557,174.885971,3237.50614341193,1991,1113,0,171,0,0,0,0,47,894,0,0,0,1,0,0,0,0,0,0,0,0,0,0,0
CR,Costa Rica,country,Latin America and the Caribbean,9.748917,-83.753428,NZ,New Zealand,country,East Asia and Pacific,-40.900557,174.885971,11680.5525259308,1991,53,0,0,0,0,0,0,0,0,0,0,0,53,0,0,0,0,0,0,0,0,0,0,0
CU,Cuba,country,Latin America and the Caribbean,21.521757,-77.781167,NZ,New Zealand,country,East Asia and Pacific,-40.900557,174.885971,12993.5688041845,1991,37881,0,0,37881,0,0,0,0,0,0,0,0,0,0,0,0,0,0,0,0,0,0,0,0
CY,Cyprus,country,Europe and Central Asia,35.126413,33.429859,NZ,New Zealand,country,East Asia and Pacific,-40.900557,174.885971,16624.8543183993,1991,8,0,0,0,0,0,0,0,0,0,1,0,0,7,0,0,0,0,0,0,0,0,0,0
CZ,Czech Republic,country,Europe and Central Asia,49.817492,15.472962,NZ,New Zealand,country,East Asia and Pacific,-40.900557,174.885971,18155.249643041,1991,21,0,0,4,0,0,0,0,0,0,0,0,7,0,0,10,0,0,0,0,0,0,0,0
DK,Denmark,country,Europe and Central Asia,56.26392,9.501785,NZ,New Zealand,country,East Asia and Pacific,-40.900557,174.885971,18026.0204362707,1991,612,77,0,13,0,0,0,0,0,0,0,0,22,81,0,276,0,22,121,0,0,0,0,0
DO,Dominican Republic,country,Latin America and the Caribbean,18.735693,-70.162651,NZ,New Zealand,country,East Asia and Pacific,-40.900557,174.885971,13449.0403569063,1991,0,0,0,0,0,0,0,0,0,0,0,0,0,0,0,0,0,0,0,0,0,0,0,0
EC,Ecuador,country,Latin America and the Caribbean,-1.831239,-78.183406,NZ,New Zealand,country,East Asia and Pacific,-40.900557,174.885971,11297.0383583639,1991,51728,0,0,0,0,0,0,0,51422,0,0,0,306,0,0,0,0,0,0,0,0,0,0,0
EG,Egypt,country,Middle East and North Africa,26.820553,30.802498,NZ,New Zealand,country,East Asia and Pacific,-40.900557,174.885971,16399.7029091802,1991,16,0,0,13,0,0,0,0,0,0,0,0,0,3,0,0,0,0,0,0,0,0,0,0
SV,El Salvador,country,Latin America and the Caribbean,13.794185,-88.89653,NZ,New Zealand,country,East Asia and Pacific,-40.900557,174.885971,11535.7981249654,1991,18,0,0,0,0,0,18,0,0,0,0,0,0,0,0,0,0,0,0,0,0,0,0,0
FJ,Fiji,country,East Asia and Pacific,-16.578193,179.414413,NZ,New Zealand,country,East Asia and Pacific,-40.900557,174.885971,2742.36387410259,1991,22257,205,944,19502,1,0,4,314,37,0,207,0,6,11,910,116,0,0,0,0,0,0,0,0
FI,Finland,country,Europe and Central Asia,61.92411,25.748151,NZ,New Zealand,country,East Asia and Pacific,-40.900557,174.885971,16922.1260128795,1991,2,0,0,0,0,0,0,0,0,0,0,0,0,0,0,2,0,0,0,0,0,0,0,0
