sourceCode,sourceName,sourceGrouping,sourceRegion,sourceLat,sourceLong,destCode,destName,destGrouping,destRegion,destLat,destLong,year,totalTons,cereals,roots,sugarCrops,pulses,nuts,oilCrops,vegetables,fruits,fibers,spices,fodderCrops,coffeeTea,tobaccoRubber,oilsFats,beverages,livestock,animalMeats,animalProducts,animalHides,nimalOther,pesticides,fertilizers,machinery
DZ,Algeria,country,Middle East and North Africa,28.033886,1.659626,ES,Spain,country,Europe and Central Asia,40.463667,-3.74922,1986,118,0,0,0,0,0,0,0,118,0,0,0,0,0,0,0,0,0,0,0,0,0,0,0
AR,Argentina,country,Latin America and the Caribbean,-38.416097,-63.616672,ES,Spain,country,Europe and Central Asia,40.463667,-3.74922,1986,214476,20517,0,3319,12289,0,2710,0,128,346,0,169721,145,227,2542,0,0,1269,0,1263,0,0,0,0
AU,Australia,country,East Asia and Pacific,-25.274398,133.775136,ES,Spain,country,Europe and Central Asia,40.463667,-3.74922,1986,31800,1487,0,836,62,0,30,10,13,12901,0,19,0,92,0,0,0,64,77,16209,0,0,0,0
AT,Austria,country,Europe and Central Asia,47.516231,14.550072,ES,Spain,country,Europe and Central Asia,40.463667,-3.74922,1986,8421,8,0,943,2,0,510,1521,4,237,0,60,23,14,4,52,0,581,3430,1032,0,0,0,0
BS,The Bahamas,country,Latin America and the Caribbean,25.03428,-77.39628,ES,Spain,country,Europe and Central Asia,40.463667,-3.74922,1986,5,0,0,0,0,0,0,0,0,0,0,0,0,1,0,4,0,0,0,0,0,0,0,0
BD,Bangladesh,country,South Asia,23.684994,90.356331,ES,Spain,country,Europe and Central Asia,40.463667,-3.74922,1986,26,0,0,0,0,0,0,0,0,0,0,0,26,0,0,0,0,0,0,0,0,0,0,0
BB,Barbados,country,Latin America and the Caribbean,13.193887,-59.543198,ES,Spain,country,Europe and Central Asia,40.463667,-3.74922,1986,36,0,0,0,0,0,0,0,0,0,0,0,0,0,0,0,0,36,0,0,0,0,0,0
BE,Belgium,country,Europe and Central Asia,50.503887,4.469936,ES,Spain,country,Europe and Central Asia,40.463667,-3.74922,1986,40537,286,2706,102,107,0,420,1411,1830,4051,9,5433,576,2299,3970,1227,0,13478,1473,1016,143,0,0,0
BZ,Belize,country,Latin America and the Caribbean,17.189877,-88.49765,ES,Spain,country,Europe and Central Asia,40.463667,-3.74922,1986,6315,0,0,6315,0,0,0,0,0,0,0,0,0,0,0,0,0,0,0,0,0,0,0,0
BR,Brazil,country,Latin America and the Caribbean,-14.235004,-51.92528,ES,Spain,country,Europe and Central Asia,40.463667,-3.74922,1986,274727,0,0,44992,0,225,153340,0,2369,473,181,3936,44128,963,2314,1135,0,20663,8,0,0,0,0,0
CM,Cameroon,country,Sub-Saharan Africa,7.369722,12.354722,ES,Spain,country,Europe and Central Asia,40.463667,-3.74922,1986,4001,0,0,0,0,0,0,0,0,0,0,0,2719,1088,0,0,0,0,0,194,0,0,0,0
CA,Canada,country,North America,56.130366,-106.346771,ES,Spain,country,Europe and Central Asia,40.463667,-3.74922,1986,58710,35163,271,27,6235,0,2567,303,32,18,0,366,0,326,12316,14,7,0,9,1063,0,0,0,0
CL,Chile,country,Latin America and the Caribbean,-35.675147,-71.542969,ES,Spain,country,Europe and Central Asia,40.463667,-3.74922,1986,4398,0,0,56,1096,0,0,469,47,664,37,232,0,1373,0,72,0,232,0,120,0,0,0,0
HK,Hong Kong,country,East Asia and Pacific,22.396428,114.109497,ES,Spain,country,Europe and Central Asia,40.463667,-3.74922,1986,3683,0,0,0,0,0,629,73,0,2062,49,0,217,625,0,0,0,26,0,2,0,0,0,0
TW,Taiwan,country,East Asia and Pacific,23.69781,120.960515,ES,Spain,country,Europe and Central Asia,40.463667,-3.74922,1986,272,29,0,0,3,0,12,151,19,0,0,0,20,27,0,8,0,0,0,3,0,0,0,0
CO,Colombia,country,Latin America and the Caribbean,4.570868,-74.297333,ES,Spain,country,Europe and Central Asia,40.463667,-3.74922,1986,34194,0,0,1,0,0,0,0,10,8469,0,0,20668,5035,0,11,0,0,0,0,0,0,0,0
CR,Costa Rica,country,Latin America and the Caribbean,9.748917,-83.753428,ES,Spain,country,Europe and Central Asia,40.463667,-3.74922,1986,3295,0,0,0,0,0,10,0,1,0,0,0,3235,29,0,0,0,20,0,0,0,0,0,0
CU,Cuba,country,Latin America and the Caribbean,21.521757,-77.781167,ES,Spain,country,Europe and Central Asia,40.463667,-3.74922,1986,7652,0,0,0,0,0,0,0,0,0,0,0,0,7652,0,0,0,0,0,0,0,0,0,0
CY,Cyprus,country,Europe and Central Asia,35.126413,33.429859,ES,Spain,country,Europe and Central Asia,40.463667,-3.74922,1986,275,0,0,0,0,0,0,0,148,0,0,0,0,0,0,0,0,0,0,127,0,0,0,0
DK,Denmark,country,Europe and Central Asia,56.26392,9.501785,ES,Spain,country,Europe and Central Asia,40.463667,-3.74922,1986,18634,1187,51,13,0,0,0,162,14,0,0,1189,31,1589,531,5361,0,5486,2927,93,0,0,0,0
EG,Egypt,country,Middle East and North Africa,26.820553,30.802498,ES,Spain,country,Europe and Central Asia,40.463667,-3.74922,1986,6937,0,0,2100,0,0,0,0,0,4690,48,0,0,99,0,0,0,0,0,0,0,0,0,0
FI,Finland,country,Europe and Central Asia,61.92411,25.748151,ES,Spain,country,Europe and Central Asia,40.463667,-3.74922,1986,4647,62,0,1393,0,0,0,0,0,0,0,0,200,0,73,107,0,1104,1697,11,0,0,0,0
FR,France,country,Europe and Central Asia,46.227638,2.213749,ES,Spain,country,Europe and Central Asia,40.463667,-3.74922,1986,766523,305984,36482,41636,2182,1270,6394,4471,13983,5108,239,41834,2962,5691,53151,11220,4133,19367,197459,17090,0,0,0,0
GR,Greece,country,Europe and Central Asia,39.074208,21.824312,ES,Spain,country,Europe and Central Asia,40.463667,-3.74922,1986,4468,1963,0,1,0,100,0,3,258,1415,0,15,0,487,0,0,0,0,1,225,0,0,0,0
GP,Guadeloupe,country,Latin America and the Caribbean,16.995971,-62.067641,ES,Spain,country,Europe and Central Asia,40.463667,-3.74922,1986,3,0,0,0,0,0,0,0,0,0,0,0,0,3,0,0,0,0,0,0,0,0,0,0
GT,Guatemala,country,Latin America and the Caribbean,15.783471,-90.230759,ES,Spain,country,Europe and Central Asia,40.463667,-3.74922,1986,629,0,0,42,0,0,18,0,16,45,6,0,500,2,0,0,0,0,0,0,0,0,0,0
HN,Honduras,country,Latin America and the Caribbean,15.199999,-86.241905,ES,Spain,country,Europe and Central Asia,40.463667,-3.74922,1986,1784,0,0,0,0,0,16,0,0,478,0,0,1290,0,0,0,0,0,0,0,0,0,0,0
HU,Hungary,country,Europe and Central Asia,47.162494,19.503304,ES,Spain,country,Europe and Central Asia,40.463667,-3.74922,1986,8456,0,0,342,0,0,126,231,31,0,0,7008,0,0,0,0,0,718,0,0,0,0,0,0
IS,Iceland,country,Europe and Central Asia,64.963051,-19.020835,ES,Spain,country,Europe and Central Asia,40.463667,-3.74922,1986,20,0,0,0,0,0,0,0,0,0,0,0,0,0,0,0,0,0,0,20,0,0,0,0
IN,India,country,South Asia,20.593684,78.96288,ES,Spain,country,Europe and Central Asia,40.463667,-3.74922,1986,4515,14,1,0,2,1101,93,81,4,623,338,0,894,1364,0,0,0,0,0,0,0,0,0,0
ID,Indonesia,country,East Asia and Pacific,-0.789275,113.921327,ES,Spain,country,Europe and Central Asia,40.463667,-3.74922,1986,42153,0,0,0,0,0,0,0,134,0,0,0,498,31961,9402,0,0,0,0,158,0,0,0,0
IE,Ireland,country,Europe and Central Asia,53.41291,-8.24389,ES,Spain,country,Europe and Central Asia,40.463667,-3.74922,1986,10142,2836,121,45,23,0,0,0,83,0,0,2,11,3123,0,1860,1,739,343,956,0,0,0,0
IL,Israel,country,Middle East and North Africa,31.046051,34.851612,ES,Spain,country,Europe and Central Asia,40.463667,-3.74922,1986,13518,0,0,0,0,0,3087,191,76,10164,0,0,0,0,0,0,0,0,0,0,0,0,0,0
IT,Italy,country,Europe and Central Asia,41.87194,12.56738,ES,Spain,country,Europe and Central Asia,40.463667,-3.74922,1986,30756,2199,20,235,40,55,8,1141,796,46,1,960,543,8372,11457,315,0,2395,114,2059,0,0,0,0
JM,Jamaica,country,Latin America and the Caribbean,18.109581,-77.297508,ES,Spain,country,Europe and Central Asia,40.463667,-3.74922,1986,41,0,0,0,0,0,0,0,0,0,0,0,0,0,0,41,0,0,0,0,0,0,0,0
JP,Japan,country,East Asia and Pacific,36.204824,138.252924,ES,Spain,country,Europe and Central Asia,40.463667,-3.74922,1986,403,10,45,34,1,0,38,6,2,24,0,9,0,105,21,108,0,0,0,0,0,0,0,0
JO,Jordan,country,Middle East and North Africa,30.585164,36.238414,ES,Spain,country,Europe and Central Asia,40.463667,-3.74922,1986,14,0,0,0,0,14,0,0,0,0,0,0,0,0,0,0,0,0,0,0,0,0,0,0
KE,Kenya,country,Sub-Saharan Africa,-0.023559,37.906193,ES,Spain,country,Europe and Central Asia,40.463667,-3.74922,1986,1267,0,10,0,0,0,0,0,224,0,0,0,217,96,0,0,0,0,0,720,0,0,0,0
KW,Kuwait,country,Middle East and North Africa,29.31166,47.481766,ES,Spain,country,Europe and Central Asia,40.463667,-3.74922,1986,69,0,0,0,0,0,0,69,0,0,0,0,0,0,0,0,0,0,0,0,0,0,0,0
MW,Malawi,country,Sub-Saharan Africa,-13.254308,34.301525,ES,Spain,country,Europe and Central Asia,40.463667,-3.74922,1986,1038,0,0,0,0,0,0,0,0,0,0,0,0,1038,0,0,0,0,0,0,0,0,0,0
MY,Malaysia,country,East Asia and Pacific,4.210484,101.975766,ES,Spain,country,Europe and Central Asia,40.463667,-3.74922,1986,74526,0,0,0,0,0,0,0,236,0,120,0,398,39522,34250,0,0,0,0,0,0,0,0,0
MX,Mexico,country,Latin America and the Caribbean,23.634501,-102.552784,ES,Spain,country,Europe and Central Asia,40.463667,-3.74922,1986,28593,18,0,556,27479,0,39,17,74,0,0,0,153,118,0,118,0,0,21,0,0,0,0,0
MA,Morocco,country,Middle East and North Africa,31.791702,-7.09262,ES,Spain,country,Europe and Central Asia,40.463667,-3.74922,1986,10304,0,260,6300,226,15,0,355,1920,0,133,0,1,1084,0,0,0,0,10,0,0,0,0,0
NL,Netherlands,country,Europe and Central Asia,52.132633,5.291266,ES,Spain,country,Europe and Central Asia,40.463667,-3.74922,1986,188516,851,64039,551,414,44,1964,1749,1687,35,336,29535,2224,13672,12736,16327,486,28780,12065,1507,0,0,0,0
NZ,New Zealand,country,East Asia and Pacific,-40.900557,174.885971,ES,Spain,country,Europe and Central Asia,40.463667,-3.74922,1986,11374,0,0,0,0,0,0,0,1582,2941,0,0,0,0,8,0,0,6053,651,139,0,0,0,0
NG,Nigeria,country,Sub-Saharan Africa,9.081999,8.675277,ES,Spain,country,Europe and Central Asia,40.463667,-3.74922,1986,2850,0,0,0,0,0,0,0,0,0,0,0,0,2848,0,0,0,0,0,2,0,0,0,0
NO,Norway,country,Europe and Central Asia,60.472024,8.468946,ES,Spain,country,Europe and Central Asia,40.463667,-3.74922,1986,2293,31,0,0,0,0,0,0,5,0,0,318,3,110,22,0,0,25,258,1521,0,0,0,0
PG,Papua New Guinea,country,East Asia and Pacific,-6.314993,143.95555,ES,Spain,country,Europe and Central Asia,40.463667,-3.74922,1986,80,0,0,0,0,0,0,0,0,0,0,0,0,80,0,0,0,0,0,0,0,0,0,0
PY,Paraguay,country,Latin America and the Caribbean,-23.442503,-58.443832,ES,Spain,country,Europe and Central Asia,40.463667,-3.74922,1986,5902,0,0,0,0,0,5018,0,0,0,0,0,0,702,0,0,0,182,0,0,0,0,0,0
PE,Peru,country,Latin America and the Caribbean,-9.189967,-75.015152,ES,Spain,country,Europe and Central Asia,40.463667,-3.74922,1986,2344,269,0,0,0,0,0,0,0,11,12,446,1426,152,0,0,0,0,0,28,0,0,0,0
PH,Philippines,country,East Asia and Pacific,12.879721,121.774017,ES,Spain,country,Europe and Central Asia,40.463667,-3.74922,1986,18718,0,0,0,0,0,141,0,4335,0,0,0,444,3682,10116,0,0,0,0,0,0,0,0,0
PL,Poland,country,Europe and Central Asia,51.919438,19.145136,ES,Spain,country,Europe and Central Asia,40.463667,-3.74922,1986,1205,0,0,0,0,0,0,726,0,0,0,0,0,47,0,23,0,409,0,0,0,0,0,0
PT,Portugal,country,Europe and Central Asia,39.399872,-8.224454,ES,Spain,country,Europe and Central Asia,40.463667,-3.74922,1986,109187,58,2495,126,20,1012,0,1438,512,2086,13,87118,547,2157,9705,1058,16,41,279,522,0,0,0,0
KR,"Korea, Rep.",country,East Asia and Pacific,35.907757,127.766922,ES,Spain,country,Europe and Central Asia,40.463667,-3.74922,1986,724,41,0,21,0,0,98,299,14,0,0,0,5,234,0,12,0,0,0,0,0,0,0,0
RE,Reunion,country,Sub-Saharan Africa,-21.115141,55.536384,ES,Spain,country,Europe and Central Asia,40.463667,-3.74922,1986,0,0,0,0,0,0,0,0,0,0,0,0,0,0,0,0,0,0,0,0,0,0,0,0
SG,Singapore,country,East Asia and Pacific,1.352083,103.819836,ES,Spain,country,Europe and Central Asia,40.463667,-3.74922,1986,5272,0,0,0,0,0,86,0,225,0,1191,0,2255,1514,1,0,0,0,0,0,0,0,0,0
LK,Sri Lanka,country,South Asia,7.873054,80.771797,ES,Spain,country,Europe and Central Asia,40.463667,-3.74922,1986,7670,0,0,0,0,0,5238,0,16,0,500,0,92,1824,0,0,0,0,0,0,0,0,0,0
SE,Sweden,country,Europe and Central Asia,60.128161,18.643501,ES,Spain,country,Europe and Central Asia,40.463667,-3.74922,1986,34255,177,0,21018,0,0,0,5336,27,0,0,8,60,249,1543,142,0,3285,2110,300,0,0,0,0
CH,Switzerland,country,Europe and Central Asia,46.818188,8.227512,ES,Spain,country,Europe and Central Asia,40.463667,-3.74922,1986,4346,9,50,124,0,0,0,17,40,81,0,22,232,2153,6,11,0,5,1524,72,0,0,0,0
SY,Syrian Arab Rep.,country,Middle East and North Africa,34.802075,38.996815,ES,Spain,country,Europe and Central Asia,40.463667,-3.74922,1986,9775,0,0,0,0,0,0,0,0,9747,0,28,0,0,0,0,0,0,0,0,0,0,0,0
TH,Thailand,country,East Asia and Pacific,15.870032,100.992541,ES,Spain,country,Europe and Central Asia,40.463667,-3.74922,1986,157396,1780,141639,4250,183,0,0,0,5006,0,15,0,0,4523,0,0,0,0,0,0,0,0,0,0
TT,Trinidad and Tobago,country,Latin America and the Caribbean,10.691803,-61.222503,ES,Spain,country,Europe and Central Asia,40.463667,-3.74922,1986,2,0,0,0,0,0,0,0,0,0,0,0,0,0,0,2,0,0,0,0,0,0,0,0
TR,Turkey,country,Europe and Central Asia,38.963745,35.243322,ES,Spain,country,Europe and Central Asia,40.463667,-3.74922,1986,47965,0,1,1,21944,4542,120,45,3963,6777,192,0,0,9400,980,0,0,0,0,0,0,0,0,0
GB,United Kingdom,country,Europe and Central Asia,55.378051,-3.435973,ES,Spain,country,Europe and Central Asia,40.463667,-3.74922,1986,1448531,1364796,5650,352,554,241,33,8271,248,2755,123,4100,81,1535,715,32026,91,6674,847,19530,0,0,0,0
US,USA,country,North America,37.09024,-95.712891,ES,Spain,country,Europe and Central Asia,40.463667,-3.74922,1986,3385111,1030875,308,177,15770,11512,1794666,1049,3536,6820,85,370999,588,23803,111910,179,303,3833,29,8972,0,0,0,0
UY,Uruguay,country,Latin America and the Caribbean,-32.522779,-55.765835,ES,Spain,country,Europe and Central Asia,40.463667,-3.74922,1986,3862,0,0,216,0,0,0,0,0,573,0,0,0,1298,152,2,0,331,0,1290,0,0,0,0
RU,Russian Federation,country,Europe and Central Asia,61.52401,105.318756,ES,Spain,country,Europe and Central Asia,40.463667,-3.74922,1986,1073,0,0,0,0,0,0,0,0,729,0,0,0,0,0,344,0,0,0,0,0,0,0,0
VE,Venezuela,country,Latin America and the Caribbean,6.42375,-66.58973,ES,Spain,country,Europe and Central Asia,40.463667,-3.74922,1986,1525,681,0,0,0,0,0,0,22,0,18,0,0,1,0,630,0,173,0,0,0,0,0,0
BA,Bosnia & Herzegovina,country,Europe and Central Asia,43.915886,17.679076,ES,Spain,country,Europe and Central Asia,40.463667,-3.74922,1986,12577,11512,0,0,0,0,0,40,35,0,40,113,20,413,0,67,0,291,46,0,0,0,0,0
ZW,Zimbabwe,country,Sub-Saharan Africa,-19.015438,29.154857,ES,Spain,country,Europe and Central Asia,40.463667,-3.74922,1986,241,0,0,0,0,0,0,0,0,241,0,0,0,0,0,0,0,0,0,0,0,0,0,0
DZ,Algeria,country,Middle East and North Africa,28.033886,1.659626,ES,Spain,country,Europe and Central Asia,40.463667,-3.74922,1987,62,0,0,0,0,0,0,0,50,0,0,0,0,12,0,0,0,0,0,0,0,0,0,0
AR,Argentina,country,Latin America and the Caribbean,-38.416097,-63.616672,ES,Spain,country,Europe and Central Asia,40.463667,-3.74922,1987,169256,35760,0,3692,14886,0,16258,201,40,508,0,84931,51,528,5773,8,0,4514,0,2106,0,0,0,0
AU,Australia,country,East Asia and Pacific,-25.274398,133.775136,ES,Spain,country,Europe and Central Asia,40.463667,-3.74922,1987,73614,22438,0,1247,388,0,0,0,36,18492,0,0,0,0,0,0,0,89,129,30795,0,0,0,0
AT,Austria,country,Europe and Central Asia,47.516231,14.550072,ES,Spain,country,Europe and Central Asia,40.463667,-3.74922,1987,10659,359,575,584,0,3,95,787,3,254,0,78,1945,1533,4,190,0,342,3165,742,0,0,0,0
BE,Belgium,country,Europe and Central Asia,50.503887,4.469936,ES,Spain,country,Europe and Central Asia,40.463667,-3.74922,1987,67216,2702,18640,142,6,0,255,2947,5811,2243,57,8389,1064,2224,10897,1347,24,7598,1192,1652,50,0,0,0
BR,Brazil,country,Latin America and the Caribbean,-14.235004,-51.92528,ES,Spain,country,Europe and Central Asia,40.463667,-3.74922,1987,897655,16,0,73,0,230,427633,60,5417,100,134,385408,51349,10817,2262,39,3,14117,0,0,0,0,0,0
BG,Bulgaria,country,Europe and Central Asia,42.733883,25.48583,ES,Spain,country,Europe and Central Asia,40.463667,-3.74922,1987,20,0,0,0,0,0,0,0,0,0,0,0,0,0,0,20,0,0,0,0,0,0,0,0
CM,Cameroon,country,Sub-Saharan Africa,7.369722,12.354722,ES,Spain,country,Europe and Central Asia,40.463667,-3.74922,1987,4004,0,0,0,0,0,0,0,0,170,0,0,2890,846,0,0,0,0,0,98,0,0,0,0
CA,Canada,country,North America,56.130366,-106.346771,ES,Spain,country,Europe and Central Asia,40.463667,-3.74922,1987,127573,13346,0,82,7872,12,64316,100,99,26,0,32944,0,619,7480,20,10,0,8,649,0,0,0,0
CL,Chile,country,Latin America and the Caribbean,-35.675147,-71.542969,ES,Spain,country,Europe and Central Asia,40.463667,-3.74922,1987,5424,0,0,11,562,0,0,348,1102,596,0,113,0,2353,0,109,0,127,0,103,0,0,0,0
HK,Hong Kong,country,East Asia and Pacific,22.396428,114.109497,ES,Spain,country,Europe and Central Asia,40.463667,-3.74922,1987,3955,1,0,0,5,130,168,4,2,3009,25,0,0,609,0,0,0,0,0,2,0,0,0,0
CN,China,country,East Asia and Pacific,35.86166,104.195397,ES,Spain,country,Europe and Central Asia,40.463667,-3.74922,1987,34820,83,20,692,308,12,2309,524,133,24363,87,5314,103,421,11,46,0,130,4,260,0,0,0,0
TW,Taiwan,country,East Asia and Pacific,23.69781,120.960515,ES,Spain,country,Europe and Central Asia,40.463667,-3.74922,1987,235,27,0,0,2,0,18,63,45,0,0,0,17,52,0,9,0,0,0,2,0,0,0,0
CO,Colombia,country,Latin America and the Caribbean,4.570868,-74.297333,ES,Spain,country,Europe and Central Asia,40.463667,-3.74922,1987,27361,0,0,18,0,0,0,0,18,2811,0,0,19922,4583,0,9,0,0,0,0,0,0,0,0
CR,Costa Rica,country,Latin America and the Caribbean,9.748917,-83.753428,ES,Spain,country,Europe and Central Asia,40.463667,-3.74922,1987,2272,0,0,0,0,0,18,0,8,0,0,0,2191,55,0,0,0,0,0,0,0,0,0,0
CU,Cuba,country,Latin America and the Caribbean,21.521757,-77.781167,ES,Spain,country,Europe and Central Asia,40.463667,-3.74922,1987,10256,0,0,0,0,0,0,0,0,0,0,0,0,10256,0,0,0,0,0,0,0,0,0,0
CY,Cyprus,country,Europe and Central Asia,35.126413,33.429859,ES,Spain,country,Europe and Central Asia,40.463667,-3.74922,1987,5103,0,4332,0,0,0,0,0,254,0,0,0,0,0,0,0,0,0,0,517,0,0,0,0
DK,Denmark,country,Europe and Central Asia,56.26392,9.501785,ES,Spain,country,Europe and Central Asia,40.463667,-3.74922,1987,54433,46377,207,20,0,0,1,29,21,7,0,4,76,2174,210,215,0,2634,2338,120,0,0,0,0
EG,Egypt,country,Middle East and North Africa,26.820553,30.802498,ES,Spain,country,Europe and Central Asia,40.463667,-3.74922,1987,23455,0,0,18900,0,0,0,3,0,4322,76,0,0,154,0,0,0,0,0,0,0,0,0,0
ET,Ethiopia,country,Sub-Saharan Africa,9.145,40.489673,ES,Spain,country,Europe and Central Asia,40.463667,-3.74922,1987,134,0,0,0,0,0,17,0,0,5,0,0,0,5,0,0,0,0,0,107,0,0,0,0
FJ,Fiji,country,East Asia and Pacific,-16.578193,179.414413,ES,Spain,country,Europe and Central Asia,40.463667,-3.74922,1987,2,0,0,0,0,0,0,0,0,0,2,0,0,0,0,0,0,0,0,0,0,0,0,0
FI,Finland,country,Europe and Central Asia,61.92411,25.748151,ES,Spain,country,Europe and Central Asia,40.463667,-3.74922,1987,6883,24,0,3488,0,0,0,0,8,0,0,0,112,0,65,148,0,1219,1819,0,0,0,0,0
FR,France,country,Europe and Central Asia,46.227638,2.213749,ES,Spain,country,Europe and Central Asia,40.463667,-3.74922,1987,2929635,715563,158107,78860,930,958,5265,6984,35917,5287,260,59977,7267,14264,77760,1556891,4506,26101,156201,22916,127,0,0,0
GR,Greece,country,Europe and Central Asia,39.074208,21.824312,ES,Spain,country,Europe and Central Asia,40.463667,-3.74922,1987,10179,5348,0,18,0,1,0,5,67,1886,0,0,3,467,0,24,3,1167,6,1187,0,0,0,0
GP,Guadeloupe,country,Latin America and the Caribbean,16.995971,-62.067641,ES,Spain,country,Europe and Central Asia,40.463667,-3.74922,1987,0,0,0,0,0,0,0,0,0,0,0,0,0,0,0,0,0,0,0,0,0,0,0,0
GT,Guatemala,country,Latin America and the Caribbean,15.783471,-90.230759,ES,Spain,country,Europe and Central Asia,40.463667,-3.74922,1987,1131,0,0,0,0,0,0,0,3,0,13,0,1106,9,0,0,0,0,0,0,0,0,0,0
HN,Honduras,country,Latin America and the Caribbean,15.199999,-86.241905,ES,Spain,country,Europe and Central Asia,40.463667,-3.74922,1987,2045,0,0,0,0,0,0,0,0,568,0,0,1477,0,0,0,0,0,0,0,0,0,0,0
HU,Hungary,country,Europe and Central Asia,47.162494,19.503304,ES,Spain,country,Europe and Central Asia,40.463667,-3.74922,1987,1194,0,0,30,0,0,0,519,247,0,0,0,0,0,0,3,0,376,19,0,0,0,0,0
IS,Iceland,country,Europe and Central Asia,64.963051,-19.020835,ES,Spain,country,Europe and Central Asia,40.463667,-3.74922,1987,0,0,0,0,0,0,0,0,0,0,0,0,0,0,0,0,0,0,0,0,0,0,0,0
IN,India,country,South Asia,20.593684,78.96288,ES,Spain,country,Europe and Central Asia,40.463667,-3.74922,1987,4878,16,0,0,0,518,18,24,5,1471,414,0,1076,1336,0,0,0,0,0,0,0,0,0,0
ID,Indonesia,country,East Asia and Pacific,-0.789275,113.921327,ES,Spain,country,Europe and Central Asia,40.463667,-3.74922,1987,69790,0,7150,0,0,0,0,0,520,0,0,22997,1104,34106,3898,0,0,0,0,15,0,0,0,0
IE,Ireland,country,Europe and Central Asia,53.41291,-8.24389,ES,Spain,country,Europe and Central Asia,40.463667,-3.74922,1987,9298,2568,13,5,23,0,0,0,67,0,0,2,1,1799,0,3260,0,158,722,680,0,0,0,0
IL,Israel,country,Middle East and North Africa,31.046051,34.851612,ES,Spain,country,Europe and Central Asia,40.463667,-3.74922,1987,6953,0,0,0,0,0,1786,142,68,4957,0,0,0,0,0,0,0,0,0,0,0,0,0,0
IT,Italy,country,Europe and Central Asia,41.87194,12.56738,ES,Spain,country,Europe and Central Asia,40.463667,-3.74922,1987,95265,30305,24,2331,107,75,93,1702,4467,200,47,5734,1483,8654,32139,708,8,3565,213,3418,0,0,0,0
JP,Japan,country,East Asia and Pacific,36.204824,138.252924,ES,Spain,country,Europe and Central Asia,40.463667,-3.74922,1987,3700,2,0,0,0,0,38,3,2,18,0,13,0,3559,10,55,0,0,0,0,0,0,0,0
JO,Jordan,country,Middle East and North Africa,30.585164,36.238414,ES,Spain,country,Europe and Central Asia,40.463667,-3.74922,1987,1,0,0,0,0,0,0,1,0,0,0,0,0,0,0,0,0,0,0,0,0,0,0,0
KE,Kenya,country,Sub-Saharan Africa,-0.023559,37.906193,ES,Spain,country,Europe and Central Asia,40.463667,-3.74922,1987,9822,0,0,5204,0,0,0,2,711,0,0,0,140,17,0,0,0,0,0,3748,0,0,0,0
MW,Malawi,country,Sub-Saharan Africa,-13.254308,34.301525,ES,Spain,country,Europe and Central Asia,40.463667,-3.74922,1987,1338,0,0,0,0,0,0,0,0,0,0,0,0,1338,0,0,0,0,0,0,0,0,0,0
MY,Malaysia,country,East Asia and Pacific,4.210484,101.975766,ES,Spain,country,Europe and Central Asia,40.463667,-3.74922,1987,86878,0,0,0,0,0,24,0,381,0,20,0,1749,44556,40148,0,0,0,0,0,0,0,0,0
MT,Malta,country,Middle East and North Africa,35.937496,14.375416,ES,Spain,country,Europe and Central Asia,40.463667,-3.74922,1987,0,0,0,0,0,0,0,0,0,0,0,0,0,0,0,0,0,0,0,0,0,0,0,0
MX,Mexico,country,Latin America and the Caribbean,23.634501,-102.552784,ES,Spain,country,Europe and Central Asia,40.463667,-3.74922,1987,42931,13,0,6697,34536,0,69,518,489,0,0,0,280,172,0,145,0,0,12,0,0,0,0,0
MA,Morocco,country,Middle East and North Africa,31.791702,-7.09262,ES,Spain,country,Europe and Central Asia,40.463667,-3.74922,1987,14298,0,1374,3199,123,0,0,4045,3117,28,44,25,0,1789,92,462,0,0,0,0,0,0,0,0
NL,Netherlands,country,Europe and Central Asia,52.132633,5.291266,ES,Spain,country,Europe and Central Asia,40.463667,-3.74922,1987,272917,2627,137498,567,486,122,1810,7754,5773,1,795,22736,1838,18227,6876,24933,1024,27240,12214,1420,0,0,0,0
NZ,New Zealand,country,East Asia and Pacific,-40.900557,174.885971,ES,Spain,country,Europe and Central Asia,40.463667,-3.74922,1987,11876,0,0,0,55,0,0,6,2533,2106,0,0,0,0,0,0,0,6756,285,135,0,0,0,0
NO,Norway,country,Europe and Central Asia,60.472024,8.468946,ES,Spain,country,Europe and Central Asia,40.463667,-3.74922,1987,2644,31,0,0,0,20,1,0,12,0,0,273,11,76,1,47,0,252,304,1616,0,0,0,0
PA,Panama,country,Latin America and the Caribbean,8.537981,-80.782127,ES,Spain,country,Europe and Central Asia,40.463667,-3.74922,1987,48,0,0,0,0,0,0,0,0,0,0,0,30,0,0,0,0,0,0,18,0,0,0,0
PG,Papua New Guinea,country,East Asia and Pacific,-6.314993,143.95555,ES,Spain,country,Europe and Central Asia,40.463667,-3.74922,1987,25,0,0,0,0,0,0,0,0,0,0,0,0,25,0,0,0,0,0,0,0,0,0,0
PY,Paraguay,country,Latin America and the Caribbean,-23.442503,-58.443832,ES,Spain,country,Europe and Central Asia,40.463667,-3.74922,1987,10149,0,0,0,0,0,3018,0,0,4971,0,0,0,378,0,0,0,1782,0,0,0,0,0,0
PE,Peru,country,Latin America and the Caribbean,-9.189967,-75.015152,ES,Spain,country,Europe and Central Asia,40.463667,-3.74922,1987,2014,424,0,0,108,0,0,11,0,15,2,368,958,128,0,0,0,0,0,0,0,0,0,0
PH,Philippines,country,East Asia and Pacific,12.879721,121.774017,ES,Spain,country,Europe and Central Asia,40.463667,-3.74922,1987,24262,2,0,0,0,0,642,4,4688,0,0,0,105,3583,15238,0,0,0,0,0,0,0,0,0
PL,Poland,country,Europe and Central Asia,51.919438,19.145136,ES,Spain,country,Europe and Central Asia,40.463667,-3.74922,1987,6797,0,0,13,0,0,0,1044,26,0,0,0,0,0,0,97,0,3337,0,2280,0,0,0,0
PT,Portugal,country,Europe and Central Asia,39.399872,-8.224454,ES,Spain,country,Europe and Central Asia,40.463667,-3.74922,1987,108473,760,195,5557,0,4386,99,3654,708,2381,29,70791,379,3023,10835,3359,139,364,1353,600,0,0,0,0
KR,"Korea, Rep.",country,East Asia and Pacific,35.907757,127.766922,ES,Spain,country,Europe and Central Asia,40.463667,-3.74922,1987,887,99,0,1,0,0,81,279,3,7,2,0,5,351,0,45,0,14,0,0,0,0,0,0
RE,Reunion,country,Sub-Saharan Africa,-21.115141,55.536384,ES,Spain,country,Europe and Central Asia,40.463667,-3.74922,1987,1,0,0,0,0,0,0,1,0,0,0,0,0,0,0,0,0,0,0,0,0,0,0,0
SG,Singapore,country,East Asia and Pacific,1.352083,103.819836,ES,Spain,country,Europe and Central Asia,40.463667,-3.74922,1987,18690,0,0,3,0,0,144,0,200,0,556,0,5332,12335,31,80,0,8,0,1,0,0,0,0
LK,Sri Lanka,country,South Asia,7.873054,80.771797,ES,Spain,country,Europe and Central Asia,40.463667,-3.74922,1987,6971,0,0,0,0,0,4502,0,0,0,515,0,44,1910,0,0,0,0,0,0,0,0,0,0
SE,Sweden,country,Europe and Central Asia,60.128161,18.643501,ES,Spain,country,Europe and Central Asia,40.463667,-3.74922,1987,29925,226,0,16968,0,0,1,3660,55,0,0,5,567,728,5239,176,0,1396,654,250,0,0,0,0
CH,Switzerland,country,Europe and Central Asia,46.818188,8.227512,ES,Spain,country,Europe and Central Asia,40.463667,-3.74922,1987,5147,28,37,183,0,0,0,401,13,150,4,18,842,1930,3,91,0,0,1272,175,0,0,0,0
SY,Syrian Arab Rep.,country,Middle East and North Africa,34.802075,38.996815,ES,Spain,country,Europe and Central Asia,40.463667,-3.74922,1987,5994,0,0,0,0,0,0,0,0,5994,0,0,0,0,0,0,0,0,0,0,0,0,0,0
TH,Thailand,country,East Asia and Pacific,15.870032,100.992541,ES,Spain,country,Europe and Central Asia,40.463667,-3.74922,1987,369738,101,358463,0,253,0,11,29,6623,0,0,0,125,3955,0,2,0,0,0,0,176,0,0,0
TT,Trinidad and Tobago,country,Latin America and the Caribbean,10.691803,-61.222503,ES,Spain,country,Europe and Central Asia,40.463667,-3.74922,1987,6,0,0,0,0,0,0,0,0,0,0,0,0,0,0,6,0,0,0,0,0,0,0,0
TN,Tunisia,country,Middle East and North Africa,33.886917,9.537499,ES,Spain,country,Europe and Central Asia,40.463667,-3.74922,1987,835,0,0,0,0,0,0,52,715,0,2,0,0,66,0,0,0,0,0,0,0,0,0,0
TR,Turkey,country,Europe and Central Asia,38.963745,35.243322,ES,Spain,country,Europe and Central Asia,40.463667,-3.74922,1987,44788,0,6,0,18291,2558,179,3387,3492,3699,355,16,0,12787,0,0,0,18,0,0,0,0,0,0
GB,United Kingdom,country,Europe and Central Asia,55.378051,-3.435973,ES,Spain,country,Europe and Central Asia,40.463667,-3.74922,1987,307746,192663,9589,926,225,52,93,16756,379,2948,61,8195,1273,3180,1000,37442,114,10217,734,22013,0,0,0,0
US,USA,country,North America,37.09024,-95.712891,ES,Spain,country,Europe and Central Asia,40.463667,-3.74922,1987,2994321,701852,199,113,13829,16413,1647206,1360,3223,16635,51,470932,331,27036,77206,350,214,8002,78,9505,0,0,0,0
UY,Uruguay,country,Latin America and the Caribbean,-32.522779,-55.765835,ES,Spain,country,Europe and Central Asia,40.463667,-3.74922,1987,5003,0,0,584,0,0,0,5,0,361,0,0,0,1129,696,0,0,527,6,1695,0,0,0,0
RU,Russian Federation,country,Europe and Central Asia,61.52401,105.318756,ES,Spain,country,Europe and Central Asia,40.463667,-3.74922,1987,2160,0,0,0,0,0,0,0,0,1715,0,0,0,0,0,445,0,0,0,0,0,0,0,0
VE,Venezuela,country,Latin America and the Caribbean,6.42375,-66.58973,ES,Spain,country,Europe and Central Asia,40.463667,-3.74922,1987,2123,460,0,0,0,0,0,34,202,0,0,0,0,23,0,1313,0,91,0,0,0,0,0,0
BA,Bosnia & Herzegovina,country,Europe and Central Asia,43.915886,17.679076,ES,Spain,country,Europe and Central Asia,40.463667,-3.74922,1987,2214,1,0,0,0,0,0,0,0,0,40,153,30,58,0,11,0,1906,15,0,0,0,0,0
ZW,Zimbabwe,country,Sub-Saharan Africa,-19.015438,29.154857,ES,Spain,country,Europe and Central Asia,40.463667,-3.74922,1987,614,0,0,0,0,0,0,0,0,132,0,0,0,0,0,0,0,465,0,17,0,0,0,0
DZ,Algeria,country,Middle East and North Africa,28.033886,1.659626,ES,Spain,country,Europe and Central Asia,40.463667,-3.74922,1988,279,0,0,0,0,0,0,0,270,0,0,0,0,9,0,0,0,0,0,0,0,0,0,0
AR,Argentina,country,Latin America and the Caribbean,-38.416097,-63.616672,ES,Spain,country,Europe and Central Asia,40.463667,-3.74922,1988,477935,290355,0,3525,21364,0,19428,205,3003,240,6,127194,77,668,4944,88,0,5447,10,1381,0,0,0,0
AU,Australia,country,East Asia and Pacific,-25.274398,133.775136,ES,Spain,country,Europe and Central Asia,40.463667,-3.74922,1988,33971,168,0,1141,117,0,0,76,1,16315,1,0,0,38,678,92,0,50,238,15056,0,0,0,0
AT,Austria,country,Europe and Central Asia,47.516231,14.550072,ES,Spain,country,Europe and Central Asia,40.463667,-3.74922,1988,10328,927,482,438,0,0,66,1670,6,12,0,425,1274,1765,2,570,0,166,1886,639,0,0,0,0
BB,Barbados,country,Latin America and the Caribbean,13.193887,-59.543198,ES,Spain,country,Europe and Central Asia,40.463667,-3.74922,1988,15,0,0,0,0,0,0,0,0,0,0,0,0,0,0,15,0,0,0,0,0,0,0,0
BE,Belgium,country,Europe and Central Asia,50.503887,4.469936,ES,Spain,country,Europe and Central Asia,40.463667,-3.74922,1988,138623,2533,52029,265,148,36,172,8470,6843,2318,43,8054,728,3252,13543,1847,0,12259,24161,1795,127,0,0,0
BO,Bolivia,country,Latin America and the Caribbean,-16.290154,-63.588653,ES,Spain,country,Europe and Central Asia,40.463667,-3.74922,1988,1295,0,0,0,0,0,0,0,0,0,0,0,1295,0,0,0,0,0,0,0,0,0,0,0
BR,Brazil,country,Latin America and the Caribbean,-14.235004,-51.92528,ES,Spain,country,Europe and Central Asia,40.463667,-3.74922,1988,1572481,0,0,383,0,247,444387,0,3167,26,178,1036238,48826,17450,7578,583,0,13354,64,0,0,0,0,0
BG,Bulgaria,country,Europe and Central Asia,42.733883,25.48583,ES,Spain,country,Europe and Central Asia,40.463667,-3.74922,1988,31,0,0,0,0,0,0,0,0,0,0,0,0,0,0,12,0,19,0,0,0,0,0,0
CM,Cameroon,country,Sub-Saharan Africa,7.369722,12.354722,ES,Spain,country,Europe and Central Asia,40.463667,-3.74922,1988,9990,0,0,0,0,0,0,0,0,110,0,0,8501,1181,0,0,0,0,0,198,0,0,0,0
CA,Canada,country,North America,56.130366,-106.346771,ES,Spain,country,Europe and Central Asia,40.463667,-3.74922,1988,28961,6244,0,0,5395,0,1971,119,35,0,0,1510,0,128,12752,30,3,119,18,640,0,0,0,0
CL,Chile,country,Latin America and the Caribbean,-35.675147,-71.542969,ES,Spain,country,Europe and Central Asia,40.463667,-3.74922,1988,14421,0,0,2,2741,15,9,198,7976,545,0,212,0,1825,0,131,0,643,17,107,0,0,0,0
HK,Hong Kong,country,East Asia and Pacific,22.396428,114.109497,ES,Spain,country,Europe and Central Asia,40.463667,-3.74922,1988,2146,1,0,0,11,0,134,1,0,1289,0,0,0,705,5,0,0,0,0,0,0,0,0,0
CN,China,country,East Asia and Pacific,35.86166,104.195397,ES,Spain,country,Europe and Central Asia,40.463667,-3.74922,1988,29747,53,6131,126,46,34,3782,560,144,13873,100,3386,762,528,0,13,0,114,0,95,0,0,0,0
TW,Taiwan,country,East Asia and Pacific,23.69781,120.960515,ES,Spain,country,Europe and Central Asia,40.463667,-3.74922,1988,335,38,0,0,3,0,33,95,41,0,0,6,60,59,0,0,0,0,0,0,0,0,0,0
CO,Colombia,country,Latin America and the Caribbean,4.570868,-74.297333,ES,Spain,country,Europe and Central Asia,40.463667,-3.74922,1988,27467,0,0,0,0,0,18,0,15,5618,0,0,17272,4544,0,0,0,0,0,0,0,0,0,0
CR,Costa Rica,country,Latin America and the Caribbean,9.748917,-83.753428,ES,Spain,country,Europe and Central Asia,40.463667,-3.74922,1988,988,0,0,0,0,0,0,18,0,0,0,0,644,326,0,0,0,0,0,0,0,0,0,0
DK,Denmark,country,Europe and Central Asia,56.26392,9.501785,ES,Spain,country,Europe and Central Asia,40.463667,-3.74922,1988,32188,2422,1107,23,20,0,140,182,1060,3,0,1605,1223,2719,1022,2194,0,15186,3044,238,0,0,0,0
EC,Ecuador,country,Latin America and the Caribbean,-1.831239,-78.183406,ES,Spain,country,Europe and Central Asia,40.463667,-3.74922,1988,2349,0,0,0,0,0,0,31,28,0,0,0,2267,23,0,0,0,0,0,0,0,0,0,0
EG,Egypt,country,Middle East and North Africa,26.820553,30.802498,ES,Spain,country,Europe and Central Asia,40.463667,-3.74922,1988,2752,0,0,0,140,0,0,1,0,2276,61,0,0,272,0,0,0,2,0,0,0,0,0,0
ET,Ethiopia,country,Sub-Saharan Africa,9.145,40.489673,ES,Spain,country,Europe and Central Asia,40.463667,-3.74922,1988,362,0,0,0,0,0,0,0,0,351,0,0,0,11,0,0,0,0,0,0,0,0,0,0
FI,Finland,country,Europe and Central Asia,61.92411,25.748151,ES,Spain,country,Europe and Central Asia,40.463667,-3.74922,1988,2831,21,0,769,0,0,0,0,0,0,0,8,47,2,46,141,0,54,1565,178,0,0,0,0
FR,France,country,Europe and Central Asia,46.227638,2.213749,ES,Spain,country,Europe and Central Asia,40.463667,-3.74922,1988,1719948,799191,285264,97042,6054,507,4534,22422,40392,5153,848,60123,7159,19890,76573,34180,4083,44446,200064,16006,100,0,0,0
GR,Greece,country,Europe and Central Asia,39.074208,21.824312,ES,Spain,country,Europe and Central Asia,40.463667,-3.74922,1988,40404,35423,0,15,0,1,0,856,38,418,0,0,0,1049,1944,4,0,1,10,645,0,0,0,0
GP,Guadeloupe,country,Latin America and the Caribbean,16.995971,-62.067641,ES,Spain,country,Europe and Central Asia,40.463667,-3.74922,1988,0,0,0,0,0,0,0,0,0,0,0,0,0,0,0,0,0,0,0,0,0,0,0,0
GT,Guatemala,country,Latin America and the Caribbean,15.783471,-90.230759,ES,Spain,country,Europe and Central Asia,40.463667,-3.74922,1988,1359,0,0,26,0,0,0,18,0,222,0,0,1085,8,0,0,0,0,0,0,0,0,0,0
HN,Honduras,country,Latin America and the Caribbean,15.199999,-86.241905,ES,Spain,country,Europe and Central Asia,40.463667,-3.74922,1988,2023,0,0,0,0,0,0,0,0,0,0,0,1964,59,0,0,0,0,0,0,0,0,0,0
HU,Hungary,country,Europe and Central Asia,47.162494,19.503304,ES,Spain,country,Europe and Central Asia,40.463667,-3.74922,1988,1882,0,0,10,0,0,0,295,8,0,414,0,0,0,0,0,0,1155,0,0,0,0,0,0
IS,Iceland,country,Europe and Central Asia,64.963051,-19.020835,ES,Spain,country,Europe and Central Asia,40.463667,-3.74922,1988,0,0,0,0,0,0,0,0,0,0,0,0,0,0,0,0,0,0,0,0,0,0,0,0
IN,India,country,South Asia,20.593684,78.96288,ES,Spain,country,Europe and Central Asia,40.463667,-3.74922,1988,34288,13,0,30496,0,28,152,3,1,0,435,0,1188,1972,0,0,0,0,0,0,0,0,0,0
ID,Indonesia,country,East Asia and Pacific,-0.789275,113.921327,ES,Spain,country,Europe and Central Asia,40.463667,-3.74922,1988,66871,0,0,0,0,0,0,0,364,0,0,14975,2422,37739,11362,0,0,9,0,0,0,0,0,0
IE,Ireland,country,Europe and Central Asia,53.41291,-8.24389,ES,Spain,country,Europe and Central Asia,40.463667,-3.74922,1988,33847,14938,5153,100,25,0,0,9,57,0,0,2712,31,2464,0,4764,0,2173,632,789,0,0,0,0
IT,Italy,country,Europe and Central Asia,41.87194,12.56738,ES,Spain,country,Europe and Central Asia,40.463667,-3.74922,1988,93125,26989,36,295,102,120,239,4570,4024,288,39,5953,1671,12757,22995,1414,2,8468,639,2357,169,0,0,0
JM,Jamaica,country,Latin America and the Caribbean,18.109581,-77.297508,ES,Spain,country,Europe and Central Asia,40.463667,-3.74922,1988,38,0,0,0,0,0,0,0,0,0,0,0,0,0,0,38,0,0,0,0,0,0,0,0
JP,Japan,country,East Asia and Pacific,36.204824,138.252924,ES,Spain,country,Europe and Central Asia,40.463667,-3.74922,1988,245,6,0,1,0,0,38,4,1,142,0,16,0,0,10,27,0,0,0,0,0,0,0,0
KE,Kenya,country,Sub-Saharan Africa,-0.023559,37.906193,ES,Spain,country,Europe and Central Asia,40.463667,-3.74922,1988,5460,0,0,0,0,0,18,2,1259,0,0,0,151,16,0,0,0,0,0,4014,0,0,0,0
MW,Malawi,country,Sub-Saharan Africa,-13.254308,34.301525,ES,Spain,country,Europe and Central Asia,40.463667,-3.74922,1988,1977,0,0,0,0,0,0,0,0,0,0,0,0,1977,0,0,0,0,0,0,0,0,0,0
MY,Malaysia,country,East Asia and Pacific,4.210484,101.975766,ES,Spain,country,Europe and Central Asia,40.463667,-3.74922,1988,87404,0,0,0,0,0,25,0,324,0,78,0,1748,41290,43939,0,0,0,0,0,0,0,0,0
MT,Malta,country,Middle East and North Africa,35.937496,14.375416,ES,Spain,country,Europe and Central Asia,40.463667,-3.74922,1988,17,0,0,0,0,2,0,0,0,0,0,0,0,0,0,0,0,0,0,15,0,0,0,0
MX,Mexico,country,Latin America and the Caribbean,23.634501,-102.552784,ES,Spain,country,Europe and Central Asia,40.463667,-3.74922,1988,18950,26,0,571,16406,0,90,487,301,0,0,0,496,266,0,272,0,0,35,0,0,0,0,0
MA,Morocco,country,Middle East and North Africa,31.791702,-7.09262,ES,Spain,country,Europe and Central Asia,40.463667,-3.74922,1988,20041,3878,1047,3000,182,31,0,3648,3665,57,86,1297,0,1945,0,2,0,1,33,1169,0,0,0,0
NL,Netherlands,country,Europe and Central Asia,52.132633,5.291266,ES,Spain,country,Europe and Central Asia,40.463667,-3.74922,1988,297497,4128,83888,1923,532,36,2528,24974,15247,14,669,18697,4233,25935,10823,29896,884,31431,41194,1349,0,0,0,0
NZ,New Zealand,country,East Asia and Pacific,-40.900557,174.885971,ES,Spain,country,Europe and Central Asia,40.463667,-3.74922,1988,16700,0,0,0,148,0,0,285,1589,795,0,0,0,874,4345,0,0,8187,246,231,0,0,0,0
NO,Norway,country,Europe and Central Asia,60.472024,8.468946,ES,Spain,country,Europe and Central Asia,40.463667,-3.74922,1988,3114,36,0,0,0,0,0,0,0,0,0,346,12,53,5,192,0,518,443,1509,0,0,0,0
PA,Panama,country,Latin America and the Caribbean,8.537981,-80.782127,ES,Spain,country,Europe and Central Asia,40.463667,-3.74922,1988,54,0,0,0,0,0,0,0,0,0,0,0,54,0,0,0,0,0,0,0,0,0,0,0
PE,Peru,country,Latin America and the Caribbean,-9.189967,-75.015152,ES,Spain,country,Europe and Central Asia,40.463667,-3.74922,1988,4034,907,0,0,524,0,0,46,34,0,39,943,1399,132,0,0,0,0,0,10,0,0,0,0
PH,Philippines,country,East Asia and Pacific,12.879721,121.774017,ES,Spain,country,Europe and Central Asia,40.463667,-3.74922,1988,16697,3,0,0,0,0,880,12,5322,11,0,0,0,4029,6440,0,0,0,0,0,0,0,0,0
PT,Portugal,country,Europe and Central Asia,39.399872,-8.224454,ES,Spain,country,Europe and Central Asia,40.463667,-3.74922,1988,149456,2274,182,10685,20,2529,15,9224,363,1539,6,100725,775,4157,5350,3780,345,130,6921,314,467,0,0,0
KR,"Korea, Rep.",country,East Asia and Pacific,35.907757,127.766922,ES,Spain,country,Europe and Central Asia,40.463667,-3.74922,1988,1092,68,5,0,0,0,96,294,1,30,0,0,8,495,0,95,0,0,0,0,0,0,0,0
RE,Reunion,country,Sub-Saharan Africa,-21.115141,55.536384,ES,Spain,country,Europe and Central Asia,40.463667,-3.74922,1988,0,0,0,0,0,0,0,0,0,0,0,0,0,0,0,0,0,0,0,0,0,0,0,0
SN,Senegal,country,Sub-Saharan Africa,14.497401,-14.452362,ES,Spain,country,Europe and Central Asia,40.463667,-3.74922,1988,28470,0,0,0,0,0,0,5,8,200,0,28241,0,0,0,0,0,0,0,16,0,0,0,0
SG,Singapore,country,East Asia and Pacific,1.352083,103.819836,ES,Spain,country,Europe and Central Asia,40.463667,-3.74922,1988,30379,18,0,2,0,0,489,0,394,0,564,0,5114,18641,5116,32,0,9,0,0,0,0,0,0
LK,Sri Lanka,country,South Asia,7.873054,80.771797,ES,Spain,country,Europe and Central Asia,40.463667,-3.74922,1988,4782,0,0,0,0,0,2999,0,0,0,298,0,31,1454,0,0,0,0,0,0,0,0,0,0
SE,Sweden,country,Europe and Central Asia,60.128161,18.643501,ES,Spain,country,Europe and Central Asia,40.463667,-3.74922,1988,17640,1325,0,5594,0,14,1,4315,16,0,1,0,1183,397,3007,238,0,1393,5,151,0,0,0,0
CH,Switzerland,country,Europe and Central Asia,46.818188,8.227512,ES,Spain,country,Europe and Central Asia,40.463667,-3.74922,1988,6105,38,7,186,0,0,3,193,7,87,0,16,819,3058,13,146,0,6,1301,225,0,0,0,0
SY,Syrian Arab Rep.,country,Middle East and North Africa,34.802075,38.996815,ES,Spain,country,Europe and Central Asia,40.463667,-3.74922,1988,3523,0,0,0,0,0,0,0,0,3523,0,0,0,0,0,0,0,0,0,0,0,0,0,0
TH,Thailand,country,East Asia and Pacific,15.870032,100.992541,ES,Spain,country,Europe and Central Asia,40.463667,-3.74922,1988,313708,3946,281464,0,322,0,0,89,21165,0,0,226,550,5946,0,0,0,0,0,0,0,0,0,0
TT,Trinidad and Tobago,country,Latin America and the Caribbean,10.691803,-61.222503,ES,Spain,country,Europe and Central Asia,40.463667,-3.74922,1988,77,0,0,0,0,0,0,0,0,0,0,0,0,0,0,77,0,0,0,0,0,0,0,0
TN,Tunisia,country,Middle East and North Africa,33.886917,9.537499,ES,Spain,country,Europe and Central Asia,40.463667,-3.74922,1988,2599,9,0,0,0,0,0,15,1222,0,0,0,0,1352,0,1,0,0,0,0,0,0,0,0
TR,Turkey,country,Europe and Central Asia,38.963745,35.243322,ES,Spain,country,Europe and Central Asia,40.463667,-3.74922,1988,61849,23,0,1,29939,3140,257,472,5792,5196,678,0,0,16351,0,0,0,0,0,0,0,0,0,0
GB,United Kingdom,country,Europe and Central Asia,55.378051,-3.435973,ES,Spain,country,Europe and Central Asia,40.463667,-3.74922,1988,343663,164224,42293,1216,304,8,112,13045,796,2303,111,18254,4046,6282,3203,52005,148,12869,2660,19931,1,0,0,0
US,USA,country,North America,37.09024,-95.712891,ES,Spain,country,Europe and Central Asia,40.463667,-3.74922,1988,4394619,2563091,136,292,19026,20737,1171762,1631,5580,16954,120,469540,2350,25662,78386,1254,228,7895,1341,8862,0,0,0,0
UY,Uruguay,country,Latin America and the Caribbean,-32.522779,-55.765835,ES,Spain,country,Europe and Central Asia,40.463667,-3.74922,1988,19417,14649,0,1275,0,0,0,0,1,125,0,0,0,1650,252,0,0,152,6,1307,0,0,0,0
RU,Russian Federation,country,Europe and Central Asia,61.52401,105.318756,ES,Spain,country,Europe and Central Asia,40.463667,-3.74922,1988,1407,0,0,0,0,0,0,0,0,983,0,0,0,0,0,424,0,0,0,0,0,0,0,0
VE,Venezuela,country,Latin America and the Caribbean,6.42375,-66.58973,ES,Spain,country,Europe and Central Asia,40.463667,-3.74922,1988,3068,293,0,0,0,0,0,0,1634,0,18,0,337,0,0,786,0,0,0,0,0,0,0,0
BA,Bosnia & Herzegovina,country,Europe and Central Asia,43.915886,17.679076,ES,Spain,country,Europe and Central Asia,40.463667,-3.74922,1988,1215,0,0,0,0,0,0,160,1,0,26,85,0,148,0,3,0,792,0,0,0,0,0,0
DZ,Algeria,country,Middle East and North Africa,28.033886,1.659626,ES,Spain,country,Europe and Central Asia,40.463667,-3.74922,1989,3,0,0,0,0,0,0,0,0,0,0,0,0,3,0,0,0,0,0,0,0,0,0,0
AR,Argentina,country,Latin America and the Caribbean,-38.416097,-63.616672,ES,Spain,country,Europe and Central Asia,40.463667,-3.74922,1989,150235,4393,0,3111,18097,0,1714,421,11720,528,0,92861,88,839,6525,2356,0,6200,24,1358,0,0,0,0
AU,Australia,country,East Asia and Pacific,-25.274398,133.775136,ES,Spain,country,Europe and Central Asia,40.463667,-3.74922,1989,27040,126,0,810,410,0,0,76,0,15430,0,1,0,179,678,147,0,113,79,8991,0,0,0,0
AT,Austria,country,Europe and Central Asia,47.516231,14.550072,ES,Spain,country,Europe and Central Asia,40.463667,-3.74922,1989,11491,678,1098,348,48,2,333,990,63,22,0,140,1538,1463,29,642,0,89,3155,853,0,0,0,0
BB,Barbados,country,Latin America and the Caribbean,13.193887,-59.543198,ES,Spain,country,Europe and Central Asia,40.463667,-3.74922,1989,12,0,0,0,0,0,0,0,0,0,0,0,0,0,0,0,0,12,0,0,0,0,0,0
BE,Belgium,country,Europe and Central Asia,50.503887,4.469936,ES,Spain,country,Europe and Central Asia,40.463667,-3.74922,1989,229563,2964,103589,426,135,46,216,14693,13533,2534,87,9081,1707,4425,20038,2739,27,17010,35164,1133,43,0,0,0
BO,Bolivia,country,Latin America and the Caribbean,-16.290154,-63.588653,ES,Spain,country,Europe and Central Asia,40.463667,-3.74922,1989,440,0,0,0,0,0,0,0,0,0,0,0,435,0,0,0,0,0,0,5,0,0,0,0
BR,Brazil,country,Latin America and the Caribbean,-14.235004,-51.92528,ES,Spain,country,Europe and Central Asia,40.463667,-3.74922,1989,1588976,0,0,189,0,145,606168,163,1885,546,375,923037,25433,15337,2332,456,0,12625,17,18,250,0,0,0
CM,Cameroon,country,Sub-Saharan Africa,7.369722,12.354722,ES,Spain,country,Europe and Central Asia,40.463667,-3.74922,1989,18448,0,0,0,0,0,0,0,0,0,0,0,16790,1418,0,0,0,0,0,240,0,0,0,0
CA,Canada,country,North America,56.130366,-106.346771,ES,Spain,country,Europe and Central Asia,40.463667,-3.74922,1989,67490,19281,26,8,4930,0,1573,78,237,0,0,32112,0,123,7687,65,7,70,10,298,992,0,0,0
CL,Chile,country,Latin America and the Caribbean,-35.675147,-71.542969,ES,Spain,country,Europe and Central Asia,40.463667,-3.74922,1989,25292,11215,0,0,1175,0,7,808,9035,216,36,424,0,901,0,986,0,487,0,2,0,0,0,0
HK,Hong Kong,country,East Asia and Pacific,22.396428,114.109497,ES,Spain,country,Europe and Central Asia,40.463667,-3.74922,1989,2137,6,0,0,14,20,389,125,29,581,19,0,0,801,0,135,0,0,0,18,0,0,0,0
CN,China,country,East Asia and Pacific,35.86166,104.195397,ES,Spain,country,Europe and Central Asia,40.463667,-3.74922,1989,26425,92,0,0,88,63,5702,915,98,14997,174,1511,574,2071,0,68,0,66,3,3,0,0,0,0
TW,Taiwan,country,East Asia and Pacific,23.69781,120.960515,ES,Spain,country,Europe and Central Asia,40.463667,-3.74922,1989,399,26,0,8,3,0,26,157,37,0,0,65,8,57,2,10,0,0,0,0,0,0,0,0
CO,Colombia,country,Latin America and the Caribbean,4.570868,-74.297333,ES,Spain,country,Europe and Central Asia,40.463667,-3.74922,1989,31151,419,0,49,0,0,0,0,35,6801,0,0,16663,7184,0,0,0,0,0,0,0,0,0,0
CR,Costa Rica,country,Latin America and the Caribbean,9.748917,-83.753428,ES,Spain,country,Europe and Central Asia,40.463667,-3.74922,1989,1651,0,0,0,0,0,0,117,69,0,0,0,1006,459,0,0,0,0,0,0,0,0,0,0
CY,Cyprus,country,Europe and Central Asia,35.126413,33.429859,ES,Spain,country,Europe and Central Asia,40.463667,-3.74922,1989,443,1,0,0,0,0,0,0,115,0,0,0,0,0,0,0,0,0,0,327,0,0,0,0
DK,Denmark,country,Europe and Central Asia,56.26392,9.501785,ES,Spain,country,Europe and Central Asia,40.463667,-3.74922,1989,55034,3723,1806,31,0,0,146,637,846,1,0,20725,192,5259,985,3485,0,13471,3508,219,0,0,0,0
EC,Ecuador,country,Latin America and the Caribbean,-1.831239,-78.183406,ES,Spain,country,Europe and Central Asia,40.463667,-3.74922,1989,1465,14,0,0,0,0,0,0,73,99,0,0,1248,31,0,0,0,0,0,0,0,0,0,0
EG,Egypt,country,Middle East and North Africa,26.820553,30.802498,ES,Spain,country,Europe and Central Asia,40.463667,-3.74922,1989,7989,0,0,5710,160,0,20,75,0,1120,169,0,0,733,0,0,0,2,0,0,0,0,0,0
ET,Ethiopia,country,Sub-Saharan Africa,9.145,40.489673,ES,Spain,country,Europe and Central Asia,40.463667,-3.74922,1989,156,0,0,0,0,0,0,0,0,156,0,0,0,0,0,0,0,0,0,0,0,0,0,0
FI,Finland,country,Europe and Central Asia,61.92411,25.748151,ES,Spain,country,Europe and Central Asia,40.463667,-3.74922,1989,8179,13,0,5259,0,0,0,63,0,0,0,11,26,0,139,156,0,769,1511,232,0,0,0,0
FR,France,country,Europe and Central Asia,46.227638,2.213749,ES,Spain,country,Europe and Central Asia,40.463667,-3.74922,1989,2505086,578125,194126,127769,52616,651,92175,36425,50250,5416,544,73314,6846,22835,94838,897286,6891,51172,204593,15056,1049,0,0,0
GR,Greece,country,Europe and Central Asia,39.074208,21.824312,ES,Spain,country,Europe and Central Asia,40.463667,-3.74922,1989,11016,1438,1,57,0,1,0,297,87,1133,0,3830,17,1246,1604,5,0,5,15,1280,0,0,0,0
HN,Honduras,country,Latin America and the Caribbean,15.199999,-86.241905,ES,Spain,country,Europe and Central Asia,40.463667,-3.74922,1989,630,0,0,0,0,0,0,0,0,0,0,0,630,0,0,0,0,0,0,0,0,0,0,0
IS,Iceland,country,Europe and Central Asia,64.963051,-19.020835,ES,Spain,country,Europe and Central Asia,40.463667,-3.74922,1989,9,0,0,0,0,0,0,0,0,0,0,0,0,0,0,0,0,0,0,9,0,0,0,0
IN,India,country,South Asia,20.593684,78.96288,ES,Spain,country,Europe and Central Asia,40.463667,-3.74922,1989,22968,55,0,20952,0,79,241,50,0,52,176,0,1217,116,30,0,0,0,0,0,0,0,0,0
ID,Indonesia,country,East Asia and Pacific,-0.789275,113.921327,ES,Spain,country,Europe and Central Asia,40.463667,-3.74922,1989,47933,0,0,0,0,0,0,0,696,0,30,0,5169,34994,7005,0,0,39,0,0,0,0,0,0
IE,Ireland,country,Europe and Central Asia,53.41291,-8.24389,ES,Spain,country,Europe and Central Asia,40.463667,-3.74922,1989,29869,11263,2529,348,47,0,0,32,5,29,0,3846,40,1512,4,4761,0,3081,1082,1290,0,0,0,0
IL,Israel,country,Middle East and North Africa,31.046051,34.851612,ES,Spain,country,Europe and Central Asia,40.463667,-3.74922,1989,13281,161,0,0,0,0,3681,713,753,4332,0,20,0,7,0,3574,14,29,11,0,0,0,0,0
IT,Italy,country,Europe and Central Asia,41.87194,12.56738,ES,Spain,country,Europe and Central Asia,40.463667,-3.74922,1989,163149,51606,268,10060,249,389,387,3775,20134,580,36,2495,2026,17294,40397,3526,12,7263,948,1169,547,0,0,0
JP,Japan,country,East Asia and Pacific,36.204824,138.252924,ES,Spain,country,Europe and Central Asia,40.463667,-3.74922,1989,552,12,0,5,0,0,53,6,2,281,0,18,0,103,9,63,0,0,0,0,0,0,0,0
JO,Jordan,country,Middle East and North Africa,30.585164,36.238414,ES,Spain,country,Europe and Central Asia,40.463667,-3.74922,1989,4,0,0,0,0,0,0,4,0,0,0,0,0,0,0,0,0,0,0,0,0,0,0,0
MW,Malawi,country,Sub-Saharan Africa,-13.254308,34.301525,ES,Spain,country,Europe and Central Asia,40.463667,-3.74922,1989,13816,0,0,12820,0,0,0,0,0,0,7,0,0,989,0,0,0,0,0,0,0,0,0,0
MY,Malaysia,country,East Asia and Pacific,4.210484,101.975766,ES,Spain,country,Europe and Central Asia,40.463667,-3.74922,1989,97240,0,0,5250,0,0,0,0,202,0,130,0,3617,34724,53317,0,0,0,0,0,0,0,0,0
MX,Mexico,country,Latin America and the Caribbean,23.634501,-102.552784,ES,Spain,country,Europe and Central Asia,40.463667,-3.74922,1989,33226,38,0,91,32127,0,36,488,119,0,5,0,0,125,0,185,0,0,12,0,0,0,0,0
MA,Morocco,country,Middle East and North Africa,31.791702,-7.09262,ES,Spain,country,Europe and Central Asia,40.463667,-3.74922,1989,24683,0,2671,0,1575,15,0,5808,3660,334,2378,4619,0,2685,0,2,0,0,26,910,0,0,0,0
NL,Netherlands,country,Europe and Central Asia,52.132633,5.291266,ES,Spain,country,Europe and Central Asia,40.463667,-3.74922,1989,384743,10515,89997,1705,1595,72,1746,30937,20406,54,843,28731,5129,30037,8803,46599,1649,53275,52779,1520,0,0,0,0
NZ,New Zealand,country,East Asia and Pacific,-40.900557,174.885971,ES,Spain,country,Europe and Central Asia,40.463667,-3.74922,1989,16700,0,0,0,148,0,0,285,1589,795,0,0,0,874,4345,0,0,8187,246,231,0,0,0,0
NO,Norway,country,Europe and Central Asia,60.472024,8.468946,ES,Spain,country,Europe and Central Asia,40.463667,-3.74922,1989,4134,31,0,0,0,0,0,15,20,0,0,138,7,144,4,35,0,313,1765,1662,0,0,0,0
PK,Pakistan,country,South Asia,30.375321,69.345116,ES,Spain,country,Europe and Central Asia,40.463667,-3.74922,1989,1629,17,0,0,0,0,0,0,0,1612,0,0,0,0,0,0,0,0,0,0,0,0,0,0
PA,Panama,country,Latin America and the Caribbean,8.537981,-80.782127,ES,Spain,country,Europe and Central Asia,40.463667,-3.74922,1989,47,0,0,0,0,0,0,17,0,0,0,0,30,0,0,0,0,0,0,0,0,0,0,0
PY,Paraguay,country,Latin America and the Caribbean,-23.442503,-58.443832,ES,Spain,country,Europe and Central Asia,40.463667,-3.74922,1989,23948,0,0,0,0,0,12192,0,0,2823,0,0,7000,281,0,0,0,1652,0,0,0,0,0,0
PE,Peru,country,Latin America and the Caribbean,-9.189967,-75.015152,ES,Spain,country,Europe and Central Asia,40.463667,-3.74922,1989,6155,1104,0,0,100,0,17,60,104,1883,9,834,1975,69,0,0,0,0,0,0,0,0,0,0
PH,Philippines,country,East Asia and Pacific,12.879721,121.774017,ES,Spain,country,Europe and Central Asia,40.463667,-3.74922,1989,21630,0,0,0,0,0,538,8,4920,0,0,0,448,2204,13512,0,0,0,0,0,0,0,0,0
PT,Portugal,country,Europe and Central Asia,39.399872,-8.224454,ES,Spain,country,Europe and Central Asia,40.463667,-3.74922,1989,114114,4537,128,11597,193,3718,23,4381,1486,1730,2,55846,1132,1439,4787,5354,1524,158,14906,533,2164,0,0,0
KR,"Korea, Rep.",country,East Asia and Pacific,35.907757,127.766922,ES,Spain,country,Europe and Central Asia,40.463667,-3.74922,1989,2032,61,0,1,0,0,65,405,6,32,23,1,5,979,0,403,0,0,0,51,0,0,0,0
RE,Reunion,country,Sub-Saharan Africa,-21.115141,55.536384,ES,Spain,country,Europe and Central Asia,40.463667,-3.74922,1989,1,0,0,0,0,0,0,0,1,0,0,0,0,0,0,0,0,0,0,0,0,0,0,0
RO,Romania,country,Europe and Central Asia,45.943161,24.96676,ES,Spain,country,Europe and Central Asia,40.463667,-3.74922,1989,2604,0,0,0,0,0,0,124,379,0,0,0,0,0,0,0,0,2101,0,0,0,0,0,0
SN,Senegal,country,Sub-Saharan Africa,14.497401,-14.452362,ES,Spain,country,Europe and Central Asia,40.463667,-3.74922,1989,21568,0,0,0,0,0,0,0,0,779,0,20620,0,129,0,0,0,0,0,40,0,0,0,0
SG,Singapore,country,East Asia and Pacific,1.352083,103.819836,ES,Spain,country,Europe and Central Asia,40.463667,-3.74922,1989,21166,25,0,0,0,0,647,0,190,0,738,0,4944,12014,2604,4,0,0,0,0,0,0,0,0
LK,Sri Lanka,country,South Asia,7.873054,80.771797,ES,Spain,country,Europe and Central Asia,40.463667,-3.74922,1989,5484,0,0,0,0,0,3232,0,0,0,302,0,78,1872,0,0,0,0,0,0,0,0,0,0
SR,Suriname,country,Latin America and the Caribbean,3.919305,-56.027783,ES,Spain,country,Europe and Central Asia,40.463667,-3.74922,1989,6981,6981,0,0,0,0,0,0,0,0,0,0,0,0,0,0,0,0,0,0,0,0,0,0
SE,Sweden,country,Europe and Central Asia,60.128161,18.643501,ES,Spain,country,Europe and Central Asia,40.463667,-3.74922,1989,14792,3072,0,3029,2,0,0,4058,41,0,0,31,991,528,397,255,0,1463,475,450,0,0,0,0
CH,Switzerland,country,Europe and Central Asia,46.818188,8.227512,ES,Spain,country,Europe and Central Asia,40.463667,-3.74922,1989,6367,432,0,318,1,59,0,1,11,217,0,73,693,2270,15,221,0,11,1734,311,0,0,0,0
SY,Syrian Arab Rep.,country,Middle East and North Africa,34.802075,38.996815,ES,Spain,country,Europe and Central Asia,40.463667,-3.74922,1989,3896,0,0,0,0,0,0,900,0,2991,5,0,0,0,0,0,0,0,0,0,0,0,0,0
TH,Thailand,country,East Asia and Pacific,15.870032,100.992541,ES,Spain,country,Europe and Central Asia,40.463667,-3.74922,1989,490745,3979,419530,42000,265,0,8,79,13938,0,67,353,602,9924,0,0,0,0,0,0,0,0,0,0
TT,Trinidad and Tobago,country,Latin America and the Caribbean,10.691803,-61.222503,ES,Spain,country,Europe and Central Asia,40.463667,-3.74922,1989,784,0,0,0,0,0,0,0,0,0,0,0,0,0,0,784,0,0,0,0,0,0,0,0
TN,Tunisia,country,Middle East and North Africa,33.886917,9.537499,ES,Spain,country,Europe and Central Asia,40.463667,-3.74922,1989,3391,0,0,0,0,0,0,25,923,112,0,0,0,2155,0,0,0,0,0,176,0,0,0,0
TR,Turkey,country,Europe and Central Asia,38.963745,35.243322,ES,Spain,country,Europe and Central Asia,40.463667,-3.74922,1989,52453,118,20,6,16048,1898,208,788,4146,8070,539,3880,0,16732,0,0,0,0,0,0,0,0,0,0
GB,United Kingdom,country,Europe and Central Asia,55.378051,-3.435973,ES,Spain,country,Europe and Central Asia,40.463667,-3.74922,1989,222057,14004,51931,1702,12994,2,155,12482,1209,2383,142,9578,5637,6550,3412,52473,204,17038,4124,26241,0,0,0,0
US,USA,country,North America,37.09024,-95.712891,ES,Spain,country,Europe and Central Asia,40.463667,-3.74922,1989,3513668,1172295,0,450,14521,18284,1376540,2202,3440,20601,357,808804,851,26070,51423,4840,763,6359,369,6260,2,0,0,0
UY,Uruguay,country,Latin America and the Caribbean,-32.522779,-55.765835,ES,Spain,country,Europe and Central Asia,40.463667,-3.74922,1989,4114,0,0,124,0,0,0,0,0,168,0,0,0,2230,0,0,0,151,0,1441,0,0,0,0
VE,Venezuela,country,Latin America and the Caribbean,6.42375,-66.58973,ES,Spain,country,Europe and Central Asia,40.463667,-3.74922,1989,4919,0,0,1575,0,0,0,18,901,0,0,0,737,9,0,1625,0,33,0,21,0,0,0,0
BA,Bosnia & Herzegovina,country,Europe and Central Asia,43.915886,17.679076,ES,Spain,country,Europe and Central Asia,40.463667,-3.74922,1989,4038,80,0,0,0,0,0,36,16,0,23,3053,0,0,0,0,0,817,13,0,0,0,0,0
DZ,Algeria,country,Middle East and North Africa,28.033886,1.659626,ES,Spain,country,Europe and Central Asia,40.463667,-3.74922,1990,68,0,0,0,0,0,0,0,67,0,0,0,0,1,0,0,0,0,0,0,0,0,0,0
AR,Argentina,country,Latin America and the Caribbean,-38.416097,-63.616672,ES,Spain,country,Europe and Central Asia,40.463667,-3.74922,1990,670178,52762,0,1753,22123,0,308592,1086,25316,1802,182,238578,223,363,6819,535,0,8659,10,1375,0,0,0,0
AU,Australia,country,East Asia and Pacific,-25.274398,133.775136,ES,Spain,country,Europe and Central Asia,40.463667,-3.74922,1990,37097,12277,0,20,219,0,5,0,0,6384,0,172,0,513,10425,37,0,348,368,6329,0,0,0,0
AT,Austria,country,Europe and Central Asia,47.516231,14.550072,ES,Spain,country,Europe and Central Asia,40.463667,-3.74922,1990,13011,961,942,459,0,24,95,2393,20,0,0,2256,1215,302,1,317,0,37,3075,914,0,0,0,0
BE,Belgium,country,Europe and Central Asia,50.503887,4.469936,ES,Spain,country,Europe and Central Asia,40.463667,-3.74922,1990,225600,4911,90621,718,183,35,773,17167,13645,3491,47,11632,1762,5782,21764,3600,59,14034,34534,901,0,0,0,0
BO,Bolivia,country,Latin America and the Caribbean,-16.290154,-63.588653,ES,Spain,country,Europe and Central Asia,40.463667,-3.74922,1990,256,0,0,0,0,0,0,0,0,0,0,0,97,0,0,157,0,0,0,2,0,0,0,0
BW,Botswana,country,Sub-Saharan Africa,-22.328474,24.684866,ES,Spain,country,Europe and Central Asia,40.463667,-3.74922,1990,0,0,0,0,0,0,0,0,0,0,0,0,0,0,0,0,0,0,0,0,0,0,0,0
BR,Brazil,country,Latin America and the Caribbean,-14.235004,-51.92528,ES,Spain,country,Europe and Central Asia,40.463667,-3.74922,1990,1667714,0,0,153,0,165,493534,0,1074,797,970,1097616,44724,13995,181,15,0,13948,22,20,500,0,0,0
CM,Cameroon,country,Sub-Saharan Africa,7.369722,12.354722,ES,Spain,country,Europe and Central Asia,40.463667,-3.74922,1990,24057,0,0,0,0,0,0,0,0,0,0,0,22066,1947,0,0,0,0,0,44,0,0,0,0
CA,Canada,country,North America,56.130366,-106.346771,ES,Spain,country,Europe and Central Asia,40.463667,-3.74922,1990,31667,13297,0,0,11931,0,1181,127,41,34,5,85,0,26,3948,665,35,0,1,326,0,0,0,0
CL,Chile,country,Latin America and the Caribbean,-35.675147,-71.542969,ES,Spain,country,Europe and Central Asia,40.463667,-3.74922,1990,30868,0,0,16,1020,79,0,2266,20479,308,238,5144,14,405,1,117,0,761,0,20,0,0,0,0
HK,Hong Kong,country,East Asia and Pacific,22.396428,114.109497,ES,Spain,country,Europe and Central Asia,40.463667,-3.74922,1990,2862,3,0,0,0,25,330,837,18,259,128,0,0,1176,2,0,0,0,0,84,0,0,0,0
CN,China,country,East Asia and Pacific,35.86166,104.195397,ES,Spain,country,Europe and Central Asia,40.463667,-3.74922,1990,60258,138,30,11,3619,12,9250,650,112,5092,815,38500,672,1197,32,117,0,0,6,5,0,0,0,0
TW,Taiwan,country,East Asia and Pacific,23.69781,120.960515,ES,Spain,country,Europe and Central Asia,40.463667,-3.74922,1990,244,9,2,2,10,2,30,58,14,0,0,0,12,83,0,16,0,0,6,0,0,0,0,0
CO,Colombia,country,Latin America and the Caribbean,4.570868,-74.297333,ES,Spain,country,Europe and Central Asia,40.463667,-3.74922,1990,33198,289,0,2032,0,0,36,0,29,2474,0,0,20250,7941,0,108,0,39,0,0,0,0,0,0
CY,Cyprus,country,Europe and Central Asia,35.126413,33.429859,ES,Spain,country,Europe and Central Asia,40.463667,-3.74922,1990,245,0,0,0,0,0,0,0,40,0,0,0,7,8,0,0,0,0,0,190,0,0,0,0
DK,Denmark,country,Europe and Central Asia,56.26392,9.501785,ES,Spain,country,Europe and Central Asia,40.463667,-3.74922,1990,67769,4471,1983,224,0,0,163,459,512,0,0,28271,185,6194,1196,4299,0,14726,4167,772,147,0,0,0
EC,Ecuador,country,Latin America and the Caribbean,-1.831239,-78.183406,ES,Spain,country,Europe and Central Asia,40.463667,-3.74922,1990,1909,28,0,0,0,0,0,92,185,288,0,0,1293,23,0,0,0,0,0,0,0,0,0,0
EG,Egypt,country,Middle East and North Africa,26.820553,30.802498,ES,Spain,country,Europe and Central Asia,40.463667,-3.74922,1990,9647,200,8006,0,128,0,12,392,2,780,101,0,0,25,0,0,0,1,0,0,0,0,0,0
ET,Ethiopia,country,Sub-Saharan Africa,9.145,40.489673,ES,Spain,country,Europe and Central Asia,40.463667,-3.74922,1990,222,0,0,0,0,0,0,0,0,200,0,0,0,0,0,0,0,0,0,22,0,0,0,0
FI,Finland,country,Europe and Central Asia,61.92411,25.748151,ES,Spain,country,Europe and Central Asia,40.463667,-3.74922,1990,12093,13,0,8892,0,0,0,17,0,0,0,21,5,0,420,419,0,460,1643,203,0,0,0,0
FR,France,country,Europe and Central Asia,46.227638,2.213749,ES,Spain,country,Europe and Central Asia,40.463667,-3.74922,1990,1757871,596028,112865,165054,120276,695,43666,49944,109074,5938,269,127370,7166,28544,126260,33577,6215,48280,169992,11583,1290,0,0,0
GR,Greece,country,Europe and Central Asia,39.074208,21.824312,ES,Spain,country,Europe and Central Asia,40.463667,-3.74922,1990,14692,15,2,9,0,0,22,9,2644,946,1,9343,6,861,0,3,0,4,8,819,0,0,0,0
GL,Greenland,country,Europe and Central Asia,71.706936,-42.604303,ES,Spain,country,Europe and Central Asia,40.463667,-3.74922,1990,0,0,0,0,0,0,0,0,0,0,0,0,0,0,0,0,0,0,0,0,0,0,0,0
GT,Guatemala,country,Latin America and the Caribbean,15.783471,-90.230759,ES,Spain,country,Europe and Central Asia,40.463667,-3.74922,1990,1026,0,0,0,0,0,20,0,0,403,0,0,599,4,0,0,0,0,0,0,0,0,0,0
IS,Iceland,country,Europe and Central Asia,64.963051,-19.020835,ES,Spain,country,Europe and Central Asia,40.463667,-3.74922,1990,2,0,0,0,0,0,0,0,0,0,0,0,0,2,0,0,0,0,0,0,0,0,0,0
IN,India,country,South Asia,20.593684,78.96288,ES,Spain,country,Europe and Central Asia,40.463667,-3.74922,1990,15786,45,0,400,0,104,17,74,18,2657,263,8960,633,2428,171,0,0,16,0,0,0,0,0,0
ID,Indonesia,country,East Asia and Pacific,-0.789275,113.921327,ES,Spain,country,Europe and Central Asia,40.463667,-3.74922,1990,140248,0,74969,44,0,0,0,0,678,33,450,0,5165,30927,27898,0,0,84,0,0,0,0,0,0
IE,Ireland,country,Europe and Central Asia,53.41291,-8.24389,ES,Spain,country,Europe and Central Asia,40.463667,-3.74922,1990,24482,4941,3913,551,21,0,0,0,135,0,0,2055,23,433,257,5629,0,2386,2113,2025,0,0,0,0
IT,Italy,country,Europe and Central Asia,41.87194,12.56738,ES,Spain,country,Europe and Central Asia,40.463667,-3.74922,1990,219674,59388,116,5263,120,720,30400,3050,38608,573,59,4310,2883,23250,38025,3930,62,6121,1531,1155,172,0,0,0
JP,Japan,country,East Asia and Pacific,36.204824,138.252924,ES,Spain,country,Europe and Central Asia,40.463667,-3.74922,1990,702,70,0,0,0,0,52,7,3,368,0,27,2,62,2,109,0,0,0,0,0,0,0,0
JO,Jordan,country,Middle East and North Africa,30.585164,36.238414,ES,Spain,country,Europe and Central Asia,40.463667,-3.74922,1990,12,0,0,0,0,0,0,0,12,0,0,0,0,0,0,0,0,0,0,0,0,0,0,0
KE,Kenya,country,Sub-Saharan Africa,-0.023559,37.906193,ES,Spain,country,Europe and Central Asia,40.463667,-3.74922,1990,7388,0,0,0,0,0,0,2,5909,0,0,0,1477,0,0,0,0,0,0,0,0,0,0,0
LY,Libya,country,Middle East and North Africa,26.3351,17.228331,ES,Spain,country,Europe and Central Asia,40.463667,-3.74922,1990,774,0,0,0,0,0,0,0,0,130,0,0,0,0,0,0,0,0,0,644,0,0,0,0
MG,Madagascar,country,Sub-Saharan Africa,-18.766947,46.869107,ES,Spain,country,Europe and Central Asia,40.463667,-3.74922,1990,1258,0,0,0,0,120,15,1,2,0,53,0,1064,1,0,1,0,0,1,0,0,0,0,0
MY,Malaysia,country,East Asia and Pacific,4.210484,101.975766,ES,Spain,country,Europe and Central Asia,40.463667,-3.74922,1990,110234,12,0,487,0,0,49,0,251,0,219,0,4040,27065,78090,0,0,21,0,0,0,0,0,0
MU,Mauritius,country,Sub-Saharan Africa,-20.348404,57.552152,ES,Spain,country,Europe and Central Asia,40.463667,-3.74922,1990,33,0,0,23,0,0,0,0,1,0,0,0,0,9,0,0,0,0,0,0,0,0,0,0
MX,Mexico,country,Latin America and the Caribbean,23.634501,-102.552784,ES,Spain,country,Europe and Central Asia,40.463667,-3.74922,1990,24405,0,0,0,22594,0,72,165,76,0,10,0,854,101,23,499,0,0,11,0,0,0,0,0
NL,Netherlands,country,Europe and Central Asia,52.132633,5.291266,ES,Spain,country,Europe and Central Asia,40.463667,-3.74922,1990,477696,6952,117202,4834,1136,279,2084,73111,35536,21,634,16817,4956,32017,15624,61295,3151,55644,47993,1561,0,0,0,0
NZ,New Zealand,country,East Asia and Pacific,-40.900557,174.885971,ES,Spain,country,Europe and Central Asia,40.463667,-3.74922,1990,19690,0,0,0,382,0,0,25,3261,595,0,0,0,362,4039,16,0,10536,449,25,0,0,0,0
NO,Norway,country,Europe and Central Asia,60.472024,8.468946,ES,Spain,country,Europe and Central Asia,40.463667,-3.74922,1990,2552,27,0,12,0,0,0,38,2,0,0,13,1,42,4,75,0,121,877,1340,0,0,0,0
PK,Pakistan,country,South Asia,30.375321,69.345116,ES,Spain,country,Europe and Central Asia,40.463667,-3.74922,1990,11698,0,0,0,0,0,0,0,0,11687,11,0,0,0,0,0,0,0,0,0,0,0,0,0
PA,Panama,country,Latin America and the Caribbean,8.537981,-80.782127,ES,Spain,country,Europe and Central Asia,40.463667,-3.74922,1990,36,0,0,0,0,0,0,0,0,0,0,0,36,0,0,0,0,0,0,0,0,0,0,0
PY,Paraguay,country,Latin America and the Caribbean,-23.442503,-58.443832,ES,Spain,country,Europe and Central Asia,40.463667,-3.74922,1990,10773,0,0,0,0,0,0,0,0,5371,0,0,3708,590,0,0,0,1104,0,0,0,0,0,0
PE,Peru,country,Latin America and the Caribbean,-9.189967,-75.015152,ES,Spain,country,Europe and Central Asia,40.463667,-3.74922,1990,3342,891,0,0,171,0,0,192,14,150,36,382,1365,111,0,30,0,0,0,0,0,0,0,0
PH,Philippines,country,East Asia and Pacific,12.879721,121.774017,ES,Spain,country,Europe and Central Asia,40.463667,-3.74922,1990,21586,4,0,0,0,0,210,23,4181,0,0,0,354,2061,14753,0,0,0,0,0,0,0,0,0
PT,Portugal,country,Europe and Central Asia,39.399872,-8.224454,ES,Spain,country,Europe and Central Asia,40.463667,-3.74922,1990,141608,2627,378,6597,0,6554,2753,3998,1035,1278,2,71760,1793,2749,11124,5746,11123,569,18956,623,3066,0,0,0
KR,"Korea, Rep.",country,East Asia and Pacific,35.907757,127.766922,ES,Spain,country,Europe and Central Asia,40.463667,-3.74922,1990,1473,25,0,35,0,0,26,387,0,0,29,0,5,887,0,79,0,0,0,0,0,0,0,0
SN,Senegal,country,Sub-Saharan Africa,14.497401,-14.452362,ES,Spain,country,Europe and Central Asia,40.463667,-3.74922,1990,16054,0,0,0,0,0,0,0,0,800,0,15178,0,0,0,0,0,0,0,76,0,0,0,0
SG,Singapore,country,East Asia and Pacific,1.352083,103.819836,ES,Spain,country,Europe and Central Asia,40.463667,-3.74922,1990,4513,11,0,0,0,0,301,181,235,30,834,0,2250,28,626,8,0,9,0,0,0,0,0,0
LK,Sri Lanka,country,South Asia,7.873054,80.771797,ES,Spain,country,Europe and Central Asia,40.463667,-3.74922,1990,7205,0,0,0,0,0,4100,37,0,0,375,20,104,2569,0,0,0,0,0,0,0,0,0,0
SR,Suriname,country,Latin America and the Caribbean,3.919305,-56.027783,ES,Spain,country,Europe and Central Asia,40.463667,-3.74922,1990,9315,9315,0,0,0,0,0,0,0,0,0,0,0,0,0,0,0,0,0,0,0,0,0,0
SE,Sweden,country,Europe and Central Asia,60.128161,18.643501,ES,Spain,country,Europe and Central Asia,40.463667,-3.74922,1990,10095,908,0,45,0,0,3,4028,24,0,2,0,220,468,1488,501,0,2130,127,151,0,0,0,0
CH,Switzerland,country,Europe and Central Asia,46.818188,8.227512,ES,Spain,country,Europe and Central Asia,40.463667,-3.74922,1990,7290,433,0,298,2,16,3,223,19,721,0,266,874,2294,95,314,0,30,1466,236,0,0,0,0
TH,Thailand,country,East Asia and Pacific,15.870032,100.992541,ES,Spain,country,Europe and Central Asia,40.463667,-3.74922,1990,622959,1674,515555,64250,196,0,0,229,19360,0,278,910,40,19759,0,0,0,708,0,0,0,0,0,0
TT,Trinidad and Tobago,country,Latin America and the Caribbean,10.691803,-61.222503,ES,Spain,country,Europe and Central Asia,40.463667,-3.74922,1990,790,0,0,0,0,0,0,0,0,0,0,0,0,0,0,790,0,0,0,0,0,0,0,0
TN,Tunisia,country,Middle East and North Africa,33.886917,9.537499,ES,Spain,country,Europe and Central Asia,40.463667,-3.74922,1990,4505,0,234,0,0,0,0,13,1729,73,3,0,0,2418,0,0,0,0,0,15,20,0,0,0
TR,Turkey,country,Europe and Central Asia,38.963745,35.243322,ES,Spain,country,Europe and Central Asia,40.463667,-3.74922,1990,35399,26,0,0,18569,2414,396,662,6116,6008,250,0,0,956,0,0,0,2,0,0,0,0,0,0
GB,United Kingdom,country,Europe and Central Asia,55.378051,-3.435973,ES,Spain,country,Europe and Central Asia,40.463667,-3.74922,1990,667693,434300,56331,2740,4263,180,165,17195,924,2438,133,11279,9147,6991,4977,63155,261,20671,4241,28563,0,0,0,0
US,USA,country,North America,37.09024,-95.712891,ES,Spain,country,Europe and Central Asia,40.463667,-3.74922,1990,4500022,2080650,20,17426,17851,19132,1330130,1474,4041,32075,34,896862,551,25756,52348,3079,467,11764,82,6728,19,0,0,0
UY,Uruguay,country,Latin America and the Caribbean,-32.522779,-55.765835,ES,Spain,country,Europe and Central Asia,40.463667,-3.74922,1990,2071,0,0,129,0,0,8,0,0,207,0,50,2,8,0,0,0,366,13,1288,0,0,0,0
VE,Venezuela,country,Latin America and the Caribbean,6.42375,-66.58973,ES,Spain,country,Europe and Central Asia,40.463667,-3.74922,1990,5063,131,0,0,0,0,0,0,1348,2483,0,0,0,0,0,1101,0,0,0,0,0,0,0,0
BA,Bosnia & Herzegovina,country,Europe and Central Asia,43.915886,17.679076,ES,Spain,country,Europe and Central Asia,40.463667,-3.74922,1990,3403,38,0,0,0,0,0,16,106,0,44,2005,0,26,0,0,0,1121,47,0,0,0,0,0
ZW,Zimbabwe,country,Sub-Saharan Africa,-19.015438,29.154857,ES,Spain,country,Europe and Central Asia,40.463667,-3.74922,1990,5657,20,0,0,0,0,0,0,0,3240,0,0,18,836,0,0,0,1524,0,19,0,0,0,0
DZ,Algeria,country,Middle East and North Africa,28.033886,1.659626,ES,Spain,country,Europe and Central Asia,40.463667,-3.74922,1991,557,0,0,0,0,0,0,0,557,0,0,0,0,0,0,0,0,0,0,0,0,0,0,0
AR,Argentina,country,Latin America and the Caribbean,-38.416097,-63.616672,ES,Spain,country,Europe and Central Asia,40.463667,-3.74922,1991,1298234,29102,0,2624,35991,0,506625,2372,14857,7465,202,680907,124,1148,9096,73,0,7056,18,574,0,0,0,0
AU,Australia,country,East Asia and Pacific,-25.274398,133.775136,ES,Spain,country,Europe and Central Asia,40.463667,-3.74922,1991,28022,253,0,82,596,7,55,0,318,16011,0,1070,0,0,1651,48,0,508,143,7280,0,0,0,0
AT,Austria,country,Europe and Central Asia,47.516231,14.550072,ES,Spain,country,Europe and Central Asia,40.463667,-3.74922,1991,8771,456,1012,188,0,5,70,150,577,80,0,183,1066,14,51,420,0,173,3829,497,0,0,0,0
BE,Belgium,country,Europe and Central Asia,50.503887,4.469936,ES,Spain,country,Europe and Central Asia,40.463667,-3.74922,1991,324424,7451,148939,835,246,80,597,30349,8404,4050,10,7439,2215,6751,35963,5451,72,18681,46330,609,24,0,0,0
BO,Bolivia,country,Latin America and the Caribbean,-16.290154,-63.588653,ES,Spain,country,Europe and Central Asia,40.463667,-3.74922,1991,226,0,0,0,0,0,0,0,0,0,0,0,215,6,0,0,0,0,0,5,0,0,0,0
BW,Botswana,country,Sub-Saharan Africa,-22.328474,24.684866,ES,Spain,country,Europe and Central Asia,40.463667,-3.74922,1991,0,0,0,0,0,0,0,0,0,0,0,0,0,0,0,0,0,0,0,0,0,0,0,0
BR,Brazil,country,Latin America and the Caribbean,-14.235004,-51.92528,ES,Spain,country,Europe and Central Asia,40.463667,-3.74922,1991,1479833,0,0,90,2,176,367288,0,1201,166,1456,1024797,58501,11729,1055,62,0,13299,11,0,0,0,0,0
CM,Cameroon,country,Sub-Saharan Africa,7.369722,12.354722,ES,Spain,country,Europe and Central Asia,40.463667,-3.74922,1991,7506,0,0,0,0,0,0,0,0,0,0,0,6591,898,0,0,0,0,0,17,0,0,0,0
CA,Canada,country,North America,56.130366,-106.346771,ES,Spain,country,Europe and Central Asia,40.463667,-3.74922,1991,58619,9531,0,36,43318,20,1431,221,73,11,0,199,0,14,3685,2,5,0,1,77,0,0,0,0
CL,Chile,country,Latin America and the Caribbean,-35.675147,-71.542969,ES,Spain,country,Europe and Central Asia,40.463667,-3.74922,1991,55119,0,0,134,794,2,1,2488,42045,4,0,7625,3,641,2,133,0,1246,0,1,0,0,0,0
HK,Hong Kong,country,East Asia and Pacific,22.396428,114.109497,ES,Spain,country,Europe and Central Asia,40.463667,-3.74922,1991,2683,36,0,0,0,10,454,560,0,170,80,0,16,1346,3,8,0,0,0,0,0,0,0,0
CN,China,country,East Asia and Pacific,35.86166,104.195397,ES,Spain,country,Europe and Central Asia,40.463667,-3.74922,1991,18368,173,1,357,20,192,5646,976,72,7387,26,1542,720,966,15,242,0,0,33,0,0,0,0,0
TW,Taiwan,country,East Asia and Pacific,23.69781,120.960515,ES,Spain,country,Europe and Central Asia,40.463667,-3.74922,1991,365,12,0,0,0,0,25,162,37,0,0,0,11,95,0,23,0,0,0,0,0,0,0,0
CO,Colombia,country,Latin America and the Caribbean,4.570868,-74.297333,ES,Spain,country,Europe and Central Asia,40.463667,-3.74922,1991,37888,100,0,134,0,0,18,0,2096,6297,0,0,20051,9173,0,19,0,0,0,0,0,0,0,0
CR,Costa Rica,country,Latin America and the Caribbean,9.748917,-83.753428,ES,Spain,country,Europe and Central Asia,40.463667,-3.74922,1991,3852,0,62,0,0,0,44,422,229,0,19,0,3072,4,0,0,0,0,0,0,0,0,0,0
DK,Denmark,country,Europe and Central Asia,56.26392,9.501785,ES,Spain,country,Europe and Central Asia,40.463667,-3.74922,1991,141913,93834,1189,247,0,0,152,489,729,0,2,8525,1232,4429,3047,3171,0,17036,6746,1085,0,0,0,0
EC,Ecuador,country,Latin America and the Caribbean,-1.831239,-78.183406,ES,Spain,country,Europe and Central Asia,40.463667,-3.74922,1991,4536,0,0,0,0,0,0,171,2780,45,0,0,1493,47,0,0,0,0,0,0,0,0,0,0
EG,Egypt,country,Middle East and North Africa,26.820553,30.802498,ES,Spain,country,Europe and Central Asia,40.463667,-3.74922,1991,56929,0,3,56440,0,0,16,112,60,207,80,0,0,11,0,0,0,0,0,0,0,0,0,0
SV,El Salvador,country,Latin America and the Caribbean,13.794185,-88.89653,ES,Spain,country,Europe and Central Asia,40.463667,-3.74922,1991,1619,0,0,0,0,0,0,0,0,0,0,0,1619,0,0,0,0,0,0,0,0,0,0,0
FI,Finland,country,Europe and Central Asia,61.92411,25.748151,ES,Spain,country,Europe and Central Asia,40.463667,-3.74922,1991,10044,12,0,6967,0,0,0,0,0,0,0,20,12,1,560,164,0,636,1577,95,0,0,0,0
FR,France,country,Europe and Central Asia,46.227638,2.213749,ES,Spain,country,Europe and Central Asia,40.463667,-3.74922,1991,2504081,1160795,162641,204479,130441,705,22493,58364,98860,10561,78,146930,8449,33090,138038,35027,8241,57979,218476,14340,2335,0,0,0
DE,Germany,country,Europe and Central Asia,51.165691,10.451526,ES,Spain,country,Europe and Central Asia,40.463667,-3.74922,1991,292812,33471,8507,52092,545,2023,2923,5564,3288,1814,205,14513,10260,7364,47866,54493,113,5694,37864,4284,42,0,0,0
GR,Greece,country,Europe and Central Asia,39.074208,21.824312,ES,Spain,country,Europe and Central Asia,40.463667,-3.74922,1991,22368,11847,1,514,0,0,0,76,5239,1933,2,0,5,327,1371,19,0,0,186,848,0,0,0,0
GT,Guatemala,country,Latin America and the Caribbean,15.783471,-90.230759,ES,Spain,country,Europe and Central Asia,40.463667,-3.74922,1991,780,0,0,3,0,0,20,0,12,0,2,0,694,1,0,48,0,0,0,0,0,0,0,0
HN,Honduras,country,Latin America and the Caribbean,15.199999,-86.241905,ES,Spain,country,Europe and Central Asia,40.463667,-3.74922,1991,11837,0,0,0,0,0,0,0,9109,0,0,0,2728,0,0,0,0,0,0,0,0,0,0,0
HU,Hungary,country,Europe and Central Asia,47.162494,19.503304,ES,Spain,country,Europe and Central Asia,40.463667,-3.74922,1991,29034,159,0,20,307,0,760,1524,869,556,0,35,496,1,8,14,28,15032,9134,119,0,0,0,0
IN,India,country,South Asia,20.593684,78.96288,ES,Spain,country,Europe and Central Asia,40.463667,-3.74922,1991,72960,138,0,0,0,156,122,86,20,64634,316,6395,1004,18,71,0,0,0,0,0,0,0,0,0
ID,Indonesia,country,East Asia and Pacific,-0.789275,113.921327,ES,Spain,country,Europe and Central Asia,40.463667,-3.74922,1991,169378,0,66813,0,0,0,0,0,1920,6,169,6035,2100,27557,64758,0,0,20,0,0,0,0,0,0
IE,Ireland,country,Europe and Central Asia,53.41291,-8.24389,ES,Spain,country,Europe and Central Asia,40.463667,-3.74922,1991,33306,8968,3195,424,18,0,0,37,11,0,0,3143,49,695,335,6370,0,5182,3698,1181,0,0,0,0
IT,Italy,country,Europe and Central Asia,41.87194,12.56738,ES,Spain,country,Europe and Central Asia,40.463667,-3.74922,1991,191436,20502,234,10348,212,764,31025,3333,43981,1159,41,5659,3114,23737,33679,5160,38,4858,2230,1345,55,0,0,0
JP,Japan,country,East Asia and Pacific,36.204824,138.252924,ES,Spain,country,Europe and Central Asia,40.463667,-3.74922,1991,1861,112,0,38,0,0,49,6,2,1260,0,238,0,74,0,82,0,0,0,0,0,0,0,0
JO,Jordan,country,Middle East and North Africa,30.585164,36.238414,ES,Spain,country,Europe and Central Asia,40.463667,-3.74922,1991,20,0,0,0,0,0,0,0,0,0,0,0,0,0,0,0,0,20,0,0,0,0,0,0
KE,Kenya,country,Sub-Saharan Africa,-0.023559,37.906193,ES,Spain,country,Europe and Central Asia,40.463667,-3.74922,1991,14991,0,0,0,0,0,0,15,11290,0,0,0,3651,35,0,0,0,0,0,0,0,0,0,0
LY,Libya,country,Middle East and North Africa,26.3351,17.228331,ES,Spain,country,Europe and Central Asia,40.463667,-3.74922,1991,117,0,0,0,0,0,0,1,0,99,0,0,0,0,0,0,0,0,0,17,0,0,0,0
MG,Madagascar,country,Sub-Saharan Africa,-18.766947,46.869107,ES,Spain,country,Europe and Central Asia,40.463667,-3.74922,1991,1422,3,0,399,188,0,0,0,0,0,111,0,672,49,0,0,0,0,0,0,0,0,0,0
MY,Malaysia,country,East Asia and Pacific,4.210484,101.975766,ES,Spain,country,Europe and Central Asia,40.463667,-3.74922,1991,117880,6,0,3,0,0,221,19,298,0,166,50,2337,22627,91998,126,0,0,0,0,29,0,0,0
MU,Mauritius,country,Sub-Saharan Africa,-20.348404,57.552152,ES,Spain,country,Europe and Central Asia,40.463667,-3.74922,1991,26075,0,0,26042,0,0,0,0,0,27,0,0,0,6,0,0,0,0,0,0,0,0,0,0
MX,Mexico,country,Latin America and the Caribbean,23.634501,-102.552784,ES,Spain,country,Europe and Central Asia,40.463667,-3.74922,1991,20888,31,0,37,19113,0,35,406,143,0,0,0,581,260,0,277,0,4,1,0,0,0,0,0
MA,Morocco,country,Middle East and North Africa,31.791702,-7.09262,ES,Spain,country,Europe and Central Asia,40.463667,-3.74922,1991,23775,0,1467,15,22,64,92,14436,3667,343,1557,237,0,1360,373,20,0,0,12,110,0,0,0,0
NL,Netherlands,country,Europe and Central Asia,52.132633,5.291266,ES,Spain,country,Europe and Central Asia,40.463667,-3.74922,1991,522368,7745,139009,19729,945,132,7753,69495,26744,38,281,20588,5284,32770,15389,69857,4775,58246,46211,2152,0,0,0,0
NZ,New Zealand,country,East Asia and Pacific,-40.900557,174.885971,ES,Spain,country,Europe and Central Asia,40.463667,-3.74922,1991,21482,0,0,0,917,0,0,20,1735,650,0,0,0,0,8848,23,0,8907,367,15,0,0,0,0
NI,Nicaragua,country,Latin America and the Caribbean,12.865416,-85.207229,ES,Spain,country,Europe and Central Asia,40.463667,-3.74922,1991,1616,0,0,0,0,0,18,0,0,0,0,0,1530,0,0,68,0,0,0,0,0,0,0,0
NO,Norway,country,Europe and Central Asia,60.472024,8.468946,ES,Spain,country,Europe and Central Asia,40.463667,-3.74922,1991,2649,26,0,0,0,0,0,1,2,0,0,0,0,61,17,109,0,190,744,1499,0,0,0,0
PK,Pakistan,country,South Asia,30.375321,69.345116,ES,Spain,country,Europe and Central Asia,40.463667,-3.74922,1991,8612,84,0,0,0,0,0,0,25,8435,46,0,0,22,0,0,0,0,0,0,0,0,0,0
PA,Panama,country,Latin America and the Caribbean,8.537981,-80.782127,ES,Spain,country,Europe and Central Asia,40.463667,-3.74922,1991,18,0,0,0,0,0,0,0,0,0,0,0,18,0,0,0,0,0,0,0,0,0,0,0
PG,Papua New Guinea,country,East Asia and Pacific,-6.314993,143.95555,ES,Spain,country,Europe and Central Asia,40.463667,-3.74922,1991,117,0,0,0,0,0,0,0,0,0,0,0,117,0,0,0,0,0,0,0,0,0,0,0
PY,Paraguay,country,Latin America and the Caribbean,-23.442503,-58.443832,ES,Spain,country,Europe and Central Asia,40.463667,-3.74922,1991,10544,0,0,0,76,0,2000,0,0,3870,0,15,1913,572,0,0,0,2095,0,3,0,0,0,0
PE,Peru,country,Latin America and the Caribbean,-9.189967,-75.015152,ES,Spain,country,Europe and Central Asia,40.463667,-3.74922,1991,4774,1014,0,0,195,0,0,1119,19,511,15,563,1259,79,0,0,0,0,0,0,0,0,0,0
PH,Philippines,country,East Asia and Pacific,12.879721,121.774017,ES,Spain,country,Europe and Central Asia,40.463667,-3.74922,1991,16458,2,0,0,0,0,302,2,4232,74,0,0,165,1881,9800,0,0,0,0,0,0,0,0,0
PT,Portugal,country,Europe and Central Asia,39.399872,-8.224454,ES,Spain,country,Europe and Central Asia,40.463667,-3.74922,1991,232634,11073,1650,1545,1,7220,8528,4076,9944,1973,0,129193,1628,5066,10101,5077,6384,261,32476,855,1967,0,0,0
QA,Qatar,country,Middle East and North Africa,25.354826,51.183884,ES,Spain,country,Europe and Central Asia,40.463667,-3.74922,1991,1,0,0,0,0,0,0,0,0,0,0,0,0,0,1,0,0,0,0,0,0,0,0,0
KR,"Korea, Rep.",country,East Asia and Pacific,35.907757,127.766922,ES,Spain,country,Europe and Central Asia,40.463667,-3.74922,1991,1016,35,0,72,0,0,28,196,0,0,0,0,2,626,0,57,0,0,0,0,0,0,0,0
RE,Reunion,country,Sub-Saharan Africa,-21.115141,55.536384,ES,Spain,country,Europe and Central Asia,40.463667,-3.74922,1991,12485,0,0,12485,0,0,0,0,0,0,0,0,0,0,0,0,0,0,0,0,0,0,0,0
RO,Romania,country,Europe and Central Asia,45.943161,24.96676,ES,Spain,country,Europe and Central Asia,40.463667,-3.74922,1991,370,0,0,0,0,0,0,0,0,0,0,0,0,0,0,0,0,370,0,0,0,0,0,0
SN,Senegal,country,Sub-Saharan Africa,14.497401,-14.452362,ES,Spain,country,Europe and Central Asia,40.463667,-3.74922,1991,9172,0,0,0,0,0,0,0,0,0,0,9120,0,0,0,0,0,0,0,52,0,0,0,0
SG,Singapore,country,East Asia and Pacific,1.352083,103.819836,ES,Spain,country,Europe and Central Asia,40.463667,-3.74922,1991,19789,6,0,1,0,0,537,56,380,0,1339,0,2024,15349,94,3,0,0,0,0,0,0,0,0
LK,Sri Lanka,country,South Asia,7.873054,80.771797,ES,Spain,country,Europe and Central Asia,40.463667,-3.74922,1991,9672,0,0,0,0,0,4963,64,16,0,456,0,92,4081,0,0,0,0,0,0,0,0,0,0
SE,Sweden,country,Europe and Central Asia,60.128161,18.643501,ES,Spain,country,Europe and Central Asia,40.463667,-3.74922,1991,14171,748,21,5196,1,0,0,4856,36,10,3,0,921,568,460,291,7,639,227,194,0,0,0,0
CH,Switzerland,country,Europe and Central Asia,46.818188,8.227512,ES,Spain,country,Europe and Central Asia,40.463667,-3.74922,1991,10998,397,7,257,4,0,3,2,122,658,0,461,1283,2988,1157,224,0,0,2097,1338,0,0,0,0
TH,Thailand,country,East Asia and Pacific,15.870032,100.992541,ES,Spain,country,Europe and Central Asia,40.463667,-3.74922,1991,792711,8878,611695,120208,224,0,8,339,31618,0,101,704,1151,17340,0,0,0,445,0,0,0,0,0,0
TT,Trinidad and Tobago,country,Latin America and the Caribbean,10.691803,-61.222503,ES,Spain,country,Europe and Central Asia,40.463667,-3.74922,1991,2340,0,0,0,0,0,0,0,0,0,0,0,0,0,0,2340,0,0,0,0,0,0,0,0
TN,Tunisia,country,Middle East and North Africa,33.886917,9.537499,ES,Spain,country,Europe and Central Asia,40.463667,-3.74922,1991,41783,0,0,0,0,0,0,27,1170,263,0,0,0,2323,38000,0,0,0,0,0,0,0,0,0
TR,Turkey,country,Europe and Central Asia,38.963745,35.243322,ES,Spain,country,Europe and Central Asia,40.463667,-3.74922,1991,59917,10511,0,4197,26248,2915,270,334,6808,5245,452,0,10,1823,1076,0,0,0,28,0,0,0,0,0
GB,United Kingdom,country,Europe and Central Asia,55.378051,-3.435973,ES,Spain,country,Europe and Central Asia,40.463667,-3.74922,1991,1298313,1041296,52999,2314,15538,738,118,19878,1171,2324,136,8684,9348,8734,5396,72894,192,22139,5982,28624,0,0,0,0
US,USA,country,North America,37.09024,-95.712891,ES,Spain,country,Europe and Central Asia,40.463667,-3.74922,1991,4241995,1582158,508,9830,19650,20062,1486485,2575,6674,26228,75,962980,160,26498,77832,3483,584,14919,230,1645,3,0,0,0
UY,Uruguay,country,Latin America and the Caribbean,-32.522779,-55.765835,ES,Spain,country,Europe and Central Asia,40.463667,-3.74922,1991,1534,365,0,222,0,0,0,0,22,387,0,0,0,0,0,0,0,274,13,251,0,0,0,0
VE,Venezuela,country,Latin America and the Caribbean,6.42375,-66.58973,ES,Spain,country,Europe and Central Asia,40.463667,-3.74922,1991,3765,507,0,31,0,0,0,1,951,356,0,0,30,10,0,1832,0,47,0,0,0,0,0,0
ZW,Zimbabwe,country,Sub-Saharan Africa,-19.015438,29.154857,ES,Spain,country,Europe and Central Asia,40.463667,-3.74922,1991,5733,80,0,0,0,0,0,0,0,3564,194,0,0,1659,0,0,0,216,0,20,0,0,0,0
DZ,Algeria,country,Middle East and North Africa,28.033886,1.659626,ES,Spain,country,Europe and Central Asia,40.463667,-3.74922,1992,823,0,0,0,0,0,0,0,705,0,0,102,0,0,0,16,0,0,0,0,0,0,0,0
AR,Argentina,country,Latin America and the Caribbean,-38.416097,-63.616672,ES,Spain,country,Europe and Central Asia,40.463667,-3.74922,1992,1005400,102181,0,7840,32828,0,257026,3029,20725,3876,2,565702,140,824,6116,219,0,4569,26,297,0,0,0,0
AU,Australia,country,East Asia and Pacific,-25.274398,133.775136,ES,Spain,country,Europe and Central Asia,40.463667,-3.74922,1992,140574,830,0,0,113546,2,258,0,101,16059,20,3520,0,30,0,48,0,346,96,5718,0,0,0,0
AT,Austria,country,Europe and Central Asia,47.516231,14.550072,ES,Spain,country,Europe and Central Asia,40.463667,-3.74922,1992,8627,382,414,349,0,47,225,155,446,0,0,186,1219,74,2,222,0,0,4608,298,0,0,0,0
BB,Barbados,country,Latin America and the Caribbean,13.193887,-59.543198,ES,Spain,country,Europe and Central Asia,40.463667,-3.74922,1992,9,0,0,0,0,0,0,0,0,0,0,0,0,0,0,9,0,0,0,0,0,0,0,0
BE,Belgium,country,Europe and Central Asia,50.503887,4.469936,ES,Spain,country,Europe and Central Asia,40.463667,-3.74922,1992,245940,9618,68621,7078,462,130,333,27437,8962,3450,3,6677,2915,3145,14584,15128,253,21213,55084,1100,0,0,0,0
BJ,Benin,country,Sub-Saharan Africa,9.30769,2.315834,ES,Spain,country,Europe and Central Asia,40.463667,-3.74922,1992,14392,59,0,0,0,0,12688,0,0,0,0,1645,0,0,0,0,0,0,0,0,0,0,0,0
BO,Bolivia,country,Latin America and the Caribbean,-16.290154,-63.588653,ES,Spain,country,Europe and Central Asia,40.463667,-3.74922,1992,360,0,0,0,0,0,0,0,0,1,0,0,355,0,0,0,0,0,0,4,0,0,0,0
BW,Botswana,country,Sub-Saharan Africa,-22.328474,24.684866,ES,Spain,country,Europe and Central Asia,40.463667,-3.74922,1992,0,0,0,0,0,0,0,0,0,0,0,0,0,0,0,0,0,0,0,0,0,0,0,0
BR,Brazil,country,Latin America and the Caribbean,-14.235004,-51.92528,ES,Spain,country,Europe and Central Asia,40.463667,-3.74922,1992,1558801,53,11360,22,0,202,610871,166,2723,602,435,831890,49731,14615,8089,201,0,27838,3,0,0,0,0,0
CA,Canada,country,North America,56.130366,-106.346771,ES,Spain,country,Europe and Central Asia,40.463667,-3.74922,1992,94991,10376,15,29,77115,0,409,77,43,0,0,218,3,1194,5284,92,0,25,47,64,0,0,0,0
CL,Chile,country,Latin America and the Caribbean,-35.675147,-71.542969,ES,Spain,country,Europe and Central Asia,40.463667,-3.74922,1992,110506,89,0,20,3657,2,13,2265,65809,129,0,36339,27,781,390,434,0,550,1,0,0,0,0,0
HK,Hong Kong,country,East Asia and Pacific,22.396428,114.109497,ES,Spain,country,Europe and Central Asia,40.463667,-3.74922,1992,3478,0,2,0,0,29,343,1748,22,132,96,0,22,1060,24,0,0,0,0,0,0,0,0,0
CN,China,country,East Asia and Pacific,35.86166,104.195397,ES,Spain,country,Europe and Central Asia,40.463667,-3.74922,1992,22799,266,0,2159,72,141,5953,1300,394,8045,58,1445,640,1985,50,291,0,0,0,0,0,0,0,0
TW,Taiwan,country,East Asia and Pacific,23.69781,120.960515,ES,Spain,country,Europe and Central Asia,40.463667,-3.74922,1992,242,2,0,3,4,2,56,34,12,0,0,0,0,110,0,19,0,0,0,0,0,0,0,0
CO,Colombia,country,Latin America and the Caribbean,4.570868,-74.297333,ES,Spain,country,Europe and Central Asia,40.463667,-3.74922,1992,45655,64,1,241,0,0,33,34,261,5971,3,0,28548,10360,100,36,0,3,0,0,0,0,0,0
CR,Costa Rica,country,Latin America and the Caribbean,9.748917,-83.753428,ES,Spain,country,Europe and Central Asia,40.463667,-3.74922,1992,3395,0,0,0,0,0,0,370,171,0,0,0,2854,0,0,0,0,0,0,0,0,0,0,0
HR,Croatia,country,Europe and Central Asia,45.1,15.2,ES,Spain,country,Europe and Central Asia,40.463667,-3.74922,1992,29,0,0,0,0,0,0,0,0,0,0,0,0,0,0,0,0,0,29,0,0,0,0,0
DK,Denmark,country,Europe and Central Asia,56.26392,9.501785,ES,Spain,country,Europe and Central Asia,40.463667,-3.74922,1992,77930,39485,2476,147,2,0,141,132,752,3,1,2804,900,1069,2259,2218,0,17037,7697,807,0,0,0,0
EC,Ecuador,country,Latin America and the Caribbean,-1.831239,-78.183406,ES,Spain,country,Europe and Central Asia,40.463667,-3.74922,1992,3274,4,0,0,0,0,0,0,270,270,0,0,2730,0,0,0,0,0,0,0,0,0,0,0
EG,Egypt,country,Middle East and North Africa,26.820553,30.802498,ES,Spain,country,Europe and Central Asia,40.463667,-3.74922,1992,68996,0,1100,67410,38,0,0,63,0,212,130,0,0,43,0,0,0,0,0,0,0,0,0,0
SV,El Salvador,country,Latin America and the Caribbean,13.794185,-88.89653,ES,Spain,country,Europe and Central Asia,40.463667,-3.74922,1992,987,0,0,0,0,0,0,0,0,0,0,0,987,0,0,0,0,0,0,0,0,0,0,0
ET,Ethiopia,country,Sub-Saharan Africa,9.145,40.489673,ES,Spain,country,Europe and Central Asia,40.463667,-3.74922,1992,2,0,0,0,0,0,0,0,0,0,0,0,0,0,0,0,0,0,0,2,0,0,0,0
FI,Finland,country,Europe and Central Asia,61.92411,25.748151,ES,Spain,country,Europe and Central Asia,40.463667,-3.74922,1992,6392,24,0,3625,0,0,0,0,0,0,0,39,17,0,494,171,0,505,1470,47,0,0,0,0
FR,France,country,Europe and Central Asia,46.227638,2.213749,ES,Spain,country,Europe and Central Asia,40.463667,-3.74922,1992,2749923,1331547,174721,278975,18823,1021,85794,65743,99249,9632,44,169733,9200,15074,113426,42212,10812,65197,256149,12041,1342,0,0,0
DE,Germany,country,Europe and Central Asia,51.165691,10.451526,ES,Spain,country,Europe and Central Asia,40.463667,-3.74922,1992,316732,49830,7452,79449,376,1107,614,6110,4347,2237,425,9556,11693,11044,25639,54250,113,7288,41165,4087,63,0,0,0
GR,Greece,country,Europe and Central Asia,39.074208,21.824312,ES,Spain,country,Europe and Central Asia,40.463667,-3.74922,1992,66276,2581,0,295,0,0,3023,87,3386,1306,3,27735,6,1296,25025,5,0,10,171,1347,0,0,0,0
GT,Guatemala,country,Latin America and the Caribbean,15.783471,-90.230759,ES,Spain,country,Europe and Central Asia,40.463667,-3.74922,1992,2903,0,0,792,0,0,20,0,1,0,0,0,1892,180,0,18,0,0,0,0,0,0,0,0
HN,Honduras,country,Latin America and the Caribbean,15.199999,-86.241905,ES,Spain,country,Europe and Central Asia,40.463667,-3.74922,1992,3042,0,35,0,0,0,0,0,119,0,0,0,2874,14,0,0,0,0,0,0,0,0,0,0
HU,Hungary,country,Europe and Central Asia,47.162494,19.503304,ES,Spain,country,Europe and Central Asia,40.463667,-3.74922,1992,23418,746,0,31,7222,0,909,1102,152,380,0,1,35,0,246,160,0,10262,2149,23,0,0,0,0
IN,India,country,South Asia,20.593684,78.96288,ES,Spain,country,Europe and Central Asia,40.463667,-3.74922,1992,20136,214,0,17941,0,398,140,665,15,27,236,0,340,37,123,0,0,0,0,0,0,0,0,0
ID,Indonesia,country,East Asia and Pacific,-0.789275,113.921327,ES,Spain,country,Europe and Central Asia,40.463667,-3.74922,1992,178860,0,85528,176,0,0,11,45,3211,14,112,0,4491,23747,61388,0,0,137,0,0,0,0,0,0
IE,Ireland,country,Europe and Central Asia,53.41291,-8.24389,ES,Spain,country,Europe and Central Asia,40.463667,-3.74922,1992,27547,6682,2036,424,38,0,0,6,48,128,0,103,70,838,25,6419,0,5962,3808,960,0,0,0,0
IT,Italy,country,Europe and Central Asia,41.87194,12.56738,ES,Spain,country,Europe and Central Asia,40.463667,-3.74922,1992,165588,16891,173,4192,251,620,4398,3360,76346,1219,28,3948,4137,9278,27568,3046,81,5859,2669,1555,50,0,0,0
JP,Japan,country,East Asia and Pacific,36.204824,138.252924,ES,Spain,country,Europe and Central Asia,40.463667,-3.74922,1992,1225,121,1,18,0,0,63,7,4,309,0,431,8,109,1,153,0,0,0,0,0,0,0,0
JO,Jordan,country,Middle East and North Africa,30.585164,36.238414,ES,Spain,country,Europe and Central Asia,40.463667,-3.74922,1992,0,0,0,0,0,0,0,0,0,0,0,0,0,0,0,0,0,0,0,0,0,0,0,0
KE,Kenya,country,Sub-Saharan Africa,-0.023559,37.906193,ES,Spain,country,Europe and Central Asia,40.463667,-3.74922,1992,20268,0,0,3512,0,0,60,2,5546,17,0,0,11108,23,0,0,0,0,0,0,0,0,0,0
KW,Kuwait,country,Middle East and North Africa,29.31166,47.481766,ES,Spain,country,Europe and Central Asia,40.463667,-3.74922,1992,5,0,0,0,0,0,0,3,0,0,0,0,0,2,0,0,0,0,0,0,0,0,0,0
LT,Lithuania,country,Europe and Central Asia,55.169438,23.881275,ES,Spain,country,Europe and Central Asia,40.463667,-3.74922,1992,140,0,0,0,0,0,0,0,0,0,0,0,0,0,0,0,0,0,140,0,0,0,0,0
MG,Madagascar,country,Sub-Saharan Africa,-18.766947,46.869107,ES,Spain,country,Europe and Central Asia,40.463667,-3.74922,1992,4487,0,0,420,0,0,0,0,0,0,179,0,1768,48,0,2072,0,0,0,0,0,0,0,0
MW,Malawi,country,Sub-Saharan Africa,-13.254308,34.301525,ES,Spain,country,Europe and Central Asia,40.463667,-3.74922,1992,1495,0,0,0,0,0,0,12,0,0,0,0,259,1224,0,0,0,0,0,0,0,0,0,0
MY,Malaysia,country,East Asia and Pacific,4.210484,101.975766,ES,Spain,country,Europe and Central Asia,40.463667,-3.74922,1992,98862,0,0,0,0,0,675,6,284,0,254,0,3534,22307,71791,0,0,11,0,0,0,0,0,0
MU,Mauritius,country,Sub-Saharan Africa,-20.348404,57.552152,ES,Spain,country,Europe and Central Asia,40.463667,-3.74922,1992,5245,0,0,5232,0,0,0,0,0,6,0,0,0,7,0,0,0,0,0,0,0,0,0,0
MX,Mexico,country,Latin America and the Caribbean,23.634501,-102.552784,ES,Spain,country,Europe and Central Asia,40.463667,-3.74922,1992,29863,153,0,914,26949,1,143,498,234,0,1,0,294,73,3,570,0,4,26,0,0,0,0,0
MA,Morocco,country,Middle East and North Africa,31.791702,-7.09262,ES,Spain,country,Europe and Central Asia,40.463667,-3.74922,1992,31667,0,622,1000,315,39,247,20188,5842,511,1786,75,0,929,0,60,0,0,0,53,0,0,0,0
NL,Netherlands,country,Europe and Central Asia,52.132633,5.291266,ES,Spain,country,Europe and Central Asia,40.463667,-3.74922,1992,497960,10400,125274,2560,540,189,4216,68298,30151,33,270,24720,4811,7118,18390,108840,2448,44414,44268,3468,0,0,0,0
NZ,New Zealand,country,East Asia and Pacific,-40.900557,174.885971,ES,Spain,country,Europe and Central Asia,40.463667,-3.74922,1992,16472,3,0,0,818,0,0,0,4238,1432,0,0,0,0,393,159,0,7882,1483,64,0,0,0,0
NI,Nicaragua,country,Latin America and the Caribbean,12.865416,-85.207229,ES,Spain,country,Europe and Central Asia,40.463667,-3.74922,1992,5293,0,0,0,0,0,0,0,0,0,0,0,5293,0,0,0,0,0,0,0,0,0,0,0
NO,Norway,country,Europe and Central Asia,60.472024,8.468946,ES,Spain,country,Europe and Central Asia,40.463667,-3.74922,1992,3091,14,0,0,0,0,0,0,0,0,0,0,2,79,113,127,0,1552,458,746,0,0,0,0
PK,Pakistan,country,South Asia,30.375321,69.345116,ES,Spain,country,Europe and Central Asia,40.463667,-3.74922,1992,14654,1119,0,350,0,0,0,0,84,12979,21,0,0,1,0,0,0,0,100,0,0,0,0,0
PA,Panama,country,Latin America and the Caribbean,8.537981,-80.782127,ES,Spain,country,Europe and Central Asia,40.463667,-3.74922,1992,118,0,0,0,0,0,0,8,0,0,0,0,9,0,0,101,0,0,0,0,0,0,0,0
PG,Papua New Guinea,country,East Asia and Pacific,-6.314993,143.95555,ES,Spain,country,Europe and Central Asia,40.463667,-3.74922,1992,10,0,0,0,0,0,0,0,0,0,0,0,0,0,0,10,0,0,0,0,0,0,0,0
PY,Paraguay,country,Latin America and the Caribbean,-23.442503,-58.443832,ES,Spain,country,Europe and Central Asia,40.463667,-3.74922,1992,3197,0,0,0,672,0,0,0,0,1266,0,0,126,375,0,19,0,739,0,0,0,0,0,0
PE,Peru,country,Latin America and the Caribbean,-9.189967,-75.015152,ES,Spain,country,Europe and Central Asia,40.463667,-3.74922,1992,8232,1446,0,0,156,0,0,3831,53,5,2,981,1625,99,0,28,0,0,0,6,0,0,0,0
PH,Philippines,country,East Asia and Pacific,12.879721,121.774017,ES,Spain,country,Europe and Central Asia,40.463667,-3.74922,1992,9874,5,0,0,0,2,250,2,4062,91,0,0,0,1462,4000,0,0,0,0,0,0,0,0,0
PL,Poland,country,Europe and Central Asia,51.919438,19.145136,ES,Spain,country,Europe and Central Asia,40.463667,-3.74922,1992,58066,0,0,339,46723,0,0,2050,203,98,0,7529,119,0,0,0,0,38,417,550,0,0,0,0
PT,Portugal,country,Europe and Central Asia,39.399872,-8.224454,ES,Spain,country,Europe and Central Asia,40.463667,-3.74922,1992,192472,35900,814,2237,281,9288,3688,4462,19208,1752,0,66198,1767,9775,11633,9759,2965,177,13034,1152,1347,0,0,0
KR,"Korea, Rep.",country,East Asia and Pacific,35.907757,127.766922,ES,Spain,country,Europe and Central Asia,40.463667,-3.74922,1992,731,8,0,18,0,0,49,81,0,0,15,0,0,475,0,85,0,0,0,0,0,0,0,0
RE,Reunion,country,Sub-Saharan Africa,-21.115141,55.536384,ES,Spain,country,Europe and Central Asia,40.463667,-3.74922,1992,11930,0,0,11930,0,0,0,0,0,0,0,0,0,0,0,0,0,0,0,0,0,0,0,0
RO,Romania,country,Europe and Central Asia,45.943161,24.96676,ES,Spain,country,Europe and Central Asia,40.463667,-3.74922,1992,45,0,0,0,0,0,0,0,9,8,0,0,0,0,0,0,0,0,28,0,0,0,0,0
SN,Senegal,country,Sub-Saharan Africa,14.497401,-14.452362,ES,Spain,country,Europe and Central Asia,40.463667,-3.74922,1992,7456,0,0,0,0,0,0,0,14,453,0,6948,0,0,0,0,0,0,0,41,0,0,0,0
RS,Serbia,country,Europe and Central Asia,44.016521,21.005859,ES,Spain,country,Europe and Central Asia,40.463667,-3.74922,1992,12303,3,1,0,0,0,0,0,4,0,0,12234,0,1,1,54,0,4,1,0,0,0,0,0
SC,Seychelles,country,Sub-Saharan Africa,-4.679574,55.491977,ES,Spain,country,Europe and Central Asia,40.463667,-3.74922,1992,8,0,0,0,0,0,0,0,0,0,8,0,0,0,0,0,0,0,0,0,0,0,0,0
SG,Singapore,country,East Asia and Pacific,1.352083,103.819836,ES,Spain,country,Europe and Central Asia,40.463667,-3.74922,1992,13270,32,0,0,0,0,422,204,477,0,1041,0,427,10573,91,3,0,0,0,0,0,0,0,0
SI,Slovenia,country,Europe and Central Asia,46.151241,14.995463,ES,Spain,country,Europe and Central Asia,40.463667,-3.74922,1992,1060,0,0,0,0,0,42,0,175,0,0,210,115,0,0,0,0,456,62,0,0,0,0,0
ZA,S. Africa,country,Sub-Saharan Africa,-30.559482,22.937506,ES,Spain,country,Europe and Central Asia,40.463667,-3.74922,1992,0,0,0,0,0,0,0,0,0,0,0,0,0,0,0,0,0,0,0,0,0,0,0,0
LK,Sri Lanka,country,South Asia,7.873054,80.771797,ES,Spain,country,Europe and Central Asia,40.463667,-3.74922,1992,6768,0,0,9,0,0,4123,316,19,0,389,0,75,1832,0,5,0,0,0,0,0,0,0,0
SE,Sweden,country,Europe and Central Asia,60.128161,18.643501,ES,Spain,country,Europe and Central Asia,40.463667,-3.74922,1992,18342,706,1,8158,0,0,0,5305,51,0,0,3,880,845,528,368,0,1214,47,236,0,0,0,0
CH,Switzerland,country,Europe and Central Asia,46.818188,8.227512,ES,Spain,country,Europe and Central Asia,40.463667,-3.74922,1992,8979,329,0,290,5,19,6,31,27,526,1,281,1251,1879,647,169,0,6,1921,1591,0,0,0,0
SY,Syrian Arab Rep.,country,Middle East and North Africa,34.802075,38.996815,ES,Spain,country,Europe and Central Asia,40.463667,-3.74922,1992,1342,0,0,0,0,0,0,4,372,917,49,0,0,0,0,0,0,0,0,0,0,0,0,0
TH,Thailand,country,East Asia and Pacific,15.870032,100.992541,ES,Spain,country,Europe and Central Asia,40.463667,-3.74922,1992,614032,21728,381085,159830,271,0,10,261,29146,0,151,881,39,20494,0,0,0,134,2,0,0,0,0,0
TT,Trinidad and Tobago,country,Latin America and the Caribbean,10.691803,-61.222503,ES,Spain,country,Europe and Central Asia,40.463667,-3.74922,1992,2669,0,0,0,0,0,0,0,0,0,0,0,0,0,0,2669,0,0,0,0,0,0,0,0
TN,Tunisia,country,Middle East and North Africa,33.886917,9.537499,ES,Spain,country,Europe and Central Asia,40.463667,-3.74922,1992,25253,2,81,0,0,0,0,0,1282,30,0,0,0,1175,22650,33,0,0,0,0,0,0,0,0
TR,Turkey,country,Europe and Central Asia,38.963745,35.243322,ES,Spain,country,Europe and Central Asia,40.463667,-3.74922,1992,49350,1180,0,3343,28602,3763,530,442,5005,5788,392,0,0,249,56,0,0,0,0,0,0,0,0,0
GB,United Kingdom,country,Europe and Central Asia,55.378051,-3.435973,ES,Spain,country,Europe and Central Asia,40.463667,-3.74922,1992,909952,633389,56751,8823,19964,1261,1503,18455,1070,2069,103,10959,9691,6505,9178,85038,287,24324,6210,14659,0,0,0,0
US,USA,country,North America,37.09024,-95.712891,ES,Spain,country,Europe and Central Asia,40.463667,-3.74922,1992,4328630,1523900,815,164,29918,18238,1337105,3787,6675,14271,30,1194046,27,16663,163046,6233,479,12439,391,876,6,0,0,0
UY,Uruguay,country,Latin America and the Caribbean,-32.522779,-55.765835,ES,Spain,country,Europe and Central Asia,40.463667,-3.74922,1992,2762,691,0,535,0,0,2,9,22,546,0,43,16,7,0,43,0,637,19,192,0,0,0,0
VE,Venezuela,country,Latin America and the Caribbean,6.42375,-66.58973,ES,Spain,country,Europe and Central Asia,40.463667,-3.74922,1992,4341,417,0,34,21,0,0,33,851,0,0,0,20,18,0,2946,0,0,0,1,0,0,0,0
ZW,Zimbabwe,country,Sub-Saharan Africa,-19.015438,29.154857,ES,Spain,country,Europe and Central Asia,40.463667,-3.74922,1992,7080,5,0,0,63,0,0,0,0,2661,150,0,0,3067,0,0,0,1133,0,1,0,0,0,0
DZ,Algeria,country,Middle East and North Africa,28.033886,1.659626,ES,Spain,country,Europe and Central Asia,40.463667,-3.74922,1993,511,0,0,0,0,0,0,0,511,0,0,0,0,0,0,0,0,0,0,0,0,0,0,0
AR,Argentina,country,Latin America and the Caribbean,-38.416097,-63.616672,ES,Spain,country,Europe and Central Asia,40.463667,-3.74922,1993,945551,204684,0,4237,30251,19,166128,2178,4025,960,1,523133,92,1298,2796,12,0,5124,0,613,0,0,0,0
AU,Australia,country,East Asia and Pacific,-25.274398,133.775136,ES,Spain,country,Europe and Central Asia,40.463667,-3.74922,1993,166615,724,0,306,147377,0,75,0,0,12068,0,1298,2,28,12,32,0,366,530,3797,0,0,0,0
AT,Austria,country,Europe and Central Asia,47.516231,14.550072,ES,Spain,country,Europe and Central Asia,40.463667,-3.74922,1993,4038,718,117,27,0,0,11,127,44,20,0,173,1108,11,3,59,0,99,1186,335,0,0,0,0
BB,Barbados,country,Latin America and the Caribbean,13.193887,-59.543198,ES,Spain,country,Europe and Central Asia,40.463667,-3.74922,1993,1,0,0,0,0,0,0,0,0,0,0,0,0,0,0,1,0,0,0,0,0,0,0,0
BE,Belgium,country,Europe and Central Asia,50.503887,4.469936,ES,Spain,country,Europe and Central Asia,40.463667,-3.74922,1993,328204,14109,110450,19448,261,48,3923,26832,22135,4524,28,7733,5509,4392,19688,15769,44,17771,54132,1452,0,0,0,0
BJ,Benin,country,Sub-Saharan Africa,9.30769,2.315834,ES,Spain,country,Europe and Central Asia,40.463667,-3.74922,1993,294,0,0,0,0,0,294,0,0,0,0,0,0,0,0,0,0,0,0,0,0,0,0,0
BO,Bolivia,country,Latin America and the Caribbean,-16.290154,-63.588653,ES,Spain,country,Europe and Central Asia,40.463667,-3.74922,1993,79,0,0,0,0,0,0,1,0,0,0,0,78,0,0,0,0,0,0,0,0,0,0,0
BW,Botswana,country,Sub-Saharan Africa,-22.328474,24.684866,ES,Spain,country,Europe and Central Asia,40.463667,-3.74922,1993,64,0,0,0,0,0,0,0,0,0,0,0,0,0,0,0,0,64,0,0,0,0,0,0
BR,Brazil,country,Latin America and the Caribbean,-14.235004,-51.92528,ES,Spain,country,Europe and Central Asia,40.463667,-3.74922,1993,1598751,21,0,40,0,205,507227,943,1882,200,495,1017708,34747,9963,587,32,0,24701,0,0,0,0,0,0
CA,Canada,country,North America,56.130366,-106.346771,ES,Spain,country,Europe and Central Asia,40.463667,-3.74922,1993,267653,12051,40,18,237448,0,14565,30,24,0,0,91,2,1480,1861,35,5,0,8,0,0,0,0,0
CL,Chile,country,Latin America and the Caribbean,-35.675147,-71.542969,ES,Spain,country,Europe and Central Asia,40.463667,-3.74922,1993,79697,52,0,10,2112,10,0,1859,28488,80,171,45998,83,425,5,97,0,307,0,0,0,0,0,0
HK,Hong Kong,country,East Asia and Pacific,22.396428,114.109497,ES,Spain,country,Europe and Central Asia,40.463667,-3.74922,1993,6700,72,0,1,0,112,511,4969,0,0,149,0,395,479,12,0,0,0,0,0,0,0,0,0
CN,China,country,East Asia and Pacific,35.86166,104.195397,ES,Spain,country,Europe and Central Asia,40.463667,-3.74922,1993,34100,1384,0,2199,4283,117,7697,10411,193,3078,173,58,1657,2316,9,474,0,14,37,0,0,0,0,0
TW,Taiwan,country,East Asia and Pacific,23.69781,120.960515,ES,Spain,country,Europe and Central Asia,40.463667,-3.74922,1993,260,16,28,0,3,0,45,15,17,0,0,0,6,98,0,32,0,0,0,0,0,0,0,0
CO,Colombia,country,Latin America and the Caribbean,4.570868,-74.297333,ES,Spain,country,Europe and Central Asia,40.463667,-3.74922,1993,29100,19,0,104,0,0,45,0,1569,1438,0,0,23508,2400,0,17,0,0,0,0,0,0,0,0
