sourceCode,sourceName,sourceGrouping,sourceRegion,sourceLat,sourceLong,destCode,destName,destGrouping,destRegion,destLat,destLong,distance,year,totalTons,cereals,roots,sugarCrops,pulses,nuts,oilCrops,vegetables,fruits,fibers,spices,fodderCrops,coffeeTea,tobaccoRubber,oilsFats,beverages,livestock,animalMeats,animalProducts,animalHides,nimalOther,pesticides,fertilizers,machinery
DZ,Algeria,country,Middle East and North Africa,28.033886,1.659626,CA,Canada,country,North America,56.130366,-106.346771,8484.88858511798,1986,241,0,0,0,0,0,0,0,31,0,0,0,0,0,0,210,0,0,0,0,0,0,0,0
AO,Angola,country,Sub-Saharan Africa,-11.202692,17.873887,CA,Canada,country,North America,56.130366,-106.346771,13130.5523982869,1986,302,0,0,0,0,0,0,0,0,0,0,0,302,0,0,0,0,0,0,0,0,0,0,0
AR,Argentina,country,Latin America and the Caribbean,-38.416097,-63.616672,CA,Canada,country,North America,56.130366,-106.346771,11271.6495545351,1986,12128,3,0,597,0,0,18,369,6982,67,0,0,1218,888,500,778,0,320,388,0,0,0,0,0
AU,Australia,country,East Asia and Pacific,-25.274398,133.775136,CA,Canada,country,North America,56.130366,-106.346771,14167.4730667731,1986,631442,74,0,541240,939,0,134,335,35334,1059,25,11080,2,874,43,2507,0,37519,269,8,0,0,0,0
AT,Austria,country,Europe and Central Asia,47.516231,14.550072,CA,Canada,country,North America,56.130366,-106.346771,7260.85418287217,1986,4225,209,0,48,0,0,0,94,1219,0,21,0,954,248,0,678,0,21,733,0,0,0,0,0
BS,The Bahamas,country,Latin America and the Caribbean,25.03428,-77.39628,CA,Canada,country,North America,56.130366,-106.346771,4176.05489549885,1986,2711,0,0,0,0,0,0,0,87,0,0,0,0,0,0,2624,0,0,0,0,0,0,0,0
BD,Bangladesh,country,South Asia,23.684994,90.356331,CA,Canada,country,North America,56.130366,-106.346771,11013.2212979032,1986,1017,0,0,0,0,0,0,0,0,767,0,0,7,0,0,0,0,243,0,0,0,0,0,0
BB,Barbados,country,Latin America and the Caribbean,13.193887,-59.543198,CA,Canada,country,North America,56.130366,-106.346771,6220.58093293006,1986,15542,0,0,14888,0,0,0,101,0,0,0,0,0,18,0,520,0,15,0,0,0,0,0,0
BE,Belgium,country,Europe and Central Asia,50.503887,4.469936,CA,Canada,country,North America,56.130366,-106.346771,6569.9656900332,1986,10704,667,71,3471,108,2,0,2545,432,7,7,0,1250,774,0,1320,0,50,0,0,0,0,0,0
BZ,Belize,country,Latin America and the Caribbean,17.189877,-88.49765,CA,Canada,country,North America,56.130366,-106.346771,4588.70831225977,1986,7731,0,0,7146,0,0,0,0,585,0,0,0,0,0,0,0,0,0,0,0,0,0,0,0
BO,Bolivia,country,Latin America and the Caribbean,-16.290154,-63.588653,CA,Canada,country,North America,56.130366,-106.346771,8994.76571252565,1986,43,0,0,0,0,10,0,0,0,0,0,0,33,0,0,0,0,0,0,0,0,0,0,0
BR,Brazil,country,Latin America and the Caribbean,-14.235004,-51.92528,CA,Canada,country,North America,56.130366,-106.346771,9314.95503517065,1986,95229,54,0,3854,0,2271,16,2858,52006,694,155,0,25864,1575,1021,2419,0,2434,0,8,0,0,0,0
BG,Bulgaria,country,Europe and Central Asia,42.733883,25.48583,CA,Canada,country,North America,56.130366,-106.346771,8139.30509216525,1986,2144,0,0,0,0,0,0,1103,563,0,1,0,0,37,0,211,0,0,229,0,0,0,0,0
CM,Cameroon,country,Sub-Saharan Africa,7.369722,12.354722,CA,Canada,country,North America,56.130366,-106.346771,11036.7347295925,1986,110,0,0,0,0,0,0,0,0,0,0,0,110,0,0,0,0,0,0,0,0,0,0,0
CL,Chile,country,Latin America and the Caribbean,-35.675147,-71.542969,CA,Canada,country,North America,56.130366,-106.346771,10737.7737589056,1986,42298,0,0,105,0,10,15,1693,39169,0,2,0,2,550,0,752,0,0,0,0,0,0,0,0
HK,Hong Kong,country,East Asia and Pacific,22.396428,114.109497,CA,Canada,country,North America,56.130366,-106.346771,10502.1050885388,1986,15578,2402,62,718,140,564,1704,2451,2545,345,139,15,234,2814,119,1006,0,0,320,0,0,0,0,0
CN,China,country,East Asia and Pacific,35.86166,104.195397,CA,Canada,country,North America,56.130366,-106.346771,9396.37278483121,1986,89007,917,22,270,206,4693,14271,20866,7049,38365,238,38,949,415,6,536,0,0,166,0,0,0,0,0
TW,Taiwan,country,East Asia and Pacific,23.69781,120.960515,CA,Canada,country,North America,56.130366,-106.346771,10097.296800686,1986,12584,819,0,108,16,30,114,4401,5069,0,222,121,25,1544,4,28,0,23,60,0,0,0,0,0
CO,Colombia,country,Latin America and the Caribbean,4.570868,-74.297333,CA,Canada,country,North America,56.130366,-106.346771,6402.8853720462,1986,53310,0,0,787,0,0,112,3,34669,218,2,41,14565,2913,0,0,0,0,0,0,0,0,0,0
CR,Costa Rica,country,Latin America and the Caribbean,9.748917,-83.753428,CA,Canada,country,North America,56.130366,-106.346771,5524.9530692938,1986,71473,0,33,0,0,5,0,363,68044,0,8,0,3017,3,0,0,0,0,0,0,0,0,0,0
CI,Ivory Coast,country,Sub-Saharan Africa,7.539989,-5.54708,CA,Canada,country,North America,56.130366,-106.346771,9984.12882348189,1986,15879,0,0,0,0,9,0,0,398,90,41,0,15341,0,0,0,0,0,0,0,0,0,0,0
CU,Cuba,country,Latin America and the Caribbean,21.521757,-77.781167,CA,Canada,country,North America,56.130366,-106.346771,4513.01019158509,1986,204883,0,0,204511,0,0,0,50,6,0,0,0,83,68,0,165,0,0,0,0,0,0,0,0
CY,Cyprus,country,Europe and Central Asia,35.126413,33.429859,CA,Canada,country,North America,56.130366,-106.346771,9189.05930545259,1986,97,0,0,0,0,0,0,0,0,0,0,0,65,0,0,32,0,0,0,0,0,0,0,0
CZ,Czech Republic,country,Europe and Central Asia,49.817492,15.472962,CA,Canada,country,North America,56.130366,-106.346771,7079.04708170123,1986,394,0,0,25,0,0,0,15,0,0,0,0,78,2,0,274,0,0,0,0,0,0,0,0
KP,"Korea, Dem. Rep.",country,East Asia and Pacific,40.339852,127.510093,CA,Canada,country,North America,56.130366,-106.346771,8162.56575623008,1986,11,9,0,0,0,0,0,0,0,0,0,0,0,2,0,0,0,0,0,0,0,0,0,0
CD,"Congo, Dem. Rep.",country,Sub-Saharan Africa,-4.038333,21.758664,CA,Canada,country,North America,56.130366,-106.346771,12654.1751620617,1986,835,0,0,0,0,0,0,0,0,0,0,0,835,0,0,0,0,0,0,0,0,0,0,0
DK,Denmark,country,Europe and Central Asia,56.26392,9.501785,CA,Canada,country,North America,56.130366,-106.346771,6261.92688304412,1986,19391,2070,7,3409,0,3,4,13,375,0,0,82,445,1877,1,792,0,5925,4388,0,0,0,0,0
DO,Dominican Republic,country,Latin America and the Caribbean,18.735693,-70.162651,CA,Canada,country,North America,56.130366,-106.346771,5138.24863098955,1986,22629,0,2,12402,24,1045,0,4438,600,0,7,0,4012,99,0,0,0,0,0,0,0,0,0,0
EC,Ecuador,country,Latin America and the Caribbean,-1.831239,-78.183406,CA,Canada,country,North America,56.130366,-106.346771,6937.38548494733,1986,145434,0,0,0,0,0,0,345,141652,0,0,0,3435,2,0,0,0,0,0,0,0,0,0,0
EG,Egypt,country,Middle East and North Africa,26.820553,30.802498,CA,Canada,country,North America,56.130366,-106.346771,9954.90844208778,1986,252,0,0,0,0,0,0,150,28,16,37,0,0,21,0,0,0,0,0,0,0,0,0,0
SV,El Salvador,country,Latin America and the Caribbean,13.794185,-88.89653,CA,Canada,country,North America,56.130366,-106.346771,4944.18436656976,1986,11005,0,0,0,0,0,170,38,0,0,0,0,10797,0,0,0,0,0,0,0,0,0,0,0
ET,Ethiopia,country,Sub-Saharan Africa,9.145,40.489673,CA,Canada,country,North America,56.130366,-106.346771,12154.5132872712,1986,1276,0,0,0,0,0,0,0,0,0,0,7,1266,3,0,0,0,0,0,0,0,0,0,0
FJ,Fiji,country,East Asia and Pacific,-16.578193,179.414413,CA,Canada,country,North America,56.130366,-106.346771,10605.215793589,1986,1003,6,0,0,0,16,2,372,12,0,593,0,0,2,0,0,0,0,0,0,0,0,0,0
FI,Finland,country,Europe and Central Asia,61.92411,25.748151,CA,Canada,country,North America,56.130366,-106.346771,6252.49791448611,1986,1293,59,0,57,0,0,0,0,0,0,0,30,205,6,0,337,0,0,599,0,0,0,0,0
FR,France,country,Europe and Central Asia,46.227638,2.213749,CA,Canada,country,North America,56.130366,-106.346771,6848.46021650643,1986,127414,1187,0,5311,4,15,33,2159,12091,159,193,750,756,3646,211,98279,0,10,2538,72,0,0,0,0
GF,French Guiana,country,Latin America and the Caribbean,3.933889,-53.125782,CA,Canada,country,North America,56.130366,-106.346771,7464.4903232162,1986,72,0,0,0,0,72,0,0,0,0,0,0,0,0,0,0,0,0,0,0,0,0,0,0
GH,Ghana,country,Sub-Saharan Africa,7.946527,-1.023194,CA,Canada,country,North America,56.130366,-106.346771,10216.9909241126,1986,729,0,0,0,0,0,0,0,0,0,0,0,714,15,0,0,0,0,0,0,0,0,0,0
GI,Gibraltar,country,Europe and Central Asia,36.137741,-5.345374,CA,Canada,country,North America,56.130366,-106.346771,7367.81216312467,1986,0,0,0,0,0,0,0,0,0,0,0,0,0,0,0,0,0,0,0,0,0,0,0,0
GR,Greece,country,Europe and Central Asia,39.074208,21.824312,CA,Canada,country,North America,56.130366,-106.346771,8367.69840957318,1986,16717,247,0,106,4,2,1779,551,11539,0,69,0,116,110,523,1387,0,0,284,0,0,0,0,0
GL,Greenland,country,Europe and Central Asia,71.706936,-42.604303,CA,Canada,country,North America,56.130366,-106.346771,3343.28581097818,1986,157,2,44,72,0,0,0,15,8,0,0,0,0,16,0,0,0,0,0,0,0,0,0,0
GT,Guatemala,country,Latin America and the Caribbean,15.783471,-90.230759,CA,Canada,country,North America,56.130366,-106.346771,4695.22595708933,1986,14054,0,0,7,0,1,155,159,7864,0,10,0,5858,0,0,0,0,0,0,0,0,0,0,0
GN,Guinea,country,Sub-Saharan Africa,9.945587,-9.696645,CA,Canada,country,North America,56.130366,-106.346771,9509.01107607523,1986,359,0,0,0,0,0,0,0,0,0,0,0,359,0,0,0,0,0,0,0,0,0,0,0
GY,Guyana,country,Latin America and the Caribbean,4.860416,-58.93018,CA,Canada,country,North America,56.130366,-106.346771,7069.46783171859,1986,32052,0,0,30003,0,0,0,0,0,0,3,0,0,5,0,2041,0,0,0,0,0,0,0,0
HT,Haiti,country,Latin America and the Caribbean,18.971187,-72.285215,CA,Canada,country,North America,56.130366,-106.346771,5014.48150394047,1986,137,0,0,0,0,0,0,0,111,0,0,0,0,0,0,26,0,0,0,0,0,0,0,0
HN,Honduras,country,Latin America and the Caribbean,15.199999,-86.241905,CA,Canada,country,North America,56.130366,-106.346771,4866.8044089992,1986,27627,0,0,4654,0,100,0,230,21013,0,0,0,1627,3,0,0,0,0,0,0,0,0,0,0
HU,Hungary,country,Europe and Central Asia,47.162494,19.503304,CA,Canada,country,North America,56.130366,-106.346771,7484.72540701994,1986,2706,59,0,100,0,0,0,128,215,0,248,0,54,295,500,1088,0,0,19,0,0,0,0,0
IS,Iceland,country,Europe and Central Asia,64.963051,-19.020835,CA,Canada,country,North America,56.130366,-106.346771,4480.02677923048,1986,97,0,0,0,0,0,0,0,0,0,0,0,0,30,0,0,0,0,67,0,0,0,0,0
IN,India,country,South Asia,20.593684,78.96288,CA,Canada,country,North America,56.130366,-106.346771,11481.960523134,1986,12585,2745,0,79,149,822,13,436,218,0,2372,59,3928,826,562,10,0,366,0,0,0,0,0,0
ID,Indonesia,country,East Asia and Pacific,-0.789275,113.921327,CA,Canada,country,North America,56.130366,-106.346771,12900.7589703636,1986,50942,1,0,0,0,6,0,0,770,0,1063,0,7027,42069,0,0,0,6,0,0,0,0,0,0
IR,Iran,country,Middle East and North Africa,32.427908,53.688046,CA,Canada,country,North America,56.130366,-106.346771,9998.91262527433,1986,2790,0,0,0,0,1615,0,0,1175,0,0,0,0,0,0,0,0,0,0,0,0,0,0,0
IQ,Iraq,country,Middle East and North Africa,33.223191,43.679291,CA,Canada,country,North America,56.130366,-106.346771,9692.86869830038,1986,593,0,0,84,0,0,0,0,464,0,0,0,0,45,0,0,0,0,0,0,0,0,0,0
IE,Ireland,country,Europe and Central Asia,53.41291,-8.24389,CA,Canada,country,North America,56.130366,-106.346771,5754.4276230661,1986,8522,514,0,65,0,0,0,0,154,0,0,13,5392,461,0,916,0,1007,0,0,0,0,0,0
IL,Israel,country,Middle East and North Africa,31.046051,34.851612,CA,Canada,country,North America,56.130366,-106.346771,9660.7035018164,1986,11621,385,0,195,2,3,48,3298,6566,0,18,0,213,579,0,314,0,0,0,0,0,0,0,0
IT,Italy,country,Europe and Central Asia,41.87194,12.56738,CA,Canada,country,North America,56.130366,-106.346771,7713.88513348809,1986,63720,10139,0,541,114,1037,136,10315,7799,0,10,48,799,1563,2029,27191,0,174,1825,0,0,0,0,0
JM,Jamaica,country,Latin America and the Caribbean,18.109581,-77.297508,CA,Canada,country,North America,56.130366,-106.346771,4881.38993976234,1986,7527,82,1908,242,0,74,0,822,1423,0,123,0,136,331,0,2386,0,0,0,0,0,0,0,0
JP,Japan,country,East Asia and Pacific,36.204824,138.252924,CA,Canada,country,North America,56.130366,-106.346771,8091.76666885355,1986,8082,828,29,122,12,4,441,590,1452,0,54,83,90,2814,286,1277,0,0,0,0,0,0,0,0
KE,Kenya,country,Sub-Saharan Africa,-0.023559,37.906193,CA,Canada,country,North America,56.130366,-106.346771,13014.8066435644,1986,4128,0,0,18,36,138,0,0,1,0,15,0,3880,40,0,0,0,0,0,0,0,0,0,0
LB,Lebanon,country,Middle East and North Africa,33.854721,35.862285,CA,Canada,country,North America,56.130366,-106.346771,9400.28978599403,1986,321,0,0,72,0,2,0,72,35,0,7,0,0,47,38,48,0,0,0,0,0,0,0,0
LR,Liberia,country,Sub-Saharan Africa,6.428055,-9.429499,CA,Canada,country,North America,56.130366,-106.346771,9851.24602725408,1986,2268,0,0,0,0,0,0,0,0,0,0,0,54,2214,0,0,0,0,0,0,0,0,0,0
MG,Madagascar,country,Sub-Saharan Africa,-18.766947,46.869107,CA,Canada,country,North America,56.130366,-106.346771,15315.0362971086,1986,357,0,0,0,0,0,0,0,0,0,56,0,299,2,0,0,0,0,0,0,0,0,0,0
MW,Malawi,country,Sub-Saharan Africa,-13.254308,34.301525,CA,Canada,country,North America,56.130366,-106.346771,14201.8664900725,1986,659,0,0,0,234,17,0,0,18,0,0,0,320,70,0,0,0,0,0,0,0,0,0,0
MY,Malaysia,country,East Asia and Pacific,4.210484,101.975766,CA,Canada,country,North America,56.130366,-106.346771,12841.8190318606,1986,67873,40,0,0,0,60,542,31,425,0,251,0,18,40395,26111,0,0,0,0,0,0,0,0,0
MT,Malta,country,Middle East and North Africa,35.937496,14.375416,CA,Canada,country,North America,56.130366,-106.346771,8362.36335326744,1986,35,6,0,0,0,0,0,0,0,0,0,0,29,0,0,0,0,0,0,0,0,0,0,0
MU,Mauritius,country,Sub-Saharan Africa,-20.348404,57.552152,CA,Canada,country,North America,56.130366,-106.346771,15835.8403652045,1986,29753,0,0,29743,0,0,0,0,0,0,0,0,10,0,0,0,0,0,0,0,0,0,0,0
MX,Mexico,country,Latin America and the Caribbean,23.634501,-102.552784,CA,Canada,country,North America,56.130366,-106.346771,3630.68555261904,1986,108682,0,77,28461,0,0,718,57375,11585,1117,25,300,6793,246,0,1985,0,0,0,0,0,0,0,0
MA,Morocco,country,Middle East and North Africa,31.791702,-7.09262,CA,Canada,country,North America,56.130366,-106.346771,7661.29584084696,1986,19113,0,0,0,10,0,339,597,17851,0,250,0,0,55,0,11,0,0,0,0,0,0,0,0
MZ,Mozambique,country,Sub-Saharan Africa,-18.665695,35.529562,CA,Canada,country,North America,56.130366,-106.346771,14797.6389451452,1986,187,0,0,0,0,30,0,0,0,0,0,0,153,0,4,0,0,0,0,0,0,0,0,0
NP,Nepal,country,South Asia,28.394857,84.124008,CA,Canada,country,North America,56.130366,-106.346771,10575.9145042578,1986,17,0,0,0,0,0,0,17,0,0,0,0,0,0,0,0,0,0,0,0,0,0,0,0
NL,Netherlands,country,Europe and Central Asia,52.132633,5.291266,CA,Canada,country,North America,56.130366,-106.346771,6460.97044969052,1986,36527,2225,47,2842,33,460,1215,4814,1406,0,142,473,5595,8084,1231,5312,0,111,2537,0,0,0,0,0
NZ,New Zealand,country,East Asia and Pacific,-40.900557,174.885971,CA,Canada,country,North America,56.130366,-106.346771,13078.8822655872,1986,65053,48,0,45,18,0,0,438,24765,1526,0,18,0,2188,0,500,0,31464,3454,589,0,0,0,0
NI,Nicaragua,country,Latin America and the Caribbean,12.865416,-85.207229,CA,Canada,country,North America,56.130366,-106.346771,5147.49605458658,1986,11536,0,0,9830,0,0,82,0,0,0,0,0,41,0,0,0,0,1583,0,0,0,0,0,0
NG,Nigeria,country,Sub-Saharan Africa,9.081999,8.675277,CA,Canada,country,North America,56.130366,-106.346771,10668.5613645531,1986,1587,0,0,0,0,0,0,0,0,0,0,0,1587,0,0,0,0,0,0,0,0,0,0,0
NO,Norway,country,Europe and Central Asia,60.472024,8.468946,CA,Canada,country,North America,56.130366,-106.346771,5856.9345481944,1986,2587,163,0,1,0,0,0,0,0,1,0,1308,4,77,108,73,0,0,852,0,0,0,0,0
PK,Pakistan,country,South Asia,30.375321,69.345116,CA,Canada,country,North America,56.130366,-106.346771,10399.0587677442,1986,2557,230,0,0,0,0,0,23,1763,0,193,0,0,348,0,0,0,0,0,0,0,0,0,0
PA,Panama,country,Latin America and the Caribbean,8.537981,-80.782127,CA,Canada,country,North America,56.130366,-106.346771,5749.80779003065,1986,28991,0,0,0,0,0,0,65,28254,0,7,0,625,40,0,0,0,0,0,0,0,0,0,0
PG,Papua New Guinea,country,East Asia and Pacific,-6.314993,143.95555,CA,Canada,country,North America,56.130366,-106.346771,11815.7677366391,1986,207,0,0,0,0,0,0,0,0,0,0,0,207,0,0,0,0,0,0,0,0,0,0,0
PY,Paraguay,country,Latin America and the Caribbean,-23.442503,-58.443832,CA,Canada,country,North America,56.130366,-106.346771,9939.32593975579,1986,1519,0,0,0,0,0,0,0,0,355,0,0,1164,0,0,0,0,0,0,0,0,0,0,0
PE,Peru,country,Latin America and the Caribbean,-9.189967,-75.015152,CA,Canada,country,North America,56.130366,-106.346771,7824.25713309679,1986,4163,0,0,11,251,62,0,47,970,0,23,0,2633,144,0,22,0,0,0,0,0,0,0,0
PH,Philippines,country,East Asia and Pacific,12.879721,121.774017,CA,Canada,country,North America,56.130366,-106.346771,11157.5249705632,1986,33190,108,25,9,4,28,4479,83,15540,1213,11,0,5017,932,5685,51,0,0,5,0,0,0,0,0
PL,Poland,country,Europe and Central Asia,51.919438,19.145136,CA,Canada,country,North America,56.130366,-106.346771,7013.00671366265,1986,5119,314,0,675,0,0,18,358,2716,0,0,0,89,469,0,480,0,0,0,0,0,0,0,0
PT,Portugal,country,Europe and Central Asia,39.399872,-8.224454,CA,Canada,country,North America,56.130366,-106.346771,6925.59693983038,1986,14897,124,76,29,261,83,206,8089,2042,0,14,0,12,282,157,3324,0,0,198,0,0,0,0,0
PR,Puerto Rico,country,Latin America and the Caribbean,18.220833,-66.590149,CA,Canada,country,North America,56.130366,-106.346771,5365.22162583443,1986,7577,0,0,162,0,86,0,149,216,0,0,1632,16,5161,0,85,0,0,0,70,0,0,0,0
KR,"Korea, Rep.",country,East Asia and Pacific,35.907757,127.766922,CA,Canada,country,North America,56.130366,-106.346771,8588.54488503841,1986,5861,1274,0,486,0,72,33,1224,1085,0,17,15,1,1625,0,29,0,0,0,0,0,0,0,0
RO,Romania,country,Europe and Central Asia,45.943161,24.96676,CA,Canada,country,North America,56.130366,-106.346771,7800.24387178259,1986,205,35,0,0,0,0,0,80,45,0,0,0,0,2,0,28,0,0,15,0,0,0,0,0
SA,Saudi Arabia,country,Middle East and North Africa,23.885942,45.079162,CA,Canada,country,North America,56.130366,-106.346771,10730.1246216715,1986,3,0,0,0,0,0,0,0,0,0,0,0,3,0,0,0,0,0,0,0,0,0,0,0
SN,Senegal,country,Sub-Saharan Africa,14.497401,-14.452362,CA,Canada,country,North America,56.130366,-106.346771,8799.36969967166,1986,5,0,0,0,0,0,0,5,0,0,0,0,0,0,0,0,0,0,0,0,0,0,0,0
SL,Sierra Leone,country,Sub-Saharan Africa,8.460555,-11.779889,CA,Canada,country,North America,56.130366,-106.346771,9519.02199332101,1986,387,0,0,0,0,0,0,0,0,0,0,0,387,0,0,0,0,0,0,0,0,0,0,0
SG,Singapore,country,East Asia and Pacific,1.352083,103.819836,CA,Canada,country,North America,56.130366,-106.346771,13082.5807805092,1986,5565,110,0,2,17,200,164,33,49,0,167,0,333,3716,643,131,0,0,0,0,0,0,0,0
ZA,S. Africa,country,Sub-Saharan Africa,-30.559482,22.937506,CA,Canada,country,North America,56.130366,-106.346771,15201.0107918611,1986,6449,0,0,0,0,4,0,0,6445,0,0,0,0,0,0,0,0,0,0,0,0,0,0,0
ES,Spain,country,Europe and Central Asia,40.463667,-3.74922,CA,Canada,country,North America,56.130366,-106.346771,7067.59909592,1986,70243,23,0,436,0,170,6363,14811,32943,0,763,0,220,286,1280,12936,0,0,12,0,0,0,0,0
LK,Sri Lanka,country,South Asia,7.873054,80.771797,CA,Canada,country,North America,56.130366,-106.346771,12882.518686048,1986,21325,22,0,1,0,26,350,3,9,0,343,0,4635,460,15476,0,0,0,0,0,0,0,0,0
SD,Sudan,country,Sub-Saharan Africa,12.862807,30.217636,CA,Canada,country,North America,56.130366,-106.346771,11366.1842844515,1986,16,0,0,0,0,0,0,0,0,0,0,0,0,16,0,0,0,0,0,0,0,0,0,0
SR,Suriname,country,Latin America and the Caribbean,3.919305,-56.027783,CA,Canada,country,North America,56.130366,-106.346771,7311.92255110231,1986,95,0,0,0,0,0,0,0,0,0,0,0,95,0,0,0,0,0,0,0,0,0,0,0
SE,Sweden,country,Europe and Central Asia,60.128161,18.643501,CA,Canada,country,North America,56.130366,-106.346771,6221.33340369381,1986,3270,241,0,109,0,0,7,3,42,0,0,47,119,1943,0,368,0,0,391,0,0,0,0,0
CH,Switzerland,country,Europe and Central Asia,46.818188,8.227512,CA,Canada,country,North America,56.130366,-106.346771,7064.16536084984,1986,6683,82,0,72,0,26,17,108,164,0,13,42,1122,2485,4,99,0,0,2449,0,0,0,0,0
SY,Syrian Arab Rep.,country,Middle East and North Africa,34.802075,38.996815,CA,Canada,country,North America,56.130366,-106.346771,9396.11630041273,1986,16,0,0,0,0,0,0,0,15,0,1,0,0,0,0,0,0,0,0,0,0,0,0,0
TH,Thailand,country,East Asia and Pacific,15.870032,100.992541,CA,Canada,country,North America,56.130366,-106.346771,11624.6754468999,1986,39405,15195,397,71,1691,41,124,475,17399,0,93,592,200,3046,0,71,0,0,10,0,0,0,0,0
TG,Togo,country,Sub-Saharan Africa,8.619543,0.824782,CA,Canada,country,North America,56.130366,-106.346771,10262.6914128109,1986,4,0,0,0,0,0,0,4,0,0,0,0,0,0,0,0,0,0,0,0,0,0,0,0
TT,Trinidad and Tobago,country,Latin America and the Caribbean,10.691803,-61.222503,CA,Canada,country,North America,56.130366,-106.346771,6377.12517487862,1986,2604,9,38,2,0,0,0,171,54,0,7,0,255,24,0,2044,0,0,0,0,0,0,0,0
TN,Tunisia,country,Middle East and North Africa,33.886917,9.537499,CA,Canada,country,North America,56.130366,-106.346771,8334.7245599424,1986,82,47,0,0,0,0,0,0,16,0,0,0,0,0,17,2,0,0,0,0,0,0,0,0
TR,Turkey,country,Europe and Central Asia,38.963745,35.243322,CA,Canada,country,North America,56.130366,-106.346771,8847.72704375395,1986,14635,475,0,26,253,489,32,5101,7740,85,342,0,0,88,2,2,0,0,0,0,0,0,0,0
UG,Uganda,country,Sub-Saharan Africa,1.373333,32.290275,CA,Canada,country,North America,56.130366,-106.346771,12631.353610749,1986,1587,0,0,0,0,0,0,0,0,0,0,0,1587,0,0,0,0,0,0,0,0,0,0,0
AE,United Arab Emirates,country,Middle East and North Africa,23.424076,53.847818,CA,Canada,country,North America,56.130366,-106.346771,10985.8904178984,1986,21,0,0,21,0,0,0,0,0,0,0,0,0,0,0,0,0,0,0,0,0,0,0,0
GB,United Kingdom,country,Europe and Central Asia,55.378051,-3.435973,CA,Canada,country,North America,56.130366,-106.346771,5813.93474405187,1986,65663,15675,1,5194,182,167,122,875,1986,1229,89,1322,18102,3978,664,15284,67,0,760,33,0,0,0,0
TZ,Tanzania,country,Sub-Saharan Africa,-6.369028,34.888822,CA,Canada,country,North America,56.130366,-106.346771,13536.3411974762,1986,565,0,0,0,0,0,0,0,0,0,0,0,565,0,0,0,0,0,0,0,0,0,0,0
US,USA,country,North America,37.09024,-95.712891,CA,Canada,country,North America,56.130366,-106.346771,2264.06901471138,1986,4714046,900027,161477,230441,13558,28788,237668,1073333,775433,20608,2527,852908,26866,135116,86099,47067,25395,64243,33740,24147,0,0,0,0
VI,Virgin Islands (U.S.),country,Latin America and the Caribbean,18.335765,-64.896335,CA,Canada,country,North America,56.130366,-106.346771,5440.68225144043,1986,10,0,0,0,0,0,0,0,0,0,0,0,0,10,0,0,0,0,0,0,0,0,0,0
UY,Uruguay,country,Latin America and the Caribbean,-32.522779,-55.765835,CA,Canada,country,North America,56.130366,-106.346771,10966.3092858125,1986,3998,40,0,0,0,0,0,0,3826,93,0,0,0,0,0,0,0,0,39,0,0,0,0,0
RU,Russian Federation,country,Europe and Central Asia,61.52401,105.318756,CA,Canada,country,North America,56.130366,-106.346771,6651.92239525055,1986,873,0,0,0,0,0,0,0,8,277,0,0,68,39,0,481,0,0,0,0,0,0,0,0
VE,Venezuela,country,Latin America and the Caribbean,6.42375,-66.58973,CA,Canada,country,North America,56.130366,-106.346771,6541.00400633055,1986,1113,0,0,0,0,0,0,148,390,0,0,0,575,0,0,0,0,0,0,0,0,0,0,0
VN,Vietnam,country,East Asia and Pacific,14.058324,108.277199,CA,Canada,country,North America,56.130366,-106.346771,11585.5006842966,1986,188,91,0,0,0,0,0,0,16,0,4,0,0,26,0,0,0,0,51,0,0,0,0,0
BA,Bosnia & Herzegovina,country,Europe and Central Asia,43.915886,17.679076,CA,Canada,country,North America,56.130366,-106.346771,7729.54047976294,1986,7207,209,0,330,0,20,0,187,4928,0,95,0,129,192,3,1031,0,78,5,0,0,0,0,0
ZM,Zambia,country,Sub-Saharan Africa,-13.133897,27.849332,CA,Canada,country,North America,56.130366,-106.346771,13863.9705612056,1986,12,0,0,0,0,0,0,0,0,0,0,0,0,12,0,0,0,0,0,0,0,0,0,0
ZW,Zimbabwe,country,Sub-Saharan Africa,-19.015438,29.154857,CA,Canada,country,North America,56.130366,-106.346771,14501.2591704377,1986,24201,0,0,23977,0,10,0,0,0,0,0,0,84,130,0,0,0,0,0,0,0,0,0,0
AF,Afghanistan,country,South Asia,33.93911,67.709953,CA,Canada,country,North America,56.130366,-106.346771,9995.16899604884,1987,63,0,0,0,0,0,0,0,63,0,0,0,0,0,0,0,0,0,0,0,0,0,0,0
DZ,Algeria,country,Middle East and North Africa,28.033886,1.659626,CA,Canada,country,North America,56.130366,-106.346771,8484.88858511798,1987,13,0,0,0,0,0,0,0,0,0,0,0,0,0,0,13,0,0,0,0,0,0,0,0
AO,Angola,country,Sub-Saharan Africa,-11.202692,17.873887,CA,Canada,country,North America,56.130366,-106.346771,13130.5523982869,1987,167,0,0,0,0,0,0,0,0,0,0,0,167,0,0,0,0,0,0,0,0,0,0,0
AR,Argentina,country,Latin America and the Caribbean,-38.416097,-63.616672,CA,Canada,country,North America,56.130366,-106.346771,11271.6495545351,1987,15840,36,0,530,0,0,575,161,9298,45,0,0,882,1661,1000,404,0,898,350,0,0,0,0,0
AU,Australia,country,East Asia and Pacific,-25.274398,133.775136,CA,Canada,country,North America,56.130366,-106.346771,14167.4730667731,1987,413019,250,0,312813,1052,2,18,316,40500,678,37,9395,14,564,7,5078,0,41632,656,7,0,0,0,0
AT,Austria,country,Europe and Central Asia,47.516231,14.550072,CA,Canada,country,North America,56.130366,-106.346771,7260.85418287217,1987,2998,197,0,23,0,1,0,22,510,0,37,0,1065,98,0,470,0,0,575,0,0,0,0,0
BS,The Bahamas,country,Latin America and the Caribbean,25.03428,-77.39628,CA,Canada,country,North America,56.130366,-106.346771,4176.05489549885,1987,1000,0,0,0,0,0,0,0,307,0,0,0,0,0,0,693,0,0,0,0,0,0,0,0
BD,Bangladesh,country,South Asia,23.684994,90.356331,CA,Canada,country,North America,56.130366,-106.346771,11013.2212979032,1987,703,0,0,0,0,0,0,0,0,248,0,0,0,0,0,0,0,455,0,0,0,0,0,0
BB,Barbados,country,Latin America and the Caribbean,13.193887,-59.543198,CA,Canada,country,North America,56.130366,-106.346771,6220.58093293006,1987,15825,0,4,15186,0,0,0,383,0,0,0,0,0,11,0,241,0,0,0,0,0,0,0,0
BE,Belgium,country,Europe and Central Asia,50.503887,4.469936,CA,Canada,country,North America,56.130366,-106.346771,6569.9656900332,1987,9543,429,39,1856,51,170,0,3462,391,7,10,0,1207,854,37,958,0,59,13,0,0,0,0,0
BZ,Belize,country,Latin America and the Caribbean,17.189877,-88.49765,CA,Canada,country,North America,56.130366,-106.346771,4588.70831225977,1987,22601,0,0,21971,0,0,0,0,551,0,0,0,79,0,0,0,0,0,0,0,0,0,0,0
BJ,Benin,country,Sub-Saharan Africa,9.30769,2.315834,CA,Canada,country,North America,56.130366,-106.346771,10284.7732097828,1987,6,0,0,0,0,0,0,0,6,0,0,0,0,0,0,0,0,0,0,0,0,0,0,0
BM,Bermuda,country,North America,32.321384,-64.75737,CA,Canada,country,North America,56.130366,-106.346771,4144.7979506301,1987,23,0,0,0,0,0,0,0,0,0,0,0,0,0,0,23,0,0,0,0,0,0,0,0
BO,Bolivia,country,Latin America and the Caribbean,-16.290154,-63.588653,CA,Canada,country,North America,56.130366,-106.346771,8994.76571252565,1987,57,0,0,0,0,52,0,0,0,0,0,0,5,0,0,0,0,0,0,0,0,0,0,0
BR,Brazil,country,Latin America and the Caribbean,-14.235004,-51.92528,CA,Canada,country,North America,56.130366,-106.346771,9314.95503517065,1987,110650,27,9,6777,0,1676,0,2134,59647,981,146,0,32942,1486,608,2583,0,1632,0,2,0,0,0,0
BG,Bulgaria,country,Europe and Central Asia,42.733883,25.48583,CA,Canada,country,North America,56.130366,-106.346771,8139.30509216525,1987,2261,0,0,0,0,0,0,1175,348,0,19,0,0,17,0,452,0,0,250,0,0,0,0,0
CM,Cameroon,country,Sub-Saharan Africa,7.369722,12.354722,CA,Canada,country,North America,56.130366,-106.346771,11036.7347295925,1987,348,0,0,0,0,0,0,0,0,0,0,0,348,0,0,0,0,0,0,0,0,0,0,0
CL,Chile,country,Latin America and the Caribbean,-35.675147,-71.542969,CA,Canada,country,North America,56.130366,-106.346771,10737.7737589056,1987,49253,37,0,170,0,22,3,1591,46028,0,22,0,24,576,0,768,0,0,12,0,0,0,0,0
HK,Hong Kong,country,East Asia and Pacific,22.396428,114.109497,CA,Canada,country,North America,56.130366,-106.346771,10502.1050885388,1987,13793,2906,71,996,221,470,1780,1746,1236,280,205,17,169,2297,124,988,0,0,287,0,0,0,0,0
CN,China,country,East Asia and Pacific,35.86166,104.195397,CA,Canada,country,North America,56.130366,-106.346771,9396.37278483121,1987,90492,1008,22,359,361,7199,30918,20771,11951,15699,344,34,761,457,10,539,0,0,59,0,0,0,0,0
TW,Taiwan,country,East Asia and Pacific,23.69781,120.960515,CA,Canada,country,North America,56.130366,-106.346771,10097.296800686,1987,10079,815,0,81,16,32,103,3892,3561,0,63,157,66,1195,8,24,0,0,66,0,0,0,0,0
CO,Colombia,country,Latin America and the Caribbean,4.570868,-74.297333,CA,Canada,country,North America,56.130366,-106.346771,6402.8853720462,1987,69994,0,0,263,0,0,17,19,46544,0,6,34,20444,2664,0,3,0,0,0,0,0,0,0,0
CR,Costa Rica,country,Latin America and the Caribbean,9.748917,-83.753428,CA,Canada,country,North America,56.130366,-106.346771,5524.9530692938,1987,76127,0,0,0,0,9,0,697,69258,0,2,0,6147,14,0,0,0,0,0,0,0,0,0,0
CI,Ivory Coast,country,Sub-Saharan Africa,7.539989,-5.54708,CA,Canada,country,North America,56.130366,-106.346771,9984.12882348189,1987,13828,0,0,0,0,0,0,0,0,0,39,0,13686,103,0,0,0,0,0,0,0,0,0,0
CU,Cuba,country,Latin America and the Caribbean,21.521757,-77.781167,CA,Canada,country,North America,56.130366,-106.346771,4513.01019158509,1987,83248,0,0,83067,0,0,0,0,3,0,0,0,25,21,0,132,0,0,0,0,0,0,0,0
CY,Cyprus,country,Europe and Central Asia,35.126413,33.429859,CA,Canada,country,North America,56.130366,-106.346771,9189.05930545259,1987,101,0,0,0,0,0,7,0,0,0,0,0,68,6,0,20,0,0,0,0,0,0,0,0
CZ,Czech Republic,country,Europe and Central Asia,49.817492,15.472962,CA,Canada,country,North America,56.130366,-106.346771,7079.04708170123,1987,590,0,0,41,20,0,0,0,0,0,0,0,146,89,0,265,0,0,29,0,0,0,0,0
KP,"Korea, Dem. Rep.",country,East Asia and Pacific,40.339852,127.510093,CA,Canada,country,North America,56.130366,-106.346771,8162.56575623008,1987,4,0,0,0,0,0,0,0,0,0,0,0,0,4,0,0,0,0,0,0,0,0,0,0
CD,"Congo, Dem. Rep.",country,Sub-Saharan Africa,-4.038333,21.758664,CA,Canada,country,North America,56.130366,-106.346771,12654.1751620617,1987,227,0,0,0,0,0,0,0,0,0,0,0,227,0,0,0,0,0,0,0,0,0,0,0
DK,Denmark,country,Europe and Central Asia,56.26392,9.501785,CA,Canada,country,North America,56.130366,-106.346771,6261.92688304412,1987,22711,1750,0,3331,0,0,0,30,234,0,1,92,443,2366,3,904,0,9590,3967,0,0,0,0,0
DO,Dominican Republic,country,Latin America and the Caribbean,18.735693,-70.162651,CA,Canada,country,North America,56.130366,-106.346771,5138.24863098955,1987,10761,0,23,1783,0,582,0,3703,525,0,0,0,4088,57,0,0,0,0,0,0,0,0,0,0
EC,Ecuador,country,Latin America and the Caribbean,-1.831239,-78.183406,CA,Canada,country,North America,56.130366,-106.346771,6937.38548494733,1987,152802,0,0,0,0,0,0,66,148233,0,0,0,4461,42,0,0,0,0,0,0,0,0,0,0
EG,Egypt,country,Middle East and North Africa,26.820553,30.802498,CA,Canada,country,North America,56.130366,-106.346771,9954.90844208778,1987,1128,12,0,2,0,0,0,122,901,8,81,0,2,0,0,0,0,0,0,0,0,0,0,0
SV,El Salvador,country,Latin America and the Caribbean,13.794185,-88.89653,CA,Canada,country,North America,56.130366,-106.346771,4944.18436656976,1987,9947,0,0,0,0,0,9,112,0,0,0,0,9826,0,0,0,0,0,0,0,0,0,0,0
ET,Ethiopia,country,Sub-Saharan Africa,9.145,40.489673,CA,Canada,country,North America,56.130366,-106.346771,12154.5132872712,1987,1449,0,0,0,0,0,0,0,0,0,0,91,1358,0,0,0,0,0,0,0,0,0,0,0
FJ,Fiji,country,East Asia and Pacific,-16.578193,179.414413,CA,Canada,country,North America,56.130366,-106.346771,10605.215793589,1987,701,9,0,0,0,5,0,219,3,0,465,0,0,0,0,0,0,0,0,0,0,0,0,0
FI,Finland,country,Europe and Central Asia,61.92411,25.748151,CA,Canada,country,North America,56.130366,-106.346771,6252.49791448611,1987,1273,58,0,55,0,0,0,0,3,0,0,0,157,14,0,481,0,0,505,0,0,0,0,0
FR,France,country,Europe and Central Asia,46.227638,2.213749,CA,Canada,country,North America,56.130366,-106.346771,6848.46021650643,1987,111477,881,0,3888,19,13,218,1277,3949,43,155,675,571,3102,301,93127,19,18,2451,789,0,0,0,0
GF,French Guiana,country,Latin America and the Caribbean,3.933889,-53.125782,CA,Canada,country,North America,56.130366,-106.346771,7464.4903232162,1987,78,0,0,0,0,78,0,0,0,0,0,0,0,0,0,0,0,0,0,0,0,0,0,0
GA,Gabon,country,Sub-Saharan Africa,-0.803689,11.609444,CA,Canada,country,North America,56.130366,-106.346771,11781.6009125827,1987,1,0,0,0,0,0,0,0,0,0,1,0,0,0,0,0,0,0,0,0,0,0,0,0
GH,Ghana,country,Sub-Saharan Africa,7.946527,-1.023194,CA,Canada,country,North America,56.130366,-106.346771,10216.9909241126,1987,1773,0,0,0,0,0,0,0,0,0,0,0,1772,0,1,0,0,0,0,0,0,0,0,0
GR,Greece,country,Europe and Central Asia,39.074208,21.824312,CA,Canada,country,North America,56.130366,-106.346771,8367.69840957318,1987,18078,285,0,124,2,2,1856,1627,10936,0,26,0,141,79,457,2223,0,0,320,0,0,0,0,0
GL,Greenland,country,Europe and Central Asia,71.706936,-42.604303,CA,Canada,country,North America,56.130366,-106.346771,3343.28581097818,1987,67,44,0,0,0,0,0,0,5,0,0,0,0,18,0,0,0,0,0,0,0,0,0,0
GT,Guatemala,country,Latin America and the Caribbean,15.783471,-90.230759,CA,Canada,country,North America,56.130366,-106.346771,4695.22595708933,1987,12579,0,0,24,0,0,419,75,4212,0,31,0,7816,2,0,0,0,0,0,0,0,0,0,0
GN,Guinea,country,Sub-Saharan Africa,9.945587,-9.696645,CA,Canada,country,North America,56.130366,-106.346771,9509.01107607523,1987,46,0,0,0,0,0,0,0,0,0,0,0,46,0,0,0,0,0,0,0,0,0,0,0
GY,Guyana,country,Latin America and the Caribbean,4.860416,-58.93018,CA,Canada,country,North America,56.130366,-106.346771,7069.46783171859,1987,35723,0,0,33890,0,0,0,0,0,0,11,0,0,0,0,1822,0,0,0,0,0,0,0,0
HT,Haiti,country,Latin America and the Caribbean,18.971187,-72.285215,CA,Canada,country,North America,56.130366,-106.346771,5014.48150394047,1987,232,0,0,0,0,0,0,0,204,0,0,0,3,0,0,25,0,0,0,0,0,0,0,0
HN,Honduras,country,Latin America and the Caribbean,15.199999,-86.241905,CA,Canada,country,North America,56.130366,-106.346771,4866.8044089992,1987,19484,0,0,0,0,291,15,495,16831,0,0,0,1844,8,0,0,0,0,0,0,0,0,0,0
HU,Hungary,country,Europe and Central Asia,47.162494,19.503304,CA,Canada,country,North America,56.130366,-106.346771,7484.72540701994,1987,3791,30,0,0,0,0,0,137,294,0,123,0,58,1412,0,1737,0,0,0,0,0,0,0,0
IS,Iceland,country,Europe and Central Asia,64.963051,-19.020835,CA,Canada,country,North America,56.130366,-106.346771,4480.02677923048,1987,115,0,0,0,0,0,0,0,0,0,0,0,0,35,0,0,0,0,80,0,0,0,0,0
IN,India,country,South Asia,20.593684,78.96288,CA,Canada,country,North America,56.130366,-106.346771,11481.960523134,1987,10911,2604,0,39,278,1089,3,474,244,0,1879,46,3361,883,0,9,0,2,0,0,0,0,0,0
ID,Indonesia,country,East Asia and Pacific,-0.789275,113.921327,CA,Canada,country,North America,56.130366,-106.346771,12900.7589703636,1987,58630,3,0,0,0,0,0,0,680,0,996,0,6750,49439,700,0,0,62,0,0,0,0,0,0
IR,Iran,country,Middle East and North Africa,32.427908,53.688046,CA,Canada,country,North America,56.130366,-106.346771,9998.91262527433,1987,1785,0,0,0,0,601,0,0,1168,0,16,0,0,0,0,0,0,0,0,0,0,0,0,0
IQ,Iraq,country,Middle East and North Africa,33.223191,43.679291,CA,Canada,country,North America,56.130366,-106.346771,9692.86869830038,1987,1858,0,0,0,0,0,0,18,1840,0,0,0,0,0,0,0,0,0,0,0,0,0,0,0
IE,Ireland,country,Europe and Central Asia,53.41291,-8.24389,CA,Canada,country,North America,56.130366,-106.346771,5754.4276230661,1987,10209,266,0,182,0,0,0,0,3518,0,0,0,4489,427,0,873,0,0,24,430,0,0,0,0
IL,Israel,country,Middle East and North Africa,31.046051,34.851612,CA,Canada,country,North America,56.130366,-106.346771,9660.7035018164,1987,7315,438,0,199,0,4,25,4015,1512,0,31,0,186,573,0,238,0,0,94,0,0,0,0,0
IT,Italy,country,Europe and Central Asia,41.87194,12.56738,CA,Canada,country,North America,56.130366,-106.346771,7713.88513348809,1987,59745,9971,0,692,56,876,135,8443,4430,0,12,74,763,2094,3394,26804,0,115,1882,4,0,0,0,0
JM,Jamaica,country,Latin America and the Caribbean,18.109581,-77.297508,CA,Canada,country,North America,56.130366,-106.346771,4881.38993976234,1987,7372,124,2035,96,0,36,0,1322,1079,0,104,0,148,319,0,2095,0,0,14,0,0,0,0,0
JP,Japan,country,East Asia and Pacific,36.204824,138.252924,CA,Canada,country,North America,56.130366,-106.346771,8091.76666885355,1987,7609,643,12,285,21,13,466,490,1106,0,67,320,123,2233,336,1489,0,5,0,0,0,0,0,0
KE,Kenya,country,Sub-Saharan Africa,-0.023559,37.906193,CA,Canada,country,North America,56.130366,-106.346771,13014.8066435644,1987,4751,0,0,0,0,18,0,94,883,0,0,0,3756,0,0,0,0,0,0,0,0,0,0,0
KW,Kuwait,country,Middle East and North Africa,29.31166,47.481766,CA,Canada,country,North America,56.130366,-106.346771,10207.8742465528,1987,17,0,0,0,0,0,0,0,0,0,0,0,0,17,0,0,0,0,0,0,0,0,0,0
LB,Lebanon,country,Middle East and North Africa,33.854721,35.862285,CA,Canada,country,North America,56.130366,-106.346771,9400.28978599403,1987,505,0,0,142,0,7,0,58,60,0,18,0,0,137,53,30,0,0,0,0,0,0,0,0
LR,Liberia,country,Sub-Saharan Africa,6.428055,-9.429499,CA,Canada,country,North America,56.130366,-106.346771,9851.24602725408,1987,1969,0,0,0,0,0,0,0,0,0,0,0,79,1890,0,0,0,0,0,0,0,0,0,0
MG,Madagascar,country,Sub-Saharan Africa,-18.766947,46.869107,CA,Canada,country,North America,56.130366,-106.346771,15315.0362971086,1987,95,0,0,0,0,0,0,13,0,0,47,11,18,6,0,0,0,0,0,0,0,0,0,0
MW,Malawi,country,Sub-Saharan Africa,-13.254308,34.301525,CA,Canada,country,North America,56.130366,-106.346771,14201.8664900725,1987,535,0,0,0,124,0,0,0,0,0,0,0,411,0,0,0,0,0,0,0,0,0,0,0
MY,Malaysia,country,East Asia and Pacific,4.210484,101.975766,CA,Canada,country,North America,56.130366,-106.346771,12841.8190318606,1987,67478,25,0,0,0,0,787,20,1042,0,161,0,281,38612,26550,0,0,0,0,0,0,0,0,0
MT,Malta,country,Middle East and North Africa,35.937496,14.375416,CA,Canada,country,North America,56.130366,-106.346771,8362.36335326744,1987,14,0,0,0,0,0,0,5,0,0,0,0,9,0,0,0,0,0,0,0,0,0,0,0
MU,Mauritius,country,Sub-Saharan Africa,-20.348404,57.552152,CA,Canada,country,North America,56.130366,-106.346771,15835.8403652045,1987,74643,0,0,74643,0,0,0,0,0,0,0,0,0,0,0,0,0,0,0,0,0,0,0,0
MX,Mexico,country,Latin America and the Caribbean,23.634501,-102.552784,CA,Canada,country,North America,56.130366,-106.346771,3630.68555261904,1987,88242,9,23,148,150,3,1036,55476,17453,0,33,159,10701,199,0,2852,0,0,0,0,0,0,0,0
MA,Morocco,country,Middle East and North Africa,31.791702,-7.09262,CA,Canada,country,North America,56.130366,-106.346771,7661.29584084696,1987,23366,0,0,0,0,0,259,619,22189,0,236,0,0,27,0,36,0,0,0,0,0,0,0,0
MZ,Mozambique,country,Sub-Saharan Africa,-18.665695,35.529562,CA,Canada,country,North America,56.130366,-106.346771,14797.6389451452,1987,2389,0,0,0,0,152,0,0,2196,0,0,0,41,0,0,0,0,0,0,0,0,0,0,0
NL,Netherlands,country,Europe and Central Asia,52.132633,5.291266,CA,Canada,country,North America,56.130366,-106.346771,6460.97044969052,1987,39016,1869,39,1450,81,57,1108,7704,1437,22,229,126,6260,7044,3209,5518,0,518,2345,0,0,0,0,0
NZ,New Zealand,country,East Asia and Pacific,-40.900557,174.885971,CA,Canada,country,North America,56.130366,-106.346771,13078.8822655872,1987,81566,80,0,63,0,0,0,2313,39461,1023,0,0,0,1228,0,569,0,33730,2794,305,0,0,0,0
NI,Nicaragua,country,Latin America and the Caribbean,12.865416,-85.207229,CA,Canada,country,North America,56.130366,-106.346771,5147.49605458658,1987,3609,0,0,0,0,0,20,0,0,0,0,0,212,0,0,0,0,3377,0,0,0,0,0,0
NG,Nigeria,country,Sub-Saharan Africa,9.081999,8.675277,CA,Canada,country,North America,56.130366,-106.346771,10668.5613645531,1987,472,0,0,0,0,0,0,0,0,0,0,0,472,0,0,0,0,0,0,0,0,0,0,0
NO,Norway,country,Europe and Central Asia,60.472024,8.468946,CA,Canada,country,North America,56.130366,-106.346771,5856.9345481944,1987,2587,165,0,22,5,0,0,4,0,0,0,1130,37,169,0,24,0,0,1031,0,0,0,0,0
PK,Pakistan,country,South Asia,30.375321,69.345116,CA,Canada,country,North America,56.130366,-106.346771,10399.0587677442,1987,2691,43,0,0,0,0,0,36,1849,0,136,0,0,627,0,0,0,0,0,0,0,0,0,0
PA,Panama,country,Latin America and the Caribbean,8.537981,-80.782127,CA,Canada,country,North America,56.130366,-106.346771,5749.80779003065,1987,37406,0,0,0,0,0,22,111,36629,0,0,0,644,0,0,0,0,0,0,0,0,0,0,0
PG,Papua New Guinea,country,East Asia and Pacific,-6.314993,143.95555,CA,Canada,country,North America,56.130366,-106.346771,11815.7677366391,1987,199,0,0,0,0,0,0,0,0,0,0,0,199,0,0,0,0,0,0,0,0,0,0,0
PY,Paraguay,country,Latin America and the Caribbean,-23.442503,-58.443832,CA,Canada,country,North America,56.130366,-106.346771,9939.32593975579,1987,173,0,0,0,0,0,0,0,0,0,0,0,165,8,0,0,0,0,0,0,0,0,0,0
PE,Peru,country,Latin America and the Caribbean,-9.189967,-75.015152,CA,Canada,country,North America,56.130366,-106.346771,7824.25713309679,1987,3026,18,0,0,130,41,0,0,1071,0,0,0,1727,20,0,0,0,19,0,0,0,0,0,0
PH,Philippines,country,East Asia and Pacific,12.879721,121.774017,CA,Canada,country,North America,56.130366,-106.346771,11157.5249705632,1987,37994,132,10,4,8,38,4929,64,14977,598,8,0,453,474,16108,161,0,0,30,0,0,0,0,0
PL,Poland,country,Europe and Central Asia,51.919438,19.145136,CA,Canada,country,North America,56.130366,-106.346771,7013.00671366265,1987,6494,215,0,783,0,0,0,589,3980,0,0,0,73,358,0,496,0,0,0,0,0,0,0,0
PT,Portugal,country,Europe and Central Asia,39.399872,-8.224454,CA,Canada,country,North America,56.130366,-106.346771,6925.59693983038,1987,17084,119,99,33,142,131,245,9755,1762,0,0,0,9,224,312,4059,0,0,194,0,0,0,0,0
PR,Puerto Rico,country,Latin America and the Caribbean,18.220833,-66.590149,CA,Canada,country,North America,56.130366,-106.346771,5365.22162583443,1987,9185,0,0,167,0,113,0,417,64,0,0,2989,40,5281,0,73,0,0,0,41,0,0,0,0
KR,"Korea, Rep.",country,East Asia and Pacific,35.907757,127.766922,CA,Canada,country,North America,56.130366,-106.346771,8588.54488503841,1987,7286,1280,0,1807,0,72,19,70,985,0,14,29,2,2987,6,15,0,0,0,0,0,0,0,0
RO,Romania,country,Europe and Central Asia,45.943161,24.96676,CA,Canada,country,North America,56.130366,-106.346771,7800.24387178259,1987,369,108,0,0,0,0,0,156,0,0,0,18,0,0,0,81,0,0,6,0,0,0,0,0
SA,Saudi Arabia,country,Middle East and North Africa,23.885942,45.079162,CA,Canada,country,North America,56.130366,-106.346771,10730.1246216715,1987,8,0,0,0,0,0,0,0,0,0,0,0,0,8,0,0,0,0,0,0,0,0,0,0
SG,Singapore,country,East Asia and Pacific,1.352083,103.819836,CA,Canada,country,North America,56.130366,-106.346771,13082.5807805092,1987,3687,160,0,38,17,93,168,28,123,0,321,0,291,1848,440,160,0,0,0,0,0,0,0,0
SO,Somalia,country,Sub-Saharan Africa,5.152149,46.199616,CA,Canada,country,North America,56.130366,-106.346771,12769.1627085671,1987,15,0,0,0,0,0,0,15,0,0,0,0,0,0,0,0,0,0,0,0,0,0,0,0
ZA,S. Africa,country,Sub-Saharan Africa,-30.559482,22.937506,CA,Canada,country,North America,56.130366,-106.346771,15201.0107918611,1987,3887,0,0,0,0,0,0,0,3887,0,0,0,0,0,0,0,0,0,0,0,0,0,0,0
ES,Spain,country,Europe and Central Asia,40.463667,-3.74922,CA,Canada,country,North America,56.130366,-106.346771,7067.59909592,1987,69620,20,0,124,11,123,7234,11581,34001,13,721,0,414,311,1831,13236,0,0,0,0,0,0,0,0
LK,Sri Lanka,country,South Asia,7.873054,80.771797,CA,Canada,country,North America,56.130366,-106.346771,12882.518686048,1987,8775,76,0,0,0,125,199,2,17,0,238,0,3233,671,4214,0,0,0,0,0,0,0,0,0
SD,Sudan,country,Sub-Saharan Africa,12.862807,30.217636,CA,Canada,country,North America,56.130366,-106.346771,11366.1842844515,1987,34,0,0,0,0,0,0,0,0,0,0,0,0,34,0,0,0,0,0,0,0,0,0,0
SE,Sweden,country,Europe and Central Asia,60.128161,18.643501,CA,Canada,country,North America,56.130366,-106.346771,6221.33340369381,1987,2826,278,0,95,0,0,5,0,94,0,0,212,180,1139,9,557,0,11,246,0,0,0,0,0
CH,Switzerland,country,Europe and Central Asia,46.818188,8.227512,CA,Canada,country,North America,56.130366,-106.346771,7064.16536084984,1987,6460,99,0,82,0,0,0,87,168,0,7,123,941,2468,11,74,0,0,2400,0,0,0,0,0
SY,Syrian Arab Rep.,country,Middle East and North Africa,34.802075,38.996815,CA,Canada,country,North America,56.130366,-106.346771,9396.11630041273,1987,29,0,0,0,0,0,0,0,29,0,0,0,0,0,0,0,0,0,0,0,0,0,0,0
TH,Thailand,country,East Asia and Pacific,15.870032,100.992541,CA,Canada,country,North America,56.130366,-106.346771,11624.6754468999,1987,41922,12800,408,136,1712,24,125,1140,19826,0,92,267,1473,3821,20,19,0,0,59,0,0,0,0,0
TT,Trinidad and Tobago,country,Latin America and the Caribbean,10.691803,-61.222503,CA,Canada,country,North America,56.130366,-106.346771,6377.12517487862,1987,17105,0,9,16256,51,42,2,80,26,0,5,0,37,82,0,510,0,0,5,0,0,0,0,0
TN,Tunisia,country,Middle East and North Africa,33.886917,9.537499,CA,Canada,country,North America,56.130366,-106.346771,8334.7245599424,1987,80,0,0,0,0,0,0,0,37,0,0,35,0,8,0,0,0,0,0,0,0,0,0,0
TR,Turkey,country,Europe and Central Asia,38.963745,35.243322,CA,Canada,country,North America,56.130366,-106.346771,8847.72704375395,1987,18090,599,0,24,429,876,44,4730,10432,391,443,66,0,55,1,0,0,0,0,0,0,0,0,0
UG,Uganda,country,Sub-Saharan Africa,1.373333,32.290275,CA,Canada,country,North America,56.130366,-106.346771,12631.353610749,1987,1292,0,0,0,0,0,0,0,0,0,0,0,1292,0,0,0,0,0,0,0,0,0,0,0
AE,United Arab Emirates,country,Middle East and North Africa,23.424076,53.847818,CA,Canada,country,North America,56.130366,-106.346771,10985.8904178984,1987,11,0,0,0,0,11,0,0,0,0,0,0,0,0,0,0,0,0,0,0,0,0,0,0
GB,United Kingdom,country,Europe and Central Asia,55.378051,-3.435973,CA,Canada,country,North America,56.130366,-106.346771,5813.93474405187,1987,61471,7296,0,4935,193,89,83,895,2806,1249,119,1029,20121,4538,966,15629,0,357,990,176,0,0,0,0
TZ,Tanzania,country,Sub-Saharan Africa,-6.369028,34.888822,CA,Canada,country,North America,56.130366,-106.346771,13536.3411974762,1987,312,0,0,0,0,0,0,0,0,0,0,0,312,0,0,0,0,0,0,0,0,0,0,0
US,USA,country,North America,37.09024,-95.712891,CA,Canada,country,North America,56.130366,-106.346771,2264.06901471138,1987,4687040,542308,175257,266248,12961,23099,299551,1105920,837423,33118,3554,918089,28617,151032,98896,54132,30578,74656,35835,26344,0,0,0,0
VI,Virgin Islands (U.S.),country,Latin America and the Caribbean,18.335765,-64.896335,CA,Canada,country,North America,56.130366,-106.346771,5440.68225144043,1987,10,0,0,0,0,0,0,0,0,0,0,0,0,10,0,0,0,0,0,0,0,0,0,0
UY,Uruguay,country,Latin America and the Caribbean,-32.522779,-55.765835,CA,Canada,country,North America,56.130366,-106.346771,10966.3092858125,1987,3336,0,0,0,0,0,0,0,3060,53,0,0,12,165,0,0,0,0,46,0,0,0,0,0
RU,Russian Federation,country,Europe and Central Asia,61.52401,105.318756,CA,Canada,country,North America,56.130366,-106.346771,6651.92239525055,1987,1202,0,0,0,0,0,0,13,0,620,0,0,27,0,0,422,0,0,0,120,0,0,0,0
VE,Venezuela,country,Latin America and the Caribbean,6.42375,-66.58973,CA,Canada,country,North America,56.130366,-106.346771,6541.00400633055,1987,34268,37,0,32538,0,0,0,918,429,0,0,0,346,0,0,0,0,0,0,0,0,0,0,0
VN,Vietnam,country,East Asia and Pacific,14.058324,108.277199,CA,Canada,country,North America,56.130366,-106.346771,11585.5006842966,1987,147,0,0,0,42,16,0,0,0,0,0,0,0,66,0,0,0,0,23,0,0,0,0,0
BA,Bosnia & Herzegovina,country,Europe and Central Asia,43.915886,17.679076,CA,Canada,country,North America,56.130366,-106.346771,7729.54047976294,1987,7024,184,0,348,100,19,0,424,4291,0,84,0,249,285,8,955,0,71,6,0,0,0,0,0
ZM,Zambia,country,Sub-Saharan Africa,-13.133897,27.849332,CA,Canada,country,North America,56.130366,-106.346771,13863.9705612056,1987,42,0,0,0,0,0,0,0,0,0,0,0,0,42,0,0,0,0,0,0,0,0,0,0
ZW,Zimbabwe,country,Sub-Saharan Africa,-19.015438,29.154857,CA,Canada,country,North America,56.130366,-106.346771,14501.2591704377,1987,46208,0,0,45503,0,0,0,0,0,0,0,0,577,128,0,0,0,0,0,0,0,0,0,0
DZ,Algeria,country,Middle East and North Africa,28.033886,1.659626,CA,Canada,country,North America,56.130366,-106.346771,8484.88858511798,1988,54,0,0,0,0,0,0,0,20,0,0,0,0,0,0,34,0,0,0,0,0,0,0,0
AG,Antigua & Barbuda,country,Latin America and the Caribbean,17.060816,-61.796428,CA,Canada,country,North America,56.130366,-106.346771,5726.72436956117,1988,134,15,0,0,0,0,0,35,0,0,0,0,47,0,0,0,0,37,0,0,0,0,0,0
AR,Argentina,country,Latin America and the Caribbean,-38.416097,-63.616672,CA,Canada,country,North America,56.130366,-106.346771,11271.6495545351,1988,20366,59,0,500,0,519,4604,128,9140,345,0,18,382,145,1798,804,0,1490,434,0,0,0,0,0
AU,Australia,country,East Asia and Pacific,-25.274398,133.775136,CA,Canada,country,North America,56.130366,-106.346771,14167.4730667731,1988,514551,494,0,413593,1256,3,76,8,38515,318,23,197,116,89,0,17744,0,41790,317,12,0,0,0,0
AT,Austria,country,Europe and Central Asia,47.516231,14.550072,CA,Canada,country,North America,56.130366,-106.346771,7260.85418287217,1988,3244,571,0,59,0,0,2,22,224,0,3,0,1275,110,0,347,0,65,566,0,0,0,0,0
BS,The Bahamas,country,Latin America and the Caribbean,25.03428,-77.39628,CA,Canada,country,North America,56.130366,-106.346771,4176.05489549885,1988,1377,0,0,0,0,0,0,0,0,0,0,0,0,0,0,1377,0,0,0,0,0,0,0,0
BH,Bahrain,country,Middle East and North Africa,25.930414,50.637772,CA,Canada,country,North America,56.130366,-106.346771,10646.2700877435,1988,14,0,0,0,0,0,0,0,0,0,0,0,0,0,0,0,0,14,0,0,0,0,0,0
BD,Bangladesh,country,South Asia,23.684994,90.356331,CA,Canada,country,North America,56.130366,-106.346771,11013.2212979032,1988,700,0,0,0,0,0,0,0,0,338,0,0,0,0,0,0,0,362,0,0,0,0,0,0
BB,Barbados,country,Latin America and the Caribbean,13.193887,-59.543198,CA,Canada,country,North America,56.130366,-106.346771,6220.58093293006,1988,6813,0,86,6458,0,0,0,42,40,0,2,0,0,14,0,171,0,0,0,0,0,0,0,0
BE,Belgium,country,Europe and Central Asia,50.503887,4.469936,CA,Canada,country,North America,56.130366,-106.346771,6569.9656900332,1988,15630,836,48,8618,20,0,1,2844,430,55,2,94,1740,207,149,558,0,0,24,0,4,0,0,0
BZ,Belize,country,Latin America and the Caribbean,17.189877,-88.49765,CA,Canada,country,North America,56.130366,-106.346771,4588.70831225977,1988,25335,0,0,22153,0,0,0,0,3182,0,0,0,0,0,0,0,0,0,0,0,0,0,0,0
BM,Bermuda,country,North America,32.321384,-64.75737,CA,Canada,country,North America,56.130366,-106.346771,4144.7979506301,1988,61,0,0,0,0,0,0,0,0,0,0,0,0,0,0,61,0,0,0,0,0,0,0,0
BO,Bolivia,country,Latin America and the Caribbean,-16.290154,-63.588653,CA,Canada,country,North America,56.130366,-106.346771,8994.76571252565,1988,91,0,0,0,0,74,0,0,0,0,0,0,17,0,0,0,0,0,0,0,0,0,0,0
BR,Brazil,country,Latin America and the Caribbean,-14.235004,-51.92528,CA,Canada,country,North America,56.130366,-106.346771,9314.95503517065,1988,89819,37,0,1727,0,1789,8,3780,39267,880,266,10,37682,93,282,939,0,3056,0,3,0,0,0,0
VG,British Virgin Islands,country,Latin America and the Caribbean,18.420695,-64.639968,CA,Canada,country,North America,56.130366,-106.346771,5445.73818047513,1988,2,0,0,0,0,0,0,0,0,0,0,0,0,0,0,2,0,0,0,0,0,0,0,0
BG,Bulgaria,country,Europe and Central Asia,42.733883,25.48583,CA,Canada,country,North America,56.130366,-106.346771,8139.30509216525,1988,2597,0,0,0,0,0,0,1136,300,0,0,0,9,126,0,808,0,0,218,0,0,0,0,0
BI,Burundi,country,Sub-Saharan Africa,-3.373056,29.918886,CA,Canada,country,North America,56.130366,-106.346771,13001.8311333527,1988,156,0,0,0,0,0,0,0,0,0,0,0,156,0,0,0,0,0,0,0,0,0,0,0
KH,Cambodia,country,East Asia and Pacific,12.565679,104.990963,CA,Canada,country,North America,56.130366,-106.346771,11855.1663602381,1988,17,0,0,0,0,0,0,0,0,0,0,0,17,0,0,0,0,0,0,0,0,0,0,0
CM,Cameroon,country,Sub-Saharan Africa,7.369722,12.354722,CA,Canada,country,North America,56.130366,-106.346771,11036.7347295925,1988,674,0,0,0,0,0,100,0,0,0,0,0,574,0,0,0,0,0,0,0,0,0,0,0
KY,Cayman Islands,country,Latin America and the Caribbean,19.513469,-80.566956,CA,Canada,country,North America,56.130366,-106.346771,4606.22505237403,1988,64,0,0,0,0,0,40,0,0,0,0,0,24,0,0,0,0,0,0,0,0,0,0,0
CF,Central African Rep.,country,Sub-Saharan Africa,6.611111,20.939444,CA,Canada,country,North America,56.130366,-106.346771,11563.1227614543,1988,20,0,0,0,0,0,0,0,0,0,0,0,20,0,0,0,0,0,0,0,0,0,0,0
CL,Chile,country,Latin America and the Caribbean,-35.675147,-71.542969,CA,Canada,country,North America,56.130366,-106.346771,10737.7737589056,1988,69416,136,0,556,80,19,0,1787,63842,0,47,75,195,124,0,2555,0,0,0,0,0,0,0,0
HK,Hong Kong,country,East Asia and Pacific,22.396428,114.109497,CA,Canada,country,North America,56.130366,-106.346771,10502.1050885388,1988,14206,2711,254,905,358,250,1160,1991,1935,267,134,39,163,2731,223,891,0,0,122,72,0,0,0,0
MO,"Macao SAR, China",country,East Asia and Pacific,22.198745,113.543873,CA,Canada,country,North America,56.130366,-106.346771,10543.6400798961,1988,98,0,0,0,0,0,0,23,58,0,0,0,0,0,0,17,0,0,0,0,0,0,0,0
CN,China,country,East Asia and Pacific,35.86166,104.195397,CA,Canada,country,North America,56.130366,-106.346771,9396.37278483121,1988,61794,1466,184,800,407,7801,22314,15147,10189,508,356,55,715,790,91,607,0,39,309,16,0,0,0,0
TW,Taiwan,country,East Asia and Pacific,23.69781,120.960515,CA,Canada,country,North America,56.130366,-106.346771,10097.296800686,1988,10982,697,15,131,88,4,199,4602,3396,0,287,787,59,606,13,46,0,0,52,0,0,0,0,0
CO,Colombia,country,Latin America and the Caribbean,4.570868,-74.297333,CA,Canada,country,North America,56.130366,-106.346771,6402.8853720462,1988,46092,0,0,116,0,0,0,21,26635,0,0,152,19168,0,0,0,0,0,0,0,0,0,0,0
KM,Comoros,country,Sub-Saharan Africa,-11.875001,43.872219,CA,Canada,country,North America,56.130366,-106.346771,14483.3740642331,1988,42,0,24,0,0,0,0,0,0,0,18,0,0,0,0,0,0,0,0,0,0,0,0,0
CR,Costa Rica,country,Latin America and the Caribbean,9.748917,-83.753428,CA,Canada,country,North America,56.130366,-106.346771,5524.9530692938,1988,49649,0,126,0,0,0,4,86,45872,0,1,0,3560,0,0,0,0,0,0,0,0,0,0,0
CI,Ivory Coast,country,Sub-Saharan Africa,7.539989,-5.54708,CA,Canada,country,North America,56.130366,-106.346771,9984.12882348189,1988,10697,0,0,0,0,0,0,0,77,0,0,0,10620,0,0,0,0,0,0,0,0,0,0,0
CU,Cuba,country,Latin America and the Caribbean,21.521757,-77.781167,CA,Canada,country,North America,56.130366,-106.346771,4513.01019158509,1988,120590,0,0,120023,0,0,0,0,0,0,0,0,0,62,0,498,0,7,0,0,0,0,0,0
CY,Cyprus,country,Europe and Central Asia,35.126413,33.429859,CA,Canada,country,North America,56.130366,-106.346771,9189.05930545259,1988,113,0,0,0,0,0,0,0,0,0,0,0,49,35,0,29,0,0,0,0,0,0,0,0
CZ,Czech Republic,country,Europe and Central Asia,49.817492,15.472962,CA,Canada,country,North America,56.130366,-106.346771,7079.04708170123,1988,668,0,0,8,0,0,0,0,0,0,0,0,335,11,0,314,0,0,0,0,0,0,0,0
KP,"Korea, Dem. Rep.",country,East Asia and Pacific,40.339852,127.510093,CA,Canada,country,North America,56.130366,-106.346771,8162.56575623008,1988,0,0,0,0,0,0,0,0,0,0,0,0,0,0,0,0,0,0,0,0,0,0,0,0
CD,"Congo, Dem. Rep.",country,Sub-Saharan Africa,-4.038333,21.758664,CA,Canada,country,North America,56.130366,-106.346771,12654.1751620617,1988,38,0,0,0,0,0,0,0,0,0,0,0,38,0,0,0,0,0,0,0,0,0,0,0
DK,Denmark,country,Europe and Central Asia,56.26392,9.501785,CA,Canada,country,North America,56.130366,-106.346771,6261.92688304412,1988,19901,2192,0,5498,0,0,0,13,632,0,0,121,267,930,2,603,16,4633,5010,0,0,0,0,0
DM,Dominica,country,Latin America and the Caribbean,15.414999,-61.370976,CA,Canada,country,North America,56.130366,-106.346771,5908.34603722269,1988,247,0,0,0,0,0,0,11,3,0,0,16,197,20,0,0,0,0,0,0,0,0,0,0
DO,Dominican Republic,country,Latin America and the Caribbean,18.735693,-70.162651,CA,Canada,country,North America,56.130366,-106.346771,5138.24863098955,1988,8111,0,32,1878,20,0,481,1732,580,0,0,0,3379,9,0,0,0,0,0,0,0,0,0,0
EC,Ecuador,country,Latin America and the Caribbean,-1.831239,-78.183406,CA,Canada,country,North America,56.130366,-106.346771,6937.38548494733,1988,91602,0,0,0,0,0,19,180,86896,0,0,0,4495,12,0,0,0,0,0,0,0,0,0,0
EG,Egypt,country,Middle East and North Africa,26.820553,30.802498,CA,Canada,country,North America,56.130366,-106.346771,9954.90844208778,1988,1810,35,18,0,0,0,0,143,1537,7,54,0,0,16,0,0,0,0,0,0,0,0,0,0
SV,El Salvador,country,Latin America and the Caribbean,13.794185,-88.89653,CA,Canada,country,North America,56.130366,-106.346771,4944.18436656976,1988,10357,0,0,0,0,0,84,68,0,0,0,0,10205,0,0,0,0,0,0,0,0,0,0,0
ET,Ethiopia,country,Sub-Saharan Africa,9.145,40.489673,CA,Canada,country,North America,56.130366,-106.346771,12154.5132872712,1988,1879,20,0,0,0,0,19,0,0,0,0,203,1637,0,0,0,0,0,0,0,0,0,0,0
FJ,Fiji,country,East Asia and Pacific,-16.578193,179.414413,CA,Canada,country,North America,56.130366,-106.346771,10605.215793589,1988,656,3,18,0,0,0,0,200,10,0,425,0,0,0,0,0,0,0,0,0,0,0,0,0
FI,Finland,country,Europe and Central Asia,61.92411,25.748151,CA,Canada,country,North America,56.130366,-106.346771,6252.49791448611,1988,932,104,0,26,0,0,9,0,2,0,0,0,123,0,0,302,0,0,366,0,0,0,0,0
FR,France,country,Europe and Central Asia,46.227638,2.213749,CA,Canada,country,North America,56.130366,-106.346771,6848.46021650643,1988,113381,1198,0,3702,1,12,1190,1872,2930,29,154,3511,1424,2506,1098,91262,26,38,2294,160,0,0,0,0
GA,Gabon,country,Sub-Saharan Africa,-0.803689,11.609444,CA,Canada,country,North America,56.130366,-106.346771,11781.6009125827,1988,52,0,0,0,0,0,0,0,18,0,0,0,34,0,0,0,0,0,0,0,0,0,0,0
GH,Ghana,country,Sub-Saharan Africa,7.946527,-1.023194,CA,Canada,country,North America,56.130366,-106.346771,10216.9909241126,1988,779,0,0,0,0,0,0,0,0,0,0,0,765,5,9,0,0,0,0,0,0,0,0,0
GI,Gibraltar,country,Europe and Central Asia,36.137741,-5.345374,CA,Canada,country,North America,56.130366,-106.346771,7367.81216312467,1988,38,0,0,0,0,0,0,0,0,0,0,0,38,0,0,0,0,0,0,0,0,0,0,0
GR,Greece,country,Europe and Central Asia,39.074208,21.824312,CA,Canada,country,North America,56.130366,-106.346771,8367.69840957318,1988,20779,294,0,120,9,0,2026,536,14686,12,21,0,122,41,572,1857,0,0,483,0,0,0,0,0
GD,Grenada,country,Latin America and the Caribbean,12.262776,-61.604171,CA,Canada,country,North America,56.130366,-106.346771,6203.30032556076,1988,185,0,0,0,0,0,0,0,0,0,77,0,108,0,0,0,0,0,0,0,0,0,0,0
GU,Guam,country,East Asia and Pacific,13.444304,144.793731,CA,Canada,country,North America,56.130366,-106.346771,9904.99271749104,1988,157,0,0,0,0,0,0,0,0,0,0,0,157,0,0,0,0,0,0,0,0,0,0,0
GT,Guatemala,country,Latin America and the Caribbean,15.783471,-90.230759,CA,Canada,country,North America,56.130366,-106.346771,4695.22595708933,1988,14637,0,0,44,0,1,499,434,5288,0,28,0,8343,0,0,0,0,0,0,0,0,0,0,0
GN,Guinea,country,Sub-Saharan Africa,9.945587,-9.696645,CA,Canada,country,North America,56.130366,-106.346771,9509.01107607523,1988,98,0,0,0,0,0,0,0,0,0,0,0,98,0,0,0,0,0,0,0,0,0,0,0
GY,Guyana,country,Latin America and the Caribbean,4.860416,-58.93018,CA,Canada,country,North America,56.130366,-106.346771,7069.46783171859,1988,2161,0,0,800,0,0,0,0,0,0,0,0,0,0,0,1361,0,0,0,0,0,0,0,0
HT,Haiti,country,Latin America and the Caribbean,18.971187,-72.285215,CA,Canada,country,North America,56.130366,-106.346771,5014.48150394047,1988,611,0,0,0,0,0,0,0,525,0,0,0,78,0,0,8,0,0,0,0,0,0,0,0
HN,Honduras,country,Latin America and the Caribbean,15.199999,-86.241905,CA,Canada,country,North America,56.130366,-106.346771,4866.8044089992,1988,28918,0,0,0,0,0,9,1022,25342,0,0,0,2533,12,0,0,0,0,0,0,0,0,0,0
HU,Hungary,country,Europe and Central Asia,47.162494,19.503304,CA,Canada,country,North America,56.130366,-106.346771,7484.72540701994,1988,3788,16,0,9,0,0,40,722,326,0,179,2,75,257,0,2073,0,0,89,0,0,0,0,0
IS,Iceland,country,Europe and Central Asia,64.963051,-19.020835,CA,Canada,country,North America,56.130366,-106.346771,4480.02677923048,1988,356,0,0,0,0,0,0,190,5,0,5,0,0,156,0,0,16,0,0,0,0,0,0,0
IN,India,country,South Asia,20.593684,78.96288,CA,Canada,country,North America,56.130366,-106.346771,11481.960523134,1988,12436,4600,0,273,572,611,207,271,612,0,2643,0,2028,591,0,0,0,28,0,0,0,0,0,0
ID,Indonesia,country,East Asia and Pacific,-0.789275,113.921327,CA,Canada,country,North America,56.130366,-106.346771,12900.7589703636,1988,41844,11,0,0,0,5,45,0,1654,0,1008,0,3077,35921,0,0,0,123,0,0,0,0,0,0
IR,Iran,country,Middle East and North Africa,32.427908,53.688046,CA,Canada,country,North America,56.130366,-106.346771,9998.91262527433,1988,3011,0,0,0,0,706,0,0,1820,0,9,0,306,168,0,2,0,0,0,0,0,0,0,0
IQ,Iraq,country,Middle East and North Africa,33.223191,43.679291,CA,Canada,country,North America,56.130366,-106.346771,9692.86869830038,1988,407,0,0,0,0,0,0,0,407,0,0,0,0,0,0,0,0,0,0,0,0,0,0,0
IE,Ireland,country,Europe and Central Asia,53.41291,-8.24389,CA,Canada,country,North America,56.130366,-106.346771,5754.4276230661,1988,10587,564,0,105,0,0,0,156,283,0,0,0,8186,213,0,1008,0,0,23,49,0,0,0,0
IL,Israel,country,Middle East and North Africa,31.046051,34.851612,CA,Canada,country,North America,56.130366,-106.346771,9660.7035018164,1988,9672,498,0,156,23,17,29,4340,3417,0,42,0,216,333,0,435,0,0,166,0,0,0,0,0
IT,Italy,country,Europe and Central Asia,41.87194,12.56738,CA,Canada,country,North America,56.130366,-106.346771,7713.88513348809,1988,65666,11993,1,922,75,765,253,11006,3174,0,43,345,2659,978,4815,26294,0,77,2258,8,0,0,0,0
JM,Jamaica,country,Latin America and the Caribbean,18.109581,-77.297508,CA,Canada,country,North America,56.130366,-106.346771,4881.38993976234,1988,6769,129,3600,52,0,0,10,648,483,0,137,0,228,256,0,1196,0,0,30,0,0,0,0,0
JP,Japan,country,East Asia and Pacific,36.204824,138.252924,CA,Canada,country,North America,56.130366,-106.346771,8091.76666885355,1988,21938,1213,121,114,43,115,682,926,15159,0,37,336,111,1027,370,1665,0,19,0,0,0,0,0,0
KE,Kenya,country,Sub-Saharan Africa,-0.023559,37.906193,CA,Canada,country,North America,56.130366,-106.346771,13014.8066435644,1988,5413,4,0,0,64,38,0,1,1149,0,2,0,4133,22,0,0,0,0,0,0,0,0,0,0
LB,Lebanon,country,Middle East and North Africa,33.854721,35.862285,CA,Canada,country,North America,56.130366,-106.346771,9400.28978599403,1988,730,4,0,117,17,33,35,164,127,0,16,0,11,159,34,12,0,0,1,0,0,0,0,0
LR,Liberia,country,Sub-Saharan Africa,6.428055,-9.429499,CA,Canada,country,North America,56.130366,-106.346771,9851.24602725408,1988,2716,0,0,0,0,0,0,0,0,0,0,0,8,2708,0,0,0,0,0,0,0,0,0,0
MG,Madagascar,country,Sub-Saharan Africa,-18.766947,46.869107,CA,Canada,country,North America,56.130366,-106.346771,15315.0362971086,1988,57,0,0,0,0,0,0,0,0,0,42,0,15,0,0,0,0,0,0,0,0,0,0,0
MW,Malawi,country,Sub-Saharan Africa,-13.254308,34.301525,CA,Canada,country,North America,56.130366,-106.346771,14201.8664900725,1988,8257,0,0,7864,269,0,0,41,0,0,0,0,83,0,0,0,0,0,0,0,0,0,0,0
MY,Malaysia,country,East Asia and Pacific,4.210484,101.975766,CA,Canada,country,North America,56.130366,-106.346771,12841.8190318606,1988,78697,21,0,6,0,0,673,0,373,0,84,0,2034,34700,40801,5,0,0,0,0,0,0,0,0
ML,Mali,country,Sub-Saharan Africa,17.570692,-3.996166,CA,Canada,country,North America,56.130366,-106.346771,9142.11012270203,1988,4070,0,0,0,0,0,0,0,0,4055,15,0,0,0,0,0,0,0,0,0,0,0,0,0
MT,Malta,country,Middle East and North Africa,35.937496,14.375416,CA,Canada,country,North America,56.130366,-106.346771,8362.36335326744,1988,26,0,0,0,0,0,0,0,0,0,0,0,8,18,0,0,0,0,0,0,0,0,0,0
MU,Mauritius,country,Sub-Saharan Africa,-20.348404,57.552152,CA,Canada,country,North America,56.130366,-106.346771,15835.8403652045,1988,60022,0,0,59986,0,0,0,0,0,0,0,0,36,0,0,0,0,0,0,0,0,0,0,0
MX,Mexico,country,Latin America and the Caribbean,23.634501,-102.552784,CA,Canada,country,North America,56.130366,-106.346771,3630.68555261904,1988,125114,0,12,19219,254,0,1339,68600,21362,52,3,95,9361,19,0,4798,0,0,0,0,0,0,0,0
MS,Montserrat,country,Latin America and the Caribbean,16.7425,-62.1874,CA,Canada,country,North America,56.130366,-106.346771,5736.71972558278,1988,84,0,0,0,0,0,0,51,16,0,0,0,17,0,0,0,0,0,0,0,0,0,0,0
MA,Morocco,country,Middle East and North Africa,31.791702,-7.09262,CA,Canada,country,North America,56.130366,-106.346771,7661.29584084696,1988,29089,1,0,0,0,0,275,450,28241,0,108,0,0,3,0,11,0,0,0,0,0,0,0,0
MZ,Mozambique,country,Sub-Saharan Africa,-18.665695,35.529562,CA,Canada,country,North America,56.130366,-106.346771,14797.6389451452,1988,4359,0,0,0,0,134,0,82,4139,0,0,0,0,0,4,0,0,0,0,0,0,0,0,0
NP,Nepal,country,South Asia,28.394857,84.124008,CA,Canada,country,North America,56.130366,-106.346771,10575.9145042578,1988,3,0,0,0,0,0,0,0,0,0,0,0,0,0,0,0,0,0,3,0,0,0,0,0
NL,Netherlands,country,Europe and Central Asia,52.132633,5.291266,CA,Canada,country,North America,56.130366,-106.346771,6460.97044969052,1988,33311,2405,0,1763,45,163,3128,7751,1097,0,94,409,5979,1230,1096,5377,46,517,2118,0,139,0,0,0
NZ,New Zealand,country,East Asia and Pacific,-40.900557,174.885971,CA,Canada,country,North America,56.130366,-106.346771,13078.8822655872,1988,68104,86,0,0,0,0,0,1983,24524,985,0,0,0,285,0,522,0,34884,3482,1353,0,0,0,0
NI,Nicaragua,country,Latin America and the Caribbean,12.865416,-85.207229,CA,Canada,country,North America,56.130366,-106.346771,5147.49605458658,1988,9668,0,0,0,0,0,39,0,22,0,0,0,222,0,0,213,0,9172,0,0,0,0,0,0
NE,Niger,country,Sub-Saharan Africa,17.607789,8.081666,CA,Canada,country,North America,56.130366,-106.346771,9817.8828466528,1988,160,0,0,0,0,0,0,0,0,0,0,0,147,0,0,0,0,13,0,0,0,0,0,0
NG,Nigeria,country,Sub-Saharan Africa,9.081999,8.675277,CA,Canada,country,North America,56.130366,-106.346771,10668.5613645531,1988,2200,0,0,0,0,0,0,0,0,0,0,0,2194,0,6,0,0,0,0,0,0,0,0,0
NO,Norway,country,Europe and Central Asia,60.472024,8.468946,CA,Canada,country,North America,56.130366,-106.346771,5856.9345481944,1988,2656,181,0,0,0,0,0,0,10,0,0,1505,11,10,0,21,0,0,918,0,0,0,0,0
PK,Pakistan,country,South Asia,30.375321,69.345116,CA,Canada,country,North America,56.130366,-106.346771,10399.0587677442,1988,2445,84,0,0,0,0,7,4,2120,0,222,0,0,8,0,0,0,0,0,0,0,0,0,0
PA,Panama,country,Latin America and the Caribbean,8.537981,-80.782127,CA,Canada,country,North America,56.130366,-106.346771,5749.80779003065,1988,38053,0,0,0,0,0,2,91,37374,0,0,0,586,0,0,0,0,0,0,0,0,0,0,0
PG,Papua New Guinea,country,East Asia and Pacific,-6.314993,143.95555,CA,Canada,country,North America,56.130366,-106.346771,11815.7677366391,1988,4,0,0,0,0,0,0,0,0,0,0,0,4,0,0,0,0,0,0,0,0,0,0,0
PY,Paraguay,country,Latin America and the Caribbean,-23.442503,-58.443832,CA,Canada,country,North America,56.130366,-106.346771,9939.32593975579,1988,66,0,0,0,0,0,0,0,0,0,0,0,66,0,0,0,0,0,0,0,0,0,0,0
PE,Peru,country,Latin America and the Caribbean,-9.189967,-75.015152,CA,Canada,country,North America,56.130366,-106.346771,7824.25713309679,1988,4068,0,0,0,130,52,0,38,487,6,0,0,3355,0,0,0,0,0,0,0,0,0,0,0
PH,Philippines,country,East Asia and Pacific,12.879721,121.774017,CA,Canada,country,North America,56.130366,-106.346771,11157.5249705632,1988,33411,168,28,26,16,22,6150,70,12725,133,12,16,1163,149,12631,66,0,0,36,0,0,0,0,0
PL,Poland,country,Europe and Central Asia,51.919438,19.145136,CA,Canada,country,North America,56.130366,-106.346771,7013.00671366265,1988,6476,508,0,622,0,0,0,641,4384,0,0,0,126,44,0,151,0,0,0,0,0,0,0,0
PT,Portugal,country,Europe and Central Asia,39.399872,-8.224454,CA,Canada,country,North America,56.130366,-106.346771,6925.59693983038,1988,16072,134,85,16,158,96,323,8768,1255,0,0,0,16,92,368,4344,0,0,417,0,0,0,0,0
PR,Puerto Rico,country,Latin America and the Caribbean,18.220833,-66.590149,CA,Canada,country,North America,56.130366,-106.346771,5365.22162583443,1988,8335,0,0,132,0,0,0,282,88,0,0,1117,0,6649,23,2,0,0,0,42,0,0,0,0
KR,"Korea, Rep.",country,East Asia and Pacific,35.907757,127.766922,CA,Canada,country,North America,56.130366,-106.346771,8588.54488503841,1988,10282,1652,16,1242,18,177,23,1772,896,0,18,445,57,3823,8,128,0,0,7,0,0,0,0,0
RE,Reunion,country,Sub-Saharan Africa,-21.115141,55.536384,CA,Canada,country,North America,56.130366,-106.346771,15861.6921645816,1988,6,0,0,0,0,0,0,0,0,0,6,0,0,0,0,0,0,0,0,0,0,0,0,0
RO,Romania,country,Europe and Central Asia,45.943161,24.96676,CA,Canada,country,North America,56.130366,-106.346771,7800.24387178259,1988,579,0,0,0,0,0,0,163,160,0,0,0,0,0,0,72,0,184,0,0,0,0,0,0
RW,Rwanda,country,Sub-Saharan Africa,-1.940278,29.873888,CA,Canada,country,North America,56.130366,-106.346771,12855.6368595465,1988,266,0,0,0,0,0,0,0,0,0,0,0,266,0,0,0,0,0,0,0,0,0,0,0
KN,St. Kitts and Nevis,country,Latin America and the Caribbean,17.357822,-62.782998,CA,Canada,country,North America,56.130366,-106.346771,5645.8011650845,1988,49,0,8,0,0,0,0,19,5,0,0,0,17,0,0,0,0,0,0,0,0,0,0,0
LC,St. Lucia,country,Latin America and the Caribbean,13.909444,-60.978893,CA,Canada,country,North America,56.130366,-106.346771,6075.1506474628,1988,239,0,15,0,0,0,0,34,184,0,6,0,0,0,0,0,0,0,0,0,0,0,0,0
VC,St. Vincent & Grenadines,country,Latin America and the Caribbean,12.984305,-61.287228,CA,Canada,country,North America,56.130366,-106.346771,6149.16467987482,1988,476,0,60,0,0,2,0,282,86,0,46,0,0,0,0,0,0,0,0,0,0,0,0,0
WS,Samoa,country,East Asia and Pacific,-13.759029,-172.104629,CA,Canada,country,North America,56.130366,-106.346771,9860.68618977417,1988,36,0,0,0,0,0,15,0,0,0,0,0,0,0,21,0,0,0,0,0,0,0,0,0
SA,Saudi Arabia,country,Middle East and North Africa,23.885942,45.079162,CA,Canada,country,North America,56.130366,-106.346771,10730.1246216715,1988,19,0,0,0,0,0,19,0,0,0,0,0,0,0,0,0,0,0,0,0,0,0,0,0
SC,Seychelles,country,Sub-Saharan Africa,-4.679574,55.491977,CA,Canada,country,North America,56.130366,-106.346771,14087.4164337262,1988,7,0,0,0,0,0,0,0,0,0,7,0,0,0,0,0,0,0,0,0,0,0,0,0
SL,Sierra Leone,country,Sub-Saharan Africa,8.460555,-11.779889,CA,Canada,country,North America,56.130366,-106.346771,9519.02199332101,1988,245,0,0,0,0,0,0,0,0,0,0,0,245,0,0,0,0,0,0,0,0,0,0,0
SG,Singapore,country,East Asia and Pacific,1.352083,103.819836,CA,Canada,country,North America,56.130366,-106.346771,13082.5807805092,1988,3914,311,0,218,109,43,44,30,141,0,263,0,531,645,1333,246,0,0,0,0,0,0,0,0
ZA,S. Africa,country,Sub-Saharan Africa,-30.559482,22.937506,CA,Canada,country,North America,56.130366,-106.346771,15201.0107918611,1988,102,0,0,0,0,0,0,0,0,102,0,0,0,0,0,0,0,0,0,0,0,0,0,0
ES,Spain,country,Europe and Central Asia,40.463667,-3.74922,CA,Canada,country,North America,56.130366,-106.346771,7067.59909592,1988,66702,43,0,112,0,0,7727,16430,26981,34,615,211,128,88,2143,12182,0,0,8,0,0,0,0,0
LK,Sri Lanka,country,South Asia,7.873054,80.771797,CA,Canada,country,North America,56.130366,-106.346771,12882.518686048,1988,5017,53,0,0,0,84,58,6,22,0,252,0,3752,770,1,19,0,0,0,0,0,0,0,0
SD,Sudan,country,Sub-Saharan Africa,12.862807,30.217636,CA,Canada,country,North America,56.130366,-106.346771,11366.1842844515,1988,18,0,0,0,0,0,0,0,0,0,0,0,0,18,0,0,0,0,0,0,0,0,0,0
SZ,Swaziland,country,Sub-Saharan Africa,-26.522503,31.465866,CA,Canada,country,North America,56.130366,-106.346771,15334.5833366166,1988,123350,0,0,120212,0,0,0,6,3122,0,0,0,0,10,0,0,0,0,0,0,0,0,0,0
SE,Sweden,country,Europe and Central Asia,60.128161,18.643501,CA,Canada,country,North America,56.130366,-106.346771,6221.33340369381,1988,2838,683,0,53,0,0,7,40,60,19,0,160,199,156,6,387,0,0,982,86,0,0,0,0
CH,Switzerland,country,Europe and Central Asia,46.818188,8.227512,CA,Canada,country,North America,56.130366,-106.346771,7064.16536084984,1988,10683,365,10,118,0,257,741,224,790,12,11,278,1544,3945,58,141,0,0,2189,0,0,0,0,0
SY,Syrian Arab Rep.,country,Middle East and North Africa,34.802075,38.996815,CA,Canada,country,North America,56.130366,-106.346771,9396.11630041273,1988,23,0,0,0,0,0,0,0,23,0,0,0,0,0,0,0,0,0,0,0,0,0,0,0
TH,Thailand,country,East Asia and Pacific,15.870032,100.992541,CA,Canada,country,North America,56.130366,-106.346771,11624.6754468999,1988,54360,22659,64,30,1025,30,258,2820,21267,0,99,1720,1275,2840,20,247,0,0,6,0,0,0,0,0
TK,Tokelau,country,,-8.967363,-171.855881,CA,Canada,country,North America,56.130366,-106.346771,9387.66298308364,1988,175,0,0,0,0,41,0,0,134,0,0,0,0,0,0,0,0,0,0,0,0,0,0,0
TT,Trinidad and Tobago,country,Latin America and the Caribbean,10.691803,-61.222503,CA,Canada,country,North America,56.130366,-106.346771,6377.12517487862,1988,1139,0,13,0,0,0,0,172,50,0,2,0,60,11,0,831,0,0,0,0,0,0,0,0
TN,Tunisia,country,Middle East and North Africa,33.886917,9.537499,CA,Canada,country,North America,56.130366,-106.346771,8334.7245599424,1988,438,6,0,0,0,0,0,48,203,0,0,0,0,35,0,146,0,0,0,0,0,0,0,0
TR,Turkey,country,Europe and Central Asia,38.963745,35.243322,CA,Canada,country,North America,56.130366,-106.346771,8847.72704375395,1988,16606,881,0,36,840,842,131,5009,8403,84,380,0,0,0,0,0,0,0,0,0,0,0,0,0
TC,Turks and Caicos Islands,country,Latin America and the Caribbean,21.694025,-71.797928,CA,Canada,country,North America,56.130366,-106.346771,4767.2720989967,1988,0,0,0,0,0,0,0,0,0,0,0,0,0,0,0,0,0,0,0,0,0,0,0,0
UG,Uganda,country,Sub-Saharan Africa,1.373333,32.290275,CA,Canada,country,North America,56.130366,-106.346771,12631.353610749,1988,2521,0,0,0,0,0,0,0,16,0,0,0,2505,0,0,0,0,0,0,0,0,0,0,0
AE,United Arab Emirates,country,Middle East and North Africa,23.424076,53.847818,CA,Canada,country,North America,56.130366,-106.346771,10985.8904178984,1988,59,0,0,0,0,0,0,0,59,0,0,0,0,0,0,0,0,0,0,0,0,0,0,0
GB,United Kingdom,country,Europe and Central Asia,55.378051,-3.435973,CA,Canada,country,North America,56.130366,-106.346771,5813.93474405187,1988,58620,9200,47,5281,332,237,442,3103,2520,1154,174,1725,16315,1720,2157,11883,0,75,2071,149,35,0,0,0
TZ,Tanzania,country,Sub-Saharan Africa,-6.369028,34.888822,CA,Canada,country,North America,56.130366,-106.346771,13536.3411974762,1988,529,0,0,0,0,52,0,0,0,0,0,0,475,2,0,0,0,0,0,0,0,0,0,0
US,USA,country,North America,37.09024,-95.712891,CA,Canada,country,North America,56.130366,-106.346771,2264.06901471138,1988,4832352,725531,202207,302547,17862,23374,158652,1015367,742930,47702,3858,1206806,35498,73859,71387,69842,31794,90082,18766,25259,823,0,0,0
VI,Virgin Islands (U.S.),country,Latin America and the Caribbean,18.335765,-64.896335,CA,Canada,country,North America,56.130366,-106.346771,5440.68225144043,1988,31,0,0,0,0,0,0,0,0,0,0,0,0,5,0,26,0,0,0,0,0,0,0,0
UY,Uruguay,country,Latin America and the Caribbean,-32.522779,-55.765835,CA,Canada,country,North America,56.130366,-106.346771,10966.3092858125,1988,1396,0,0,0,0,0,0,0,1113,15,0,0,0,268,0,0,0,0,0,0,0,0,0,0
RU,Russian Federation,country,Europe and Central Asia,61.52401,105.318756,CA,Canada,country,North America,56.130366,-106.346771,6651.92239525055,1988,904,23,0,0,0,0,0,83,12,132,0,0,0,16,0,262,0,22,0,354,0,0,0,0
VE,Venezuela,country,Latin America and the Caribbean,6.42375,-66.58973,CA,Canada,country,North America,56.130366,-106.346771,6541.00400633055,1988,346,4,0,0,0,0,0,98,57,0,0,0,187,0,0,0,0,0,0,0,0,0,0,0
VN,Vietnam,country,East Asia and Pacific,14.058324,108.277199,CA,Canada,country,North America,56.130366,-106.346771,11585.5006842966,1988,41,0,0,0,0,0,0,0,0,0,0,0,39,0,0,0,0,0,2,0,0,0,0,0
BA,Bosnia & Herzegovina,country,Europe and Central Asia,43.915886,17.679076,CA,Canada,country,North America,56.130366,-106.346771,7729.54047976294,1988,4696,110,0,384,0,0,0,155,3408,0,0,0,6,3,2,628,0,0,0,0,0,0,0,0
ZM,Zambia,country,Sub-Saharan Africa,-13.133897,27.849332,CA,Canada,country,North America,56.130366,-106.346771,13863.9705612056,1988,1,0,0,0,0,0,0,0,0,0,0,0,1,0,0,0,0,0,0,0,0,0,0,0
ZW,Zimbabwe,country,Sub-Saharan Africa,-19.015438,29.154857,CA,Canada,country,North America,56.130366,-106.346771,14501.2591704377,1988,19604,0,0,18706,0,0,0,0,0,0,0,0,387,511,0,0,0,0,0,0,0,0,0,0
AF,Afghanistan,country,South Asia,33.93911,67.709953,CA,Canada,country,North America,56.130366,-106.346771,9995.16899604884,1989,0,0,0,0,0,0,0,0,0,0,0,0,0,0,0,0,0,0,0,0,0,0,0,0
AL,Albania,country,Europe and Central Asia,41.153332,20.168331,CA,Canada,country,North America,56.130366,-106.346771,8097.33211511548,1989,0,0,0,0,0,0,0,0,0,0,0,0,0,0,0,0,0,0,0,0,0,0,0,0
DZ,Algeria,country,Middle East and North Africa,28.033886,1.659626,CA,Canada,country,North America,56.130366,-106.346771,8484.88858511798,1989,84,0,0,0,0,0,0,0,0,0,0,0,0,0,0,84,0,0,0,0,0,0,0,0
AG,Antigua & Barbuda,country,Latin America and the Caribbean,17.060816,-61.796428,CA,Canada,country,North America,56.130366,-106.346771,5726.72436956117,1989,105,0,0,0,0,0,0,2,0,0,0,0,0,0,0,0,0,103,0,0,0,0,0,0
AR,Argentina,country,Latin America and the Caribbean,-38.416097,-63.616672,CA,Canada,country,North America,56.130366,-106.346771,11271.6495545351,1989,31463,280,0,484,0,776,2085,1209,21433,142,17,2,780,95,69,1240,0,2533,318,0,0,0,0,0
AU,Australia,country,East Asia and Pacific,-25.274398,133.775136,CA,Canada,country,North America,56.130366,-106.346771,14167.4730667731,1989,480621,667,0,408689,1786,11,86,173,28875,297,21,0,6,37,3,14707,0,24902,347,14,0,0,0,0
AT,Austria,country,Europe and Central Asia,47.516231,14.550072,CA,Canada,country,North America,56.130366,-106.346771,7260.85418287217,1989,2270,123,0,58,0,0,0,4,236,0,9,0,211,84,0,984,0,0,561,0,0,0,0,0
BS,The Bahamas,country,Latin America and the Caribbean,25.03428,-77.39628,CA,Canada,country,North America,56.130366,-106.346771,4176.05489549885,1989,528,0,0,0,0,0,0,0,0,0,0,0,0,3,0,525,0,0,0,0,0,0,0,0
BD,Bangladesh,country,South Asia,23.684994,90.356331,CA,Canada,country,North America,56.130366,-106.346771,11013.2212979032,1989,781,0,0,0,0,0,0,0,0,272,0,0,0,0,0,0,0,509,0,0,0,0,0,0
BB,Barbados,country,Latin America and the Caribbean,13.193887,-59.543198,CA,Canada,country,North America,56.130366,-106.346771,6220.58093293006,1989,4598,0,156,4110,0,0,2,31,17,0,3,0,0,39,0,240,0,0,0,0,0,0,0,0
BE,Belgium,country,Europe and Central Asia,50.503887,4.469936,CA,Canada,country,North America,56.130366,-106.346771,6569.9656900332,1989,10789,902,41,912,40,7,0,2981,737,89,6,17,3021,192,10,1800,0,5,29,0,0,0,0,0
BZ,Belize,country,Latin America and the Caribbean,17.189877,-88.49765,CA,Canada,country,North America,56.130366,-106.346771,4588.70831225977,1989,4100,0,0,0,0,0,0,0,4094,0,6,0,0,0,0,0,0,0,0,0,0,0,0,0
BM,Bermuda,country,North America,32.321384,-64.75737,CA,Canada,country,North America,56.130366,-106.346771,4144.7979506301,1989,927,0,0,0,0,0,0,0,0,0,0,0,0,0,0,927,0,0,0,0,0,0,0,0
BT,Bhutan,country,South Asia,27.514162,90.433601,CA,Canada,country,North America,56.130366,-106.346771,10591.3210416376,1989,15,0,0,14,0,0,0,0,0,0,1,0,0,0,0,0,0,0,0,0,0,0,0,0
BO,Bolivia,country,Latin America and the Caribbean,-16.290154,-63.588653,CA,Canada,country,North America,56.130366,-106.346771,8994.76571252565,1989,219,0,0,0,0,150,0,0,0,0,0,0,69,0,0,0,0,0,0,0,0,0,0,0
BR,Brazil,country,Latin America and the Caribbean,-14.235004,-51.92528,CA,Canada,country,North America,56.130366,-106.346771,9314.95503517065,1989,98030,87,14,4205,0,2877,0,4208,46953,563,393,31,35214,65,445,1413,0,1562,0,0,0,0,0,0
BG,Bulgaria,country,Europe and Central Asia,42.733883,25.48583,CA,Canada,country,North America,56.130366,-106.346771,8139.30509216525,1989,3016,0,0,0,0,0,0,1567,206,0,0,10,0,117,0,917,0,0,199,0,0,0,0,0
BF,Burkina Faso,country,Sub-Saharan Africa,12.238333,-1.561593,CA,Canada,country,North America,56.130366,-106.346771,9782.59565835509,1989,3,0,0,0,0,0,0,0,0,0,0,0,3,0,0,0,0,0,0,0,0,0,0,0
CM,Cameroon,country,Sub-Saharan Africa,7.369722,12.354722,CA,Canada,country,North America,56.130366,-106.346771,11036.7347295925,1989,460,0,0,0,0,0,0,0,0,0,0,0,460,0,0,0,0,0,0,0,0,0,0,0
KY,Cayman Islands,country,Latin America and the Caribbean,19.513469,-80.566956,CA,Canada,country,North America,56.130366,-106.346771,4606.22505237403,1989,11,0,0,0,0,0,0,0,0,0,0,0,11,0,0,0,0,0,0,0,0,0,0,0
CL,Chile,country,Latin America and the Caribbean,-35.675147,-71.542969,CA,Canada,country,North America,56.130366,-106.346771,10737.7737589056,1989,62795,44,4,660,14,49,10,1745,55720,0,45,116,128,462,0,3798,0,0,0,0,0,0,0,0
HK,Hong Kong,country,East Asia and Pacific,22.396428,114.109497,CA,Canada,country,North America,56.130366,-106.346771,10502.1050885388,1989,11633,2607,304,513,259,386,955,1388,1167,99,92,17,159,2185,144,1298,0,0,60,0,0,0,0,0
MO,"Macao SAR, China",country,East Asia and Pacific,22.198745,113.543873,CA,Canada,country,North America,56.130366,-106.346771,10543.6400798961,1989,16,0,0,0,0,0,0,0,0,0,0,0,0,0,0,16,0,0,0,0,0,0,0,0
CN,China,country,East Asia and Pacific,35.86166,104.195397,CA,Canada,country,North America,56.130366,-106.346771,9396.37278483121,1989,52806,1854,443,796,735,6229,16438,15429,7109,0,472,96,657,894,118,1122,0,0,414,0,0,0,0,0
TW,Taiwan,country,East Asia and Pacific,23.69781,120.960515,CA,Canada,country,North America,56.130366,-106.346771,10097.296800686,1989,9514,820,22,121,77,64,220,3741,3173,0,597,150,41,246,21,153,0,0,68,0,0,0,0,0
CO,Colombia,country,Latin America and the Caribbean,4.570868,-74.297333,CA,Canada,country,North America,56.130366,-106.346771,6402.8853720462,1989,73235,0,9,220,0,0,0,89,50876,0,0,385,21655,0,0,1,0,0,0,0,0,0,0,0
KM,Comoros,country,Sub-Saharan Africa,-11.875001,43.872219,CA,Canada,country,North America,56.130366,-106.346771,14483.3740642331,1989,0,0,0,0,0,0,0,0,0,0,0,0,0,0,0,0,0,0,0,0,0,0,0,0
CK,Cook Islands,country,East Asia and Pacific,-21.236736,-159.777671,CA,Canada,country,North America,56.130366,-106.346771,9963.04827454562,1989,0,0,0,0,0,0,0,0,0,0,0,0,0,0,0,0,0,0,0,0,0,0,0,0
CR,Costa Rica,country,Latin America and the Caribbean,9.748917,-83.753428,CA,Canada,country,North America,56.130366,-106.346771,5524.9530692938,1989,71044,0,205,0,0,0,68,442,65477,0,16,0,4789,0,0,47,0,0,0,0,0,0,0,0
CI,Ivory Coast,country,Sub-Saharan Africa,7.539989,-5.54708,CA,Canada,country,North America,56.130366,-106.346771,9984.12882348189,1989,8818,0,0,0,0,0,0,0,66,0,0,0,8751,1,0,0,0,0,0,0,0,0,0,0
CU,Cuba,country,Latin America and the Caribbean,21.521757,-77.781167,CA,Canada,country,North America,56.130366,-106.346771,4513.01019158509,1989,103821,0,0,103240,0,0,0,0,0,0,0,0,0,50,0,529,0,2,0,0,0,0,0,0
CY,Cyprus,country,Europe and Central Asia,35.126413,33.429859,CA,Canada,country,North America,56.130366,-106.346771,9189.05930545259,1989,92,1,0,0,0,0,0,0,0,0,0,0,45,18,0,28,0,0,0,0,0,0,0,0
CZ,Czech Republic,country,Europe and Central Asia,49.817492,15.472962,CA,Canada,country,North America,56.130366,-106.346771,7079.04708170123,1989,738,0,0,28,0,0,0,0,0,0,0,0,104,0,0,464,0,0,142,0,0,0,0,0
CD,"Congo, Dem. Rep.",country,Sub-Saharan Africa,-4.038333,21.758664,CA,Canada,country,North America,56.130366,-106.346771,12654.1751620617,1989,204,0,0,0,0,0,0,0,0,0,0,0,204,0,0,0,0,0,0,0,0,0,0,0
DK,Denmark,country,Europe and Central Asia,56.26392,9.501785,CA,Canada,country,North America,56.130366,-106.346771,6261.92688304412,1989,14464,2153,0,4413,0,0,2,17,539,0,2,48,153,971,0,640,2,2046,3480,0,0,0,0,0
DJ,Djibouti,country,Middle East and North Africa,11.825138,42.590275,CA,Canada,country,North America,56.130366,-106.346771,11942.7819454124,1989,21,0,0,0,0,0,0,0,0,0,0,0,0,0,0,0,0,21,0,0,0,0,0,0
DM,Dominica,country,Latin America and the Caribbean,15.414999,-61.370976,CA,Canada,country,North America,56.130366,-106.346771,5908.34603722269,1989,33,0,0,0,0,0,0,17,8,0,0,0,3,5,0,0,0,0,0,0,0,0,0,0
DO,Dominican Republic,country,Latin America and the Caribbean,18.735693,-70.162651,CA,Canada,country,North America,56.130366,-106.346771,5138.24863098955,1989,8754,11,66,1886,20,0,772,1645,823,0,0,0,3445,86,0,0,0,0,0,0,0,0,0,0
EC,Ecuador,country,Latin America and the Caribbean,-1.831239,-78.183406,CA,Canada,country,North America,56.130366,-106.346771,6937.38548494733,1989,159425,0,0,0,0,0,9,282,155396,21,0,0,3708,9,0,0,0,0,0,0,0,0,0,0
EG,Egypt,country,Middle East and North Africa,26.820553,30.802498,CA,Canada,country,North America,56.130366,-106.346771,9954.90844208778,1989,398,42,4,12,1,0,0,257,8,0,62,0,0,1,0,11,0,0,0,0,0,0,0,0
SV,El Salvador,country,Latin America and the Caribbean,13.794185,-88.89653,CA,Canada,country,North America,56.130366,-106.346771,4944.18436656976,1989,6554,0,0,0,0,0,71,118,0,0,0,0,6365,0,0,0,0,0,0,0,0,0,0,0
ET,Ethiopia,country,Sub-Saharan Africa,9.145,40.489673,CA,Canada,country,North America,56.130366,-106.346771,12154.5132872712,1989,2434,0,0,0,0,0,52,0,0,0,0,11,2371,0,0,0,0,0,0,0,0,0,0,0
FJ,Fiji,country,East Asia and Pacific,-16.578193,179.414413,CA,Canada,country,North America,56.130366,-106.346771,10605.215793589,1989,634,1,0,0,0,0,0,244,14,0,375,0,0,0,0,0,0,0,0,0,0,0,0,0
FI,Finland,country,Europe and Central Asia,61.92411,25.748151,CA,Canada,country,North America,56.130366,-106.346771,6252.49791448611,1989,4187,51,0,3200,0,0,4,0,0,0,1,0,165,1,0,381,0,0,384,0,0,0,0,0
FR,France,country,Europe and Central Asia,46.227638,2.213749,CA,Canada,country,North America,56.130366,-106.346771,6848.46021650643,1989,127345,1294,0,3734,26,38,1048,1973,2753,85,105,1807,1692,2661,1035,106586,12,9,2496,3,0,0,0,0
GM,The Gambia,country,Sub-Saharan Africa,13.443182,-15.310139,CA,Canada,country,North America,56.130366,-106.346771,8843.48400071091,1989,17,0,0,0,0,0,0,0,17,0,0,0,0,0,0,0,0,0,0,0,0,0,0,0
GH,Ghana,country,Sub-Saharan Africa,7.946527,-1.023194,CA,Canada,country,North America,56.130366,-106.346771,10216.9909241126,1989,1895,0,0,0,0,0,0,0,0,0,0,0,1893,2,0,0,0,0,0,0,0,0,0,0
GI,Gibraltar,country,Europe and Central Asia,36.137741,-5.345374,CA,Canada,country,North America,56.130366,-106.346771,7367.81216312467,1989,17,0,0,0,0,0,0,0,0,0,0,0,17,0,0,0,0,0,0,0,0,0,0,0
GR,Greece,country,Europe and Central Asia,39.074208,21.824312,CA,Canada,country,North America,56.130366,-106.346771,8367.69840957318,1989,21704,372,0,124,14,0,1975,511,15256,0,8,0,175,33,554,2033,0,0,649,0,0,0,0,0
GD,Grenada,country,Latin America and the Caribbean,12.262776,-61.604171,CA,Canada,country,North America,56.130366,-106.346771,6203.30032556076,1989,135,0,0,0,0,0,0,0,15,0,79,0,41,0,0,0,0,0,0,0,0,0,0,0
GP,Guadeloupe,country,Latin America and the Caribbean,16.995971,-62.067641,CA,Canada,country,North America,56.130366,-106.346771,5718.5745838192,1989,42,0,0,0,0,0,0,0,42,0,0,0,0,0,0,0,0,0,0,0,0,0,0,0
GU,Guam,country,East Asia and Pacific,13.444304,144.793731,CA,Canada,country,North America,56.130366,-106.346771,9904.99271749104,1989,432,0,0,0,0,0,0,0,41,0,0,0,391,0,0,0,0,0,0,0,0,0,0,0
GT,Guatemala,country,Latin America and the Caribbean,15.783471,-90.230759,CA,Canada,country,North America,56.130366,-106.346771,4695.22595708933,1989,21522,0,0,35,0,8,502,1355,8601,0,39,0,10982,0,0,0,0,0,0,0,0,0,0,0
GN,Guinea,country,Sub-Saharan Africa,9.945587,-9.696645,CA,Canada,country,North America,56.130366,-106.346771,9509.01107607523,1989,360,0,0,0,0,0,0,0,0,0,0,0,360,0,0,0,0,0,0,0,0,0,0,0
GY,Guyana,country,Latin America and the Caribbean,4.860416,-58.93018,CA,Canada,country,North America,56.130366,-106.346771,7069.46783171859,1989,9508,0,0,7267,0,0,0,51,0,0,0,0,0,0,0,2190,0,0,0,0,0,0,0,0
HT,Haiti,country,Latin America and the Caribbean,18.971187,-72.285215,CA,Canada,country,North America,56.130366,-106.346771,5014.48150394047,1989,602,0,0,0,0,0,0,0,543,0,0,0,43,0,0,16,0,0,0,0,0,0,0,0
HN,Honduras,country,Latin America and the Caribbean,15.199999,-86.241905,CA,Canada,country,North America,56.130366,-106.346771,4866.8044089992,1989,18043,0,0,0,0,0,12,1962,13691,0,0,0,2372,6,0,0,0,0,0,0,0,0,0,0
HU,Hungary,country,Europe and Central Asia,47.162494,19.503304,CA,Canada,country,North America,56.130366,-106.346771,7484.72540701994,1989,5385,22,0,27,0,0,100,1367,455,0,159,11,155,113,0,2304,0,0,672,0,0,0,0,0
IS,Iceland,country,Europe and Central Asia,64.963051,-19.020835,CA,Canada,country,North America,56.130366,-106.346771,4480.02677923048,1989,83,1,22,0,0,0,0,27,9,0,9,4,0,0,0,11,0,0,0,0,0,0,0,0
IN,India,country,South Asia,20.593684,78.96288,CA,Canada,country,North America,56.130366,-106.346771,11481.960523134,1989,11138,3785,0,512,555,1381,194,229,498,1,1907,11,1683,355,0,10,0,17,0,0,0,0,0,0
ID,Indonesia,country,East Asia and Pacific,-0.789275,113.921327,CA,Canada,country,North America,56.130366,-106.346771,12900.7589703636,1989,45799,77,0,1,0,0,1,47,1322,0,1389,0,3206,33446,5989,0,0,321,0,0,0,0,0,0
IR,Iran,country,Middle East and North Africa,32.427908,53.688046,CA,Canada,country,North America,56.130366,-106.346771,9998.91262527433,1989,3213,0,0,0,0,1191,0,0,1995,0,27,0,0,0,0,0,0,0,0,0,0,0,0,0
IQ,Iraq,country,Middle East and North Africa,33.223191,43.679291,CA,Canada,country,North America,56.130366,-106.346771,9692.86869830038,1989,292,0,0,0,0,0,0,0,292,0,0,0,0,0,0,0,0,0,0,0,0,0,0,0
IE,Ireland,country,Europe and Central Asia,53.41291,-8.24389,CA,Canada,country,North America,56.130366,-106.346771,5754.4276230661,1989,7176,698,0,112,0,0,4,179,106,0,0,0,4683,67,0,1232,0,0,95,0,0,0,0,0
IL,Israel,country,Middle East and North Africa,31.046051,34.851612,CA,Canada,country,North America,56.130366,-106.346771,9660.7035018164,1989,7968,473,0,132,81,38,29,5665,1006,0,74,0,163,83,0,224,0,0,0,0,0,0,0,0
IT,Italy,country,Europe and Central Asia,41.87194,12.56738,CA,Canada,country,North America,56.130366,-106.346771,7713.88513348809,1989,66191,12821,0,1308,77,812,139,10134,2981,0,30,164,2093,1400,4991,26821,0,171,2236,13,0,0,0,0
JM,Jamaica,country,Latin America and the Caribbean,18.109581,-77.297508,CA,Canada,country,North America,56.130366,-106.346771,4881.38993976234,1989,6331,135,2675,176,3,0,10,664,487,0,86,0,183,277,0,1607,0,0,28,0,0,0,0,0
JP,Japan,country,East Asia and Pacific,36.204824,138.252924,CA,Canada,country,North America,56.130366,-106.346771,8091.76666885355,1989,20151,864,62,65,42,1,573,479,15367,0,22,120,73,614,291,1551,0,27,0,0,0,0,0,0
KE,Kenya,country,Sub-Saharan Africa,-0.023559,37.906193,CA,Canada,country,North America,56.130366,-106.346771,13014.8066435644,1989,4786,0,0,0,21,75,0,6,644,0,0,0,4034,6,0,0,0,0,0,0,0,0,0,0
LB,Lebanon,country,Middle East and North Africa,33.854721,35.862285,CA,Canada,country,North America,56.130366,-106.346771,9400.28978599403,1989,565,8,0,91,31,18,28,86,93,0,6,0,12,163,10,19,0,0,0,0,0,0,0,0
LR,Liberia,country,Sub-Saharan Africa,6.428055,-9.429499,CA,Canada,country,North America,56.130366,-106.346771,9851.24602725408,1989,4095,0,0,0,0,0,0,0,0,0,0,0,0,4095,0,0,0,0,0,0,0,0,0,0
MG,Madagascar,country,Sub-Saharan Africa,-18.766947,46.869107,CA,Canada,country,North America,56.130366,-106.346771,15315.0362971086,1989,98,0,0,0,0,0,0,0,0,0,48,0,50,0,0,0,0,0,0,0,0,0,0,0
MW,Malawi,country,Sub-Saharan Africa,-13.254308,34.301525,CA,Canada,country,North America,56.130366,-106.346771,14201.8664900725,1989,581,0,0,0,318,0,0,1,0,0,0,0,245,17,0,0,0,0,0,0,0,0,0,0
MY,Malaysia,country,East Asia and Pacific,4.210484,101.975766,CA,Canada,country,North America,56.130366,-106.346771,12841.8190318606,1989,65271,35,0,0,0,0,407,2,145,0,241,0,2673,33677,28091,0,0,0,0,0,0,0,0,0
ML,Mali,country,Sub-Saharan Africa,17.570692,-3.996166,CA,Canada,country,North America,56.130366,-106.346771,9142.11012270203,1989,8823,0,0,0,0,0,0,0,0,8823,0,0,0,0,0,0,0,0,0,0,0,0,0,0
MT,Malta,country,Middle East and North Africa,35.937496,14.375416,CA,Canada,country,North America,56.130366,-106.346771,8362.36335326744,1989,3,0,0,0,0,0,0,0,0,0,0,0,3,0,0,0,0,0,0,0,0,0,0,0
MU,Mauritius,country,Sub-Saharan Africa,-20.348404,57.552152,CA,Canada,country,North America,56.130366,-106.346771,15835.8403652045,1989,83,0,0,83,0,0,0,0,0,0,0,0,0,0,0,0,0,0,0,0,0,0,0,0
MX,Mexico,country,Latin America and the Caribbean,23.634501,-102.552784,CA,Canada,country,North America,56.130366,-106.346771,3630.68555261904,1989,117856,3,83,107,136,0,1505,70844,31225,81,18,18,8738,18,0,5080,0,0,0,0,0,0,0,0
MS,Montserrat,country,Latin America and the Caribbean,16.7425,-62.1874,CA,Canada,country,North America,56.130366,-106.346771,5736.71972558278,1989,83,0,0,0,0,0,0,67,16,0,0,0,0,0,0,0,0,0,0,0,0,0,0,0
MA,Morocco,country,Middle East and North Africa,31.791702,-7.09262,CA,Canada,country,North America,56.130366,-106.346771,7661.29584084696,1989,22156,5,0,0,69,0,283,515,20921,0,200,0,160,0,0,3,0,0,0,0,0,0,0,0
MZ,Mozambique,country,Sub-Saharan Africa,-18.665695,35.529562,CA,Canada,country,North America,56.130366,-106.346771,14797.6389451452,1989,4563,0,0,0,0,53,0,138,4372,0,0,0,0,0,0,0,0,0,0,0,0,0,0,0
NP,Nepal,country,South Asia,28.394857,84.124008,CA,Canada,country,North America,56.130366,-106.346771,10575.9145042578,1989,16,0,0,0,0,0,0,0,0,0,0,0,0,0,0,0,0,0,16,0,0,0,0,0
NL,Netherlands,country,Europe and Central Asia,52.132633,5.291266,CA,Canada,country,North America,56.130366,-106.346771,6460.97044969052,1989,36783,2426,0,1514,31,112,1226,13360,1249,0,161,208,6866,1006,291,5589,0,243,2374,0,127,0,0,0
NZ,New Zealand,country,East Asia and Pacific,-40.900557,174.885971,CA,Canada,country,North America,56.130366,-106.346771,13078.8822655872,1989,56884,98,0,0,0,0,0,644,15622,819,19,9,0,202,0,546,0,32591,4030,2304,0,0,0,0
NI,Nicaragua,country,Latin America and the Caribbean,12.865416,-85.207229,CA,Canada,country,North America,56.130366,-106.346771,5147.49605458658,1989,20411,0,0,0,0,0,0,0,0,0,0,0,271,0,0,0,0,20140,0,0,0,0,0,0
NE,Niger,country,Sub-Saharan Africa,17.607789,8.081666,CA,Canada,country,North America,56.130366,-106.346771,9817.8828466528,1989,423,343,0,0,0,0,0,25,0,0,0,0,55,0,0,0,0,0,0,0,0,0,0,0
NG,Nigeria,country,Sub-Saharan Africa,9.081999,8.675277,CA,Canada,country,North America,56.130366,-106.346771,10668.5613645531,1989,1696,0,0,0,0,0,0,0,1,0,35,0,1660,0,0,0,0,0,0,0,0,0,0,0
NO,Norway,country,Europe and Central Asia,60.472024,8.468946,CA,Canada,country,North America,56.130366,-106.346771,5856.9345481944,1989,1573,143,0,4,0,0,0,0,2,0,0,402,21,5,0,35,0,0,961,0,0,0,0,0
PK,Pakistan,country,South Asia,30.375321,69.345116,CA,Canada,country,North America,56.130366,-106.346771,10399.0587677442,1989,2939,210,0,3,0,4,8,12,2563,0,129,0,0,3,0,7,0,0,0,0,0,0,0,0
PA,Panama,country,Latin America and the Caribbean,8.537981,-80.782127,CA,Canada,country,North America,56.130366,-106.346771,5749.80779003065,1989,16074,0,0,0,0,0,0,408,14994,0,0,0,672,0,0,0,0,0,0,0,0,0,0,0
PG,Papua New Guinea,country,East Asia and Pacific,-6.314993,143.95555,CA,Canada,country,North America,56.130366,-106.346771,11815.7677366391,1989,203,0,0,0,0,0,0,0,0,0,3,0,200,0,0,0,0,0,0,0,0,0,0,0
PY,Paraguay,country,Latin America and the Caribbean,-23.442503,-58.443832,CA,Canada,country,North America,56.130366,-106.346771,9939.32593975579,1989,79,0,0,0,0,0,0,0,0,0,0,13,66,0,0,0,0,0,0,0,0,0,0,0
PE,Peru,country,Latin America and the Caribbean,-9.189967,-75.015152,CA,Canada,country,North America,56.130366,-106.346771,7824.25713309679,1989,5213,0,0,5,222,47,0,59,512,0,0,23,4309,0,0,36,0,0,0,0,0,0,0,0
PH,Philippines,country,East Asia and Pacific,12.879721,121.774017,CA,Canada,country,North America,56.130366,-106.346771,11157.5249705632,1989,22981,218,59,103,10,22,5029,54,9921,207,13,96,1179,160,5545,329,0,0,36,0,0,0,0,0
PL,Poland,country,Europe and Central Asia,51.919438,19.145136,CA,Canada,country,North America,56.130366,-106.346771,7013.00671366265,1989,6834,289,0,507,0,0,0,1043,3790,0,0,0,124,282,523,242,0,0,34,0,0,0,0,0
PT,Portugal,country,Europe and Central Asia,39.399872,-8.224454,CA,Canada,country,North America,56.130366,-106.346771,6925.59693983038,1989,13555,230,89,32,378,275,266,6292,1302,0,0,0,28,96,224,4144,0,0,199,0,0,0,0,0
PR,Puerto Rico,country,Latin America and the Caribbean,18.220833,-66.590149,CA,Canada,country,North America,56.130366,-106.346771,5365.22162583443,1989,8907,0,0,164,0,0,0,718,121,0,0,695,0,6771,34,14,0,0,0,390,0,0,0,0
KR,"Korea, Rep.",country,East Asia and Pacific,35.907757,127.766922,CA,Canada,country,North America,56.130366,-106.346771,8588.54488503841,1989,12538,3011,9,2365,36,127,44,3199,733,1,26,232,79,2556,2,118,0,0,0,0,0,0,0,0
RO,Romania,country,Europe and Central Asia,45.943161,24.96676,CA,Canada,country,North America,56.130366,-106.346771,7800.24387178259,1989,758,0,0,0,0,0,0,209,0,0,0,0,0,0,0,401,0,148,0,0,0,0,0,0
RW,Rwanda,country,Sub-Saharan Africa,-1.940278,29.873888,CA,Canada,country,North America,56.130366,-106.346771,12855.6368595465,1989,434,0,0,0,0,0,0,0,0,0,0,0,434,0,0,0,0,0,0,0,0,0,0,0
LC,St. Lucia,country,Latin America and the Caribbean,13.909444,-60.978893,CA,Canada,country,North America,56.130366,-106.346771,6075.1506474628,1989,253,0,10,0,0,0,0,27,194,0,17,0,0,5,0,0,0,0,0,0,0,0,0,0
VC,St. Vincent & Grenadines,country,Latin America and the Caribbean,12.984305,-61.287228,CA,Canada,country,North America,56.130366,-106.346771,6149.16467987482,1989,300,0,12,0,0,0,0,165,96,0,27,0,0,0,0,0,0,0,0,0,0,0,0,0
SA,Saudi Arabia,country,Middle East and North Africa,23.885942,45.079162,CA,Canada,country,North America,56.130366,-106.346771,10730.1246216715,1989,0,0,0,0,0,0,0,0,0,0,0,0,0,0,0,0,0,0,0,0,0,0,0,0
SC,Seychelles,country,Sub-Saharan Africa,-4.679574,55.491977,CA,Canada,country,North America,56.130366,-106.346771,14087.4164337262,1989,14,0,0,0,0,0,0,0,0,0,14,0,0,0,0,0,0,0,0,0,0,0,0,0
SL,Sierra Leone,country,Sub-Saharan Africa,8.460555,-11.779889,CA,Canada,country,North America,56.130366,-106.346771,9519.02199332101,1989,35,0,0,0,0,0,0,0,0,0,0,0,35,0,0,0,0,0,0,0,0,0,0,0
SG,Singapore,country,East Asia and Pacific,1.352083,103.819836,CA,Canada,country,North America,56.130366,-106.346771,13082.5807805092,1989,9136,295,0,279,86,52,214,14,102,0,491,0,474,6466,219,444,0,0,0,0,0,0,0,0
SO,Somalia,country,Sub-Saharan Africa,5.152149,46.199616,CA,Canada,country,North America,56.130366,-106.346771,12769.1627085671,1989,20,0,0,0,0,0,0,0,0,0,0,0,20,0,0,0,0,0,0,0,0,0,0,0
ZA,S. Africa,country,Sub-Saharan Africa,-30.559482,22.937506,CA,Canada,country,North America,56.130366,-106.346771,15201.0107918611,1989,186,0,0,0,0,0,0,0,0,186,0,0,0,0,0,0,0,0,0,0,0,0,0,0
ES,Spain,country,Europe and Central Asia,40.463667,-3.74922,CA,Canada,country,North America,56.130366,-106.346771,7067.59909592,1989,58737,23,0,363,0,2,7201,18337,21567,25,484,42,33,48,1618,8978,0,0,16,0,0,0,0,0
LK,Sri Lanka,country,South Asia,7.873054,80.771797,CA,Canada,country,North America,56.130366,-106.346771,12882.518686048,1989,6129,104,0,13,0,47,79,336,23,0,111,5,3532,836,1012,31,0,0,0,0,0,0,0,0
SD,Sudan,country,Sub-Saharan Africa,12.862807,30.217636,CA,Canada,country,North America,56.130366,-106.346771,11366.1842844515,1989,47,0,0,0,0,0,0,0,0,0,0,0,0,47,0,0,0,0,0,0,0,0,0,0
SR,Suriname,country,Latin America and the Caribbean,3.919305,-56.027783,CA,Canada,country,North America,56.130366,-106.346771,7311.92255110231,1989,10,0,0,0,0,0,0,0,0,0,0,0,10,0,0,0,0,0,0,0,0,0,0,0
SZ,Swaziland,country,Sub-Saharan Africa,-26.522503,31.465866,CA,Canada,country,North America,56.130366,-106.346771,15334.5833366166,1989,96112,0,0,91343,0,0,0,0,4769,0,0,0,0,0,0,0,0,0,0,0,0,0,0,0
SE,Sweden,country,Europe and Central Asia,60.128161,18.643501,CA,Canada,country,North America,56.130366,-106.346771,6221.33340369381,1989,3341,545,0,44,0,0,5,0,75,16,0,19,182,133,38,344,0,21,1919,0,0,0,0,0
CH,Switzerland,country,Europe and Central Asia,46.818188,8.227512,CA,Canada,country,North America,56.130366,-106.346771,7064.16536084984,1989,8930,364,1,81,0,80,357,140,1931,0,9,165,1632,2245,23,246,0,0,1656,0,0,0,0,0
SY,Syrian Arab Rep.,country,Middle East and North Africa,34.802075,38.996815,CA,Canada,country,North America,56.130366,-106.346771,9396.11630041273,1989,17,0,0,0,0,0,0,0,17,0,0,0,0,0,0,0,0,0,0,0,0,0,0,0
TH,Thailand,country,East Asia and Pacific,15.870032,100.992541,CA,Canada,country,North America,56.130366,-106.346771,11624.6754468999,1989,68779,22748,149,81,2179,80,342,5126,30905,6,240,2747,921,3148,0,97,0,0,10,0,0,0,0,0
TK,Tokelau,country,,-8.967363,-171.855881,CA,Canada,country,North America,56.130366,-106.346771,9387.66298308364,1989,32,0,0,0,15,0,0,0,0,0,17,0,0,0,0,0,0,0,0,0,0,0,0,0
TT,Trinidad and Tobago,country,Latin America and the Caribbean,10.691803,-61.222503,CA,Canada,country,North America,56.130366,-106.346771,6377.12517487862,1989,771,4,13,0,0,0,10,216,85,0,19,0,99,35,0,290,0,0,0,0,0,0,0,0
TN,Tunisia,country,Middle East and North Africa,33.886917,9.537499,CA,Canada,country,North America,56.130366,-106.346771,8334.7245599424,1989,263,10,0,0,0,0,0,19,114,0,0,0,0,3,0,117,0,0,0,0,0,0,0,0
TR,Turkey,country,Europe and Central Asia,38.963745,35.243322,CA,Canada,country,North America,56.130366,-106.346771,8847.72704375395,1989,18398,282,0,255,552,975,115,6037,9707,0,456,0,0,19,0,0,0,0,0,0,0,0,0,0
UG,Uganda,country,Sub-Saharan Africa,1.373333,32.290275,CA,Canada,country,North America,56.130366,-106.346771,12631.353610749,1989,3080,0,0,0,0,0,0,0,0,0,0,0,3080,0,0,0,0,0,0,0,0,0,0,0
GB,United Kingdom,country,Europe and Central Asia,55.378051,-3.435973,CA,Canada,country,North America,56.130366,-106.346771,5813.93474405187,1989,79231,8247,101,27490,513,52,361,1771,2538,633,111,1210,18729,1656,1428,13378,0,53,843,102,15,0,0,0
TZ,Tanzania,country,Sub-Saharan Africa,-6.369028,34.888822,CA,Canada,country,North America,56.130366,-106.346771,13536.3411974762,1989,438,0,0,0,0,10,0,0,18,0,8,0,402,0,0,0,0,0,0,0,0,0,0,0
US,USA,country,North America,37.09024,-95.712891,CA,Canada,country,North America,56.130366,-106.346771,2264.06901471138,1989,5303411,1216398,217800,287468,16946,25563,273998,1028794,810560,52473,3324,912412,37599,74339,80621,111298,33371,112318,18530,22591,379,0,0,0
VI,Virgin Islands (U.S.),country,Latin America and the Caribbean,18.335765,-64.896335,CA,Canada,country,North America,56.130366,-106.346771,5440.68225144043,1989,9,0,0,0,0,0,0,0,0,0,0,0,0,7,0,2,0,0,0,0,0,0,0,0
