sourceCode,sourceName,sourceGrouping,sourceRegion,sourceLat,sourceLong,destCode,destName,destGrouping,destRegion,destLat,destLong,distance,year,totalTons,cereals,roots,sugarCrops,pulses,nuts,oilCrops,vegetables,fruits,fibers,spices,fodderCrops,coffeeTea,tobaccoRubber,oilsFats,beverages,livestock,animalMeats,animalProducts,animalHides,nimalOther,pesticides,fertilizers,machinery
AR,Argentina,country,Latin America and the Caribbean,-38.416097,-63.616672,LU,Luxembourg,country,Europe and Central Asia,49.815273,6.129583,11960.0415450277,2000,159,0,0,0,0,0,0,0,40,0,0,0,0,0,0,9,0,110,0,0,0,0,0,0
AU,Australia,country,East Asia and Pacific,-25.274398,133.775136,LU,Luxembourg,country,Europe and Central Asia,49.815273,6.129583,14810.3724514144,2000,2,0,0,0,0,0,0,0,0,0,0,0,0,0,0,2,0,0,0,0,0,0,0,0
AT,Austria,country,Europe and Central Asia,47.516231,14.550072,LU,Luxembourg,country,Europe and Central Asia,49.815273,6.129583,669.41995381979,2000,654,6,0,4,0,0,0,3,0,0,5,0,5,612,0,19,0,0,0,0,0,0,0,0
BE,Belgium,country,Europe and Central Asia,50.503887,4.469936,LU,Luxembourg,country,Europe and Central Asia,49.815273,6.129583,141.010751522359,2000,308564,18753,5395,7399,262,1813,1417,18518,25559,2,132,48327,4085,17630,5708,114174,48,14600,24789,1,0,0,0,0
CA,Canada,country,North America,56.130366,-106.346771,LU,Luxembourg,country,Europe and Central Asia,49.815273,6.129583,6702.33363009104,2000,27,0,0,0,0,0,0,0,0,0,0,0,0,0,0,27,0,0,0,0,0,0,0,0
CL,Chile,country,Latin America and the Caribbean,-35.675147,-71.542969,LU,Luxembourg,country,Europe and Central Asia,49.815273,6.129583,12188.285018942,2000,26,0,0,0,0,0,0,8,8,0,0,0,0,0,0,3,0,7,0,0,0,0,0,0
CN,China,country,East Asia and Pacific,35.86166,104.195397,LU,Luxembourg,country,Europe and Central Asia,49.815273,6.129583,7572.64473244044,2000,42,0,0,0,0,0,0,0,0,0,0,0,0,34,0,8,0,0,0,0,0,0,0,0
TW,Taiwan,country,East Asia and Pacific,23.69781,120.960515,LU,Luxembourg,country,Europe and Central Asia,49.815273,6.129583,9642.68630068626,2000,8,0,0,0,0,0,0,0,0,0,0,0,0,8,0,0,0,0,0,0,0,0,0,0
CO,Colombia,country,Latin America and the Caribbean,4.570868,-74.297333,LU,Luxembourg,country,Europe and Central Asia,49.815273,6.129583,8943.0904745837,2000,1726,0,0,0,0,0,0,0,1715,0,0,0,0,11,0,0,0,0,0,0,0,0,0,0
CI,Ivory Coast,country,Sub-Saharan Africa,7.539989,-5.54708,LU,Luxembourg,country,Europe and Central Asia,49.815273,6.129583,4830.25571832994,2000,4414,0,0,0,0,0,0,0,0,0,0,0,0,4414,0,0,0,0,0,0,0,0,0,0
CU,Cuba,country,Latin America and the Caribbean,21.521757,-77.781167,LU,Luxembourg,country,Europe and Central Asia,49.815273,6.129583,7779.32964603178,2000,0,0,0,0,0,0,0,0,0,0,0,0,0,0,0,0,0,0,0,0,0,0,0,0
CY,Cyprus,country,Europe and Central Asia,35.126413,33.429859,LU,Luxembourg,country,Europe and Central Asia,49.815273,6.129583,2749.19124519582,2000,3,0,0,0,0,0,0,0,0,0,0,0,0,0,0,0,0,0,3,0,0,0,0,0
CZ,Czech Republic,country,Europe and Central Asia,49.817492,15.472962,LU,Luxembourg,country,Europe and Central Asia,49.815273,6.129583,670.679115869592,2000,97,0,0,0,0,0,0,0,0,0,0,0,0,0,0,97,0,0,0,0,0,0,0,0
DK,Denmark,country,Europe and Central Asia,56.26392,9.501785,LU,Luxembourg,country,Europe and Central Asia,49.815273,6.129583,752.276128265553,2000,348,34,0,13,0,1,0,16,0,0,0,0,155,99,0,9,0,13,8,0,0,0,0,0
DO,Dominican Republic,country,Latin America and the Caribbean,18.735693,-70.162651,LU,Luxembourg,country,Europe and Central Asia,49.815273,6.129583,7462.13990673475,2000,1,0,0,0,0,0,0,0,0,0,0,0,0,0,0,1,0,0,0,0,0,0,0,0
EC,Ecuador,country,Latin America and the Caribbean,-1.831239,-78.183406,LU,Luxembourg,country,Europe and Central Asia,49.815273,6.129583,9766.78336283187,2000,1,0,0,0,0,0,0,0,0,0,0,0,0,1,0,0,0,0,0,0,0,0,0,0
EG,Egypt,country,Middle East and North Africa,26.820553,30.802498,LU,Luxembourg,country,Europe and Central Asia,49.815273,6.129583,3314.696345984,2000,1,0,0,0,0,0,0,0,1,0,0,0,0,0,0,0,0,0,0,0,0,0,0,0
FI,Finland,country,Europe and Central Asia,61.92411,25.748151,LU,Luxembourg,country,Europe and Central Asia,49.815273,6.129583,1807.30315723987,2000,13,5,0,0,0,0,0,0,0,0,0,0,1,2,0,4,0,0,1,0,0,0,0,0
FR,France,country,Europe and Central Asia,46.227638,2.213749,LU,Luxembourg,country,Europe and Central Asia,49.815273,6.129583,494.324476495474,2000,152476,41851,2513,272,143,94,182,8628,7313,1,64,3573,810,2168,278,75117,236,5419,4050,0,0,0,0,0
DE,Germany,country,Europe and Central Asia,51.165691,10.451526,LU,Luxembourg,country,Europe and Central Asia,49.815273,6.129583,340.938789770655,2000,83736,15145,686,727,13,1166,507,1753,5014,1,72,18738,4652,4783,1978,13789,0,1917,12795,0,0,0,0,0
GH,Ghana,country,Sub-Saharan Africa,7.946527,-1.023194,LU,Luxembourg,country,Europe and Central Asia,49.815273,6.129583,4708.13900793224,2000,4726,0,2,0,0,0,0,4,4719,0,0,0,0,0,0,0,0,0,0,1,0,0,0,0
GR,Greece,country,Europe and Central Asia,39.074208,21.824312,LU,Luxembourg,country,Europe and Central Asia,49.815273,6.129583,1721.32654055404,2000,0,0,0,0,0,0,0,0,0,0,0,0,0,0,0,0,0,0,0,0,0,0,0,0
GN,Guinea,country,Sub-Saharan Africa,9.945587,-9.696645,LU,Luxembourg,country,Europe and Central Asia,49.815273,6.129583,4672.86647625308,2000,0,0,0,0,0,0,0,0,0,0,0,0,0,0,0,0,0,0,0,0,0,0,0,0
HU,Hungary,country,Europe and Central Asia,47.162494,19.503304,LU,Luxembourg,country,Europe and Central Asia,49.815273,6.129583,1028.32524646512,2000,80,0,0,0,0,0,78,0,0,0,0,0,0,0,0,1,0,1,0,0,0,0,0,0
IS,Iceland,country,Europe and Central Asia,64.963051,-19.020835,LU,Luxembourg,country,Europe and Central Asia,49.815273,6.129583,2232.46528514078,2000,0,0,0,0,0,0,0,0,0,0,0,0,0,0,0,0,0,0,0,0,0,0,0,0
IN,India,country,South Asia,20.593684,78.96288,LU,Luxembourg,country,Europe and Central Asia,49.815273,6.129583,7063.10107305307,2000,95,0,0,0,0,95,0,0,0,0,0,0,0,0,0,0,0,0,0,0,0,0,0,0
ID,Indonesia,country,East Asia and Pacific,-0.789275,113.921327,LU,Luxembourg,country,Europe and Central Asia,49.815273,6.129583,11352.9962916656,2000,31592,0,0,0,0,0,0,0,0,0,0,0,0,31592,0,0,0,0,0,0,0,0,0,0
IR,Iran,country,Middle East and North Africa,32.427908,53.688046,LU,Luxembourg,country,Europe and Central Asia,49.815273,6.129583,4340.80525197097,2000,2736,0,0,0,0,2736,0,0,0,0,0,0,0,0,0,0,0,0,0,0,0,0,0,0
IE,Ireland,country,Europe and Central Asia,53.41291,-8.24389,LU,Luxembourg,country,Europe and Central Asia,49.815273,6.129583,1068.87311816525,2000,207,51,0,9,0,0,0,0,0,0,0,0,0,142,0,2,0,3,0,0,0,0,0,0
IL,Israel,country,Middle East and North Africa,31.046051,34.851612,LU,Luxembourg,country,Europe and Central Asia,49.815273,6.129583,3172.78536497163,2000,1,0,0,1,0,0,0,0,0,0,0,0,0,0,0,0,0,0,0,0,0,0,0,0
IT,Italy,country,Europe and Central Asia,41.87194,12.56738,LU,Luxembourg,country,Europe and Central Asia,49.815273,6.129583,1014.55513004579,2000,8607,818,30,64,10,9,9,1461,439,0,0,29,397,210,132,4419,0,491,89,0,0,0,0,0
JP,Japan,country,East Asia and Pacific,36.204824,138.252924,LU,Luxembourg,country,Europe and Central Asia,49.815273,6.129583,9366.84221317977,2000,3,0,0,0,0,0,0,0,0,0,0,0,0,3,0,0,0,0,0,0,0,0,0,0
KE,Kenya,country,Sub-Saharan Africa,-0.023559,37.906193,LU,Luxembourg,country,Europe and Central Asia,49.815273,6.129583,6317.92967816752,2000,118,0,0,0,0,0,0,105,13,0,0,0,0,0,0,0,0,0,0,0,0,0,0,0
MW,Malawi,country,Sub-Saharan Africa,-13.254308,34.301525,LU,Luxembourg,country,Europe and Central Asia,49.815273,6.129583,7542.89107714794,2000,209,0,0,0,0,0,0,0,0,0,0,0,0,209,0,0,0,0,0,0,0,0,0,0
MY,Malaysia,country,East Asia and Pacific,4.210484,101.975766,LU,Luxembourg,country,Europe and Central Asia,49.815273,6.129583,10079.0664946099,2000,4210,0,0,0,0,0,0,0,2,0,0,0,0,4208,0,0,0,0,0,0,0,0,0,0
NA,Namibia,country,Sub-Saharan Africa,-22.95764,18.49041,LU,Luxembourg,country,Europe and Central Asia,49.815273,6.129583,8192.81398823353,2000,77,0,0,0,0,0,0,0,77,0,0,0,0,0,0,0,0,0,0,0,0,0,0,0
NL,Netherlands,country,Europe and Central Asia,52.132633,5.291266,LU,Luxembourg,country,Europe and Central Asia,49.815273,6.129583,264.570285267402,2000,19103,496,1001,38,6,165,1688,3077,1017,0,17,5055,210,1416,96,2351,0,1896,574,0,0,0,0,0
NZ,New Zealand,country,East Asia and Pacific,-40.900557,174.885971,LU,Luxembourg,country,Europe and Central Asia,49.815273,6.129583,18714.3674951129,2000,0,0,0,0,0,0,0,0,0,0,0,0,0,0,0,0,0,0,0,0,0,0,0,0
NG,Nigeria,country,Sub-Saharan Africa,9.081999,8.675277,LU,Luxembourg,country,Europe and Central Asia,49.815273,6.129583,4540.55006384441,2000,252,0,0,0,0,0,0,0,0,0,0,0,0,252,0,0,0,0,0,0,0,0,0,0
NO,Norway,country,Europe and Central Asia,60.472024,8.468946,LU,Luxembourg,country,Europe and Central Asia,49.815273,6.129583,1195.41073083658,2000,21,1,0,0,0,0,0,0,0,0,0,0,0,0,0,0,0,0,20,0,0,0,0,0
PE,Peru,country,Latin America and the Caribbean,-9.189967,-75.015152,LU,Luxembourg,country,Europe and Central Asia,49.815273,6.129583,10171.5716694118,2000,38,0,0,0,0,0,0,38,0,0,0,0,0,0,0,0,0,0,0,0,0,0,0,0
PH,Philippines,country,East Asia and Pacific,12.879721,121.774017,LU,Luxembourg,country,Europe and Central Asia,49.815273,6.129583,10670.0591511423,2000,0,0,0,0,0,0,0,0,0,0,0,0,0,0,0,0,0,0,0,0,0,0,0,0
PL,Poland,country,Europe and Central Asia,51.919438,19.145136,LU,Luxembourg,country,Europe and Central Asia,49.815273,6.129583,942.517532342503,2000,62,34,0,0,0,0,0,0,0,0,0,0,0,28,0,0,0,0,0,0,0,0,0,0
PT,Portugal,country,Europe and Central Asia,39.399872,-8.224454,LU,Luxembourg,country,Europe and Central Asia,49.815273,6.129583,1618.96996128454,2000,5924,155,137,37,5,18,42,174,149,9,0,6,88,81,153,4693,0,123,54,0,0,0,0,0
RO,Romania,country,Europe and Central Asia,45.943161,24.96676,LU,Luxembourg,country,Europe and Central Asia,49.815273,6.129583,1466.44149690005,2000,20,0,0,0,0,0,0,0,0,0,0,0,0,0,0,20,0,0,0,0,0,0,0,0
RU,Russian Federation,country,Europe and Central Asia,61.52401,105.318756,LU,Luxembourg,country,Europe and Central Asia,49.815273,6.129583,5733.80089280781,2000,1,0,0,0,0,0,0,0,0,0,0,0,0,0,0,1,0,0,0,0,0,0,0,0
RS,Serbia,country,Europe and Central Asia,44.016521,21.005859,LU,Luxembourg,country,Europe and Central Asia,49.815273,6.129583,1299.06721262005,2000,1,0,0,0,0,0,0,0,0,0,0,0,0,0,0,1,0,0,0,0,0,0,0,0
SG,Singapore,country,East Asia and Pacific,1.352083,103.819836,LU,Luxembourg,country,Europe and Central Asia,49.815273,6.129583,10454.6924271224,2000,8663,0,0,0,0,0,0,0,0,0,0,0,0,8663,0,0,0,0,0,0,0,0,0,0
SI,Slovenia,country,Europe and Central Asia,46.151241,14.995463,LU,Luxembourg,country,Europe and Central Asia,49.815273,6.129583,775.622526349262,2000,31,0,0,0,0,0,0,0,0,0,0,0,0,31,0,0,0,0,0,0,0,0,0,0
ZA,S. Africa,country,Sub-Saharan Africa,-30.559482,22.937506,LU,Luxembourg,country,Europe and Central Asia,49.815273,6.129583,9100.53728565787,2000,2,0,0,0,0,0,0,0,0,0,0,0,0,0,0,2,0,0,0,0,0,0,0,0
ES,Spain,country,Europe and Central Asia,40.463667,-3.74922,LU,Luxembourg,country,Europe and Central Asia,49.815273,6.129583,1295.87958402427,2000,2659,11,1,2,0,104,1,94,878,0,0,20,5,150,26,1331,0,26,10,0,0,0,0,0
SE,Sweden,country,Europe and Central Asia,60.128161,18.643501,LU,Luxembourg,country,Europe and Central Asia,49.815273,6.129583,1394.0262531727,2000,71,36,1,1,0,0,0,2,6,0,0,0,2,3,0,9,0,4,7,0,0,0,0,0
CH,Switzerland,country,Europe and Central Asia,46.818188,8.227512,LU,Luxembourg,country,Europe and Central Asia,49.815273,6.129583,367.973027880722,2000,2050,964,0,93,0,1,0,32,1,0,0,0,63,177,0,363,0,0,356,0,0,0,0,0
TH,Thailand,country,East Asia and Pacific,15.870032,100.992541,LU,Luxembourg,country,Europe and Central Asia,49.815273,6.129583,9017.76829500549,2000,0,0,0,0,0,0,0,0,0,0,0,0,0,0,0,0,0,0,0,0,0,0,0,0
MK,Macedonia,country,Europe and Central Asia,41.608635,21.745275,LU,Luxembourg,country,Europe and Central Asia,49.815273,6.129583,1514.19628377274,2000,1,0,0,0,0,0,0,0,0,0,0,0,0,0,0,1,0,0,0,0,0,0,0,0
UA,Ukraine,country,Europe and Central Asia,48.379433,31.16558,LU,Luxembourg,country,Europe and Central Asia,49.815273,6.129583,1823.28665143496,2000,1,0,0,0,0,0,0,0,0,0,0,0,0,0,0,1,0,0,0,0,0,0,0,0
GB,United Kingdom,country,Europe and Central Asia,55.378051,-3.435973,LU,Luxembourg,country,Europe and Central Asia,49.815273,6.129583,893.974896587879,2000,4358,23,0,0,0,161,0,0,5,0,3,37,2,3965,2,70,0,88,2,0,0,0,0,0
TZ,Tanzania,country,Sub-Saharan Africa,-6.369028,34.888822,LU,Luxembourg,country,Europe and Central Asia,49.815273,6.129583,6844.23866911968,2000,0,0,0,0,0,0,0,0,0,0,0,0,0,0,0,0,0,0,0,0,0,0,0,0
US,USA,country,North America,37.09024,-95.712891,LU,Luxembourg,country,Europe and Central Asia,49.815273,6.129583,7703.36932873328,2000,4004,1,0,7,0,3839,0,29,5,0,0,21,0,77,0,18,0,7,0,0,0,0,0,0
UY,Uruguay,country,Latin America and the Caribbean,-32.522779,-55.765835,LU,Luxembourg,country,Europe and Central Asia,49.815273,6.129583,11007.7323252116,2000,64,0,0,0,0,0,0,0,0,0,0,0,0,0,0,0,0,64,0,0,0,0,0,0
AG,Antigua & Barbuda,country,Latin America and the Caribbean,17.060816,-61.796428,LU,Luxembourg,country,Europe and Central Asia,49.815273,6.129583,6999.05168107612,2001,0,0,0,0,0,0,0,0,0,0,0,0,0,0,0,0,0,0,0,0,0,0,0,0
AR,Argentina,country,Latin America and the Caribbean,-38.416097,-63.616672,LU,Luxembourg,country,Europe and Central Asia,49.815273,6.129583,11960.0415450277,2001,90,0,0,0,0,0,0,0,0,0,0,0,0,0,0,10,0,80,0,0,0,0,0,0
AU,Australia,country,East Asia and Pacific,-25.274398,133.775136,LU,Luxembourg,country,Europe and Central Asia,49.815273,6.129583,14810.3724514144,2001,49,0,0,0,0,49,0,0,0,0,0,0,0,0,0,0,0,0,0,0,0,0,0,0
AT,Austria,country,Europe and Central Asia,47.516231,14.550072,LU,Luxembourg,country,Europe and Central Asia,49.815273,6.129583,669.41995381979,2001,112,6,0,3,0,0,29,5,17,0,5,0,3,2,0,41,0,0,1,0,0,0,0,0
BE,Belgium,country,Europe and Central Asia,50.503887,4.469936,LU,Luxembourg,country,Europe and Central Asia,49.815273,6.129583,141.010751522359,2001,358742,22043,7596,5859,204,2909,1728,20176,28680,52,159,56827,4216,19654,6105,134935,191,16667,30890,42,0,0,0,0
BJ,Benin,country,Sub-Saharan Africa,9.30769,2.315834,LU,Luxembourg,country,Europe and Central Asia,49.815273,6.129583,4523.11201685558,2001,2,0,0,0,0,0,0,0,2,0,0,0,0,0,0,0,0,0,0,0,0,0,0,0
BR,Brazil,country,Latin America and the Caribbean,-14.235004,-51.92528,LU,Luxembourg,country,Europe and Central Asia,49.815273,6.129583,9103.11688193022,2001,11,0,0,0,0,0,0,0,0,0,0,0,11,0,0,0,0,0,0,0,0,0,0,0
BF,Burkina Faso,country,Sub-Saharan Africa,12.238333,-1.561593,LU,Luxembourg,country,Europe and Central Asia,49.815273,6.129583,4242.02482004955,2001,0,0,0,0,0,0,0,0,0,0,0,0,0,0,0,0,0,0,0,0,0,0,0,0
CM,Cameroon,country,Sub-Saharan Africa,7.369722,12.354722,LU,Luxembourg,country,Europe and Central Asia,49.815273,6.129583,4760.56927700153,2001,13,0,0,0,0,0,0,0,1,0,0,0,0,12,0,0,0,0,0,0,0,0,0,0
CA,Canada,country,North America,56.130366,-106.346771,LU,Luxembourg,country,Europe and Central Asia,49.815273,6.129583,6702.33363009104,2001,0,0,0,0,0,0,0,0,0,0,0,0,0,0,0,0,0,0,0,0,0,0,0,0
CL,Chile,country,Latin America and the Caribbean,-35.675147,-71.542969,LU,Luxembourg,country,Europe and Central Asia,49.815273,6.129583,12188.285018942,2001,4,0,0,0,0,0,0,3,0,0,0,0,0,0,0,1,0,0,0,0,0,0,0,0
HK,Hong Kong,country,East Asia and Pacific,22.396428,114.109497,LU,Luxembourg,country,Europe and Central Asia,49.815273,6.129583,9335.45682195649,2001,21,0,0,0,0,20,0,0,0,0,1,0,0,0,0,0,0,0,0,0,0,0,0,0
CN,China,country,East Asia and Pacific,35.86166,104.195397,LU,Luxembourg,country,Europe and Central Asia,49.815273,6.129583,7572.64473244044,2001,497,0,0,0,0,471,0,0,2,0,0,0,0,0,0,24,0,0,0,0,0,0,0,0
TW,Taiwan,country,East Asia and Pacific,23.69781,120.960515,LU,Luxembourg,country,Europe and Central Asia,49.815273,6.129583,9642.68630068626,2001,5,0,0,0,0,0,0,0,0,0,0,0,0,4,0,1,0,0,0,0,0,0,0,0
CO,Colombia,country,Latin America and the Caribbean,4.570868,-74.297333,LU,Luxembourg,country,Europe and Central Asia,49.815273,6.129583,8943.0904745837,2001,432,0,0,0,0,0,0,0,428,0,0,0,3,1,0,0,0,0,0,0,0,0,0,0
CI,Ivory Coast,country,Sub-Saharan Africa,7.539989,-5.54708,LU,Luxembourg,country,Europe and Central Asia,49.815273,6.129583,4830.25571832994,2001,101,0,0,0,0,0,0,0,0,0,0,0,0,101,0,0,0,0,0,0,0,0,0,0
CU,Cuba,country,Latin America and the Caribbean,21.521757,-77.781167,LU,Luxembourg,country,Europe and Central Asia,49.815273,6.129583,7779.32964603178,2001,0,0,0,0,0,0,0,0,0,0,0,0,0,0,0,0,0,0,0,0,0,0,0,0
CZ,Czech Republic,country,Europe and Central Asia,49.817492,15.472962,LU,Luxembourg,country,Europe and Central Asia,49.815273,6.129583,670.679115869592,2001,46,0,0,0,0,0,0,0,0,0,0,0,0,0,0,46,0,0,0,0,0,0,0,0
CD,"Congo, Dem. Rep.",country,Sub-Saharan Africa,-4.038333,21.758664,LU,Luxembourg,country,Europe and Central Asia,49.815273,6.129583,6180.97290912076,2001,0,0,0,0,0,0,0,0,0,0,0,0,0,0,0,0,0,0,0,0,0,0,0,0
DK,Denmark,country,Europe and Central Asia,56.26392,9.501785,LU,Luxembourg,country,Europe and Central Asia,49.815273,6.129583,752.276128265553,2001,334,52,0,10,0,0,0,26,1,0,0,0,159,55,0,7,0,14,10,0,0,0,0,0
DO,Dominican Republic,country,Latin America and the Caribbean,18.735693,-70.162651,LU,Luxembourg,country,Europe and Central Asia,49.815273,6.129583,7462.13990673475,2001,0,0,0,0,0,0,0,0,0,0,0,0,0,0,0,0,0,0,0,0,0,0,0,0
EC,Ecuador,country,Latin America and the Caribbean,-1.831239,-78.183406,LU,Luxembourg,country,Europe and Central Asia,49.815273,6.129583,9766.78336283187,2001,65,0,0,0,0,0,0,0,2,0,0,0,0,24,39,0,0,0,0,0,0,0,0,0
FI,Finland,country,Europe and Central Asia,61.92411,25.748151,LU,Luxembourg,country,Europe and Central Asia,49.815273,6.129583,1807.30315723987,2001,93,5,0,0,0,0,0,1,0,0,0,78,1,0,0,6,0,0,2,0,0,0,0,0
FR,France,country,Europe and Central Asia,46.227638,2.213749,LU,Luxembourg,country,Europe and Central Asia,49.815273,6.129583,494.324476495474,2001,188684,42571,3180,267,248,140,489,9397,7043,0,72,8174,1008,2560,286,91859,22,6286,15027,77,0,0,0,0
DE,Germany,country,Europe and Central Asia,51.165691,10.451526,LU,Luxembourg,country,Europe and Central Asia,49.815273,6.129583,340.938789770655,2001,94764,16187,898,896,24,1292,811,1739,4476,1,76,23652,4932,5149,1391,18001,1,2309,12930,0,0,0,0,0
GH,Ghana,country,Sub-Saharan Africa,7.946527,-1.023194,LU,Luxembourg,country,Europe and Central Asia,49.815273,6.129583,4708.13900793224,2001,2718,0,43,0,0,0,0,0,2674,0,0,0,0,0,0,0,0,0,0,1,0,0,0,0
GR,Greece,country,Europe and Central Asia,39.074208,21.824312,LU,Luxembourg,country,Europe and Central Asia,49.815273,6.129583,1721.32654055404,2001,2,0,0,0,0,1,0,0,0,0,0,0,0,1,0,0,0,0,0,0,0,0,0,0
GD,Grenada,country,Latin America and the Caribbean,12.262776,-61.604171,LU,Luxembourg,country,Europe and Central Asia,49.815273,6.129583,7385.8370061454,2001,14,0,0,0,0,0,0,0,0,0,14,0,0,0,0,0,0,0,0,0,0,0,0,0
GT,Guatemala,country,Latin America and the Caribbean,15.783471,-90.230759,LU,Luxembourg,country,Europe and Central Asia,49.815273,6.129583,9129.21957521566,2001,0,0,0,0,0,0,0,0,0,0,0,0,0,0,0,0,0,0,0,0,0,0,0,0
HU,Hungary,country,Europe and Central Asia,47.162494,19.503304,LU,Luxembourg,country,Europe and Central Asia,49.815273,6.129583,1028.32524646512,2001,40,0,0,0,0,0,0,0,0,0,0,0,0,36,0,2,0,2,0,0,0,0,0,0
IS,Iceland,country,Europe and Central Asia,64.963051,-19.020835,LU,Luxembourg,country,Europe and Central Asia,49.815273,6.129583,2232.46528514078,2001,0,0,0,0,0,0,0,0,0,0,0,0,0,0,0,0,0,0,0,0,0,0,0,0
IN,India,country,South Asia,20.593684,78.96288,LU,Luxembourg,country,Europe and Central Asia,49.815273,6.129583,7063.10107305307,2001,36,0,0,0,0,16,0,0,15,2,1,0,0,2,0,0,0,0,0,0,0,0,0,0
ID,Indonesia,country,East Asia and Pacific,-0.789275,113.921327,LU,Luxembourg,country,Europe and Central Asia,49.815273,6.129583,11352.9962916656,2001,33422,0,0,0,0,0,0,0,0,0,0,0,0,33422,0,0,0,0,0,0,0,0,0,0
IR,Iran,country,Middle East and North Africa,32.427908,53.688046,LU,Luxembourg,country,Europe and Central Asia,49.815273,6.129583,4340.80525197097,2001,1288,0,0,0,0,1288,0,0,0,0,0,0,0,0,0,0,0,0,0,0,0,0,0,0
IE,Ireland,country,Europe and Central Asia,53.41291,-8.24389,LU,Luxembourg,country,Europe and Central Asia,49.815273,6.129583,1068.87311816525,2001,346,93,0,12,0,0,0,0,0,0,0,0,0,234,0,2,0,5,0,0,0,0,0,0
IL,Israel,country,Middle East and North Africa,31.046051,34.851612,LU,Luxembourg,country,Europe and Central Asia,49.815273,6.129583,3172.78536497163,2001,4,0,0,1,0,0,0,0,2,0,0,0,0,1,0,0,0,0,0,0,0,0,0,0
IT,Italy,country,Europe and Central Asia,41.87194,12.56738,LU,Luxembourg,country,Europe and Central Asia,49.815273,6.129583,1014.55513004579,2001,8683,1129,11,49,12,10,6,1887,255,0,0,4,560,296,214,3512,0,580,158,0,0,0,0,0
JP,Japan,country,East Asia and Pacific,36.204824,138.252924,LU,Luxembourg,country,Europe and Central Asia,49.815273,6.129583,9366.84221317977,2001,0,0,0,0,0,0,0,0,0,0,0,0,0,0,0,0,0,0,0,0,0,0,0,0
KE,Kenya,country,Sub-Saharan Africa,-0.023559,37.906193,LU,Luxembourg,country,Europe and Central Asia,49.815273,6.129583,6317.92967816752,2001,41,0,0,0,0,0,0,33,7,0,0,0,0,0,1,0,0,0,0,0,0,0,0,0
LB,Lebanon,country,Middle East and North Africa,33.854721,35.862285,LU,Luxembourg,country,Europe and Central Asia,49.815273,6.129583,3007.0461716613,2001,0,0,0,0,0,0,0,0,0,0,0,0,0,0,0,0,0,0,0,0,0,0,0,0
MY,Malaysia,country,East Asia and Pacific,4.210484,101.975766,LU,Luxembourg,country,Europe and Central Asia,49.815273,6.129583,10079.0664946099,2001,1615,0,0,0,0,0,0,0,0,0,0,0,0,1615,0,0,0,0,0,0,0,0,0,0
ML,Mali,country,Sub-Saharan Africa,17.570692,-3.996166,LU,Luxembourg,country,Europe and Central Asia,49.815273,6.129583,3702.41147783922,2001,0,0,0,0,0,0,0,0,0,0,0,0,0,0,0,0,0,0,0,0,0,0,0,0
MA,Morocco,country,Middle East and North Africa,31.791702,-7.09262,LU,Luxembourg,country,Europe and Central Asia,49.815273,6.129583,2287.17988322945,2001,4,0,0,0,0,0,0,2,0,0,0,0,0,2,0,0,0,0,0,0,0,0,0,0
NA,Namibia,country,Sub-Saharan Africa,-22.95764,18.49041,LU,Luxembourg,country,Europe and Central Asia,49.815273,6.129583,8192.81398823353,2001,0,0,0,0,0,0,0,0,0,0,0,0,0,0,0,0,0,0,0,0,0,0,0,0
NL,Netherlands,country,Europe and Central Asia,52.132633,5.291266,LU,Luxembourg,country,Europe and Central Asia,49.815273,6.129583,264.570285267402,2001,28623,271,1130,57,5,110,2117,4667,1120,0,9,12499,296,1670,116,1905,15,1985,666,0,0,0,0,0
NG,Nigeria,country,Sub-Saharan Africa,9.081999,8.675277,LU,Luxembourg,country,Europe and Central Asia,49.815273,6.129583,4540.55006384441,2001,12,0,0,0,0,0,0,0,0,0,0,0,0,12,0,0,0,0,0,0,0,0,0,0
NO,Norway,country,Europe and Central Asia,60.472024,8.468946,LU,Luxembourg,country,Europe and Central Asia,49.815273,6.129583,1195.41073083658,2001,11,0,0,0,0,0,0,0,0,0,0,0,0,0,1,0,0,0,10,0,0,0,0,0
PK,Pakistan,country,South Asia,30.375321,69.345116,LU,Luxembourg,country,Europe and Central Asia,49.815273,6.129583,5612.60421707933,2001,6,0,0,0,0,0,0,0,6,0,0,0,0,0,0,0,0,0,0,0,0,0,0,0
PA,Panama,country,Latin America and the Caribbean,8.537981,-80.782127,LU,Luxembourg,country,Europe and Central Asia,49.815273,6.129583,9072.59824423119,2001,4,0,0,0,0,0,0,0,4,0,0,0,0,0,0,0,0,0,0,0,0,0,0,0
PE,Peru,country,Latin America and the Caribbean,-9.189967,-75.015152,LU,Luxembourg,country,Europe and Central Asia,49.815273,6.129583,10171.5716694118,2001,12,0,0,0,0,0,0,12,0,0,0,0,0,0,0,0,0,0,0,0,0,0,0,0
PH,Philippines,country,East Asia and Pacific,12.879721,121.774017,LU,Luxembourg,country,Europe and Central Asia,49.815273,6.129583,10670.0591511423,2001,0,0,0,0,0,0,0,0,0,0,0,0,0,0,0,0,0,0,0,0,0,0,0,0
PL,Poland,country,Europe and Central Asia,51.919438,19.145136,LU,Luxembourg,country,Europe and Central Asia,49.815273,6.129583,942.517532342503,2001,6,0,0,0,0,0,0,0,0,0,0,0,0,6,0,0,0,0,0,0,0,0,0,0
PT,Portugal,country,Europe and Central Asia,39.399872,-8.224454,LU,Luxembourg,country,Europe and Central Asia,49.815273,6.129583,1618.96996128454,2001,5493,264,174,40,15,29,57,182,137,7,1,3,49,44,147,4102,0,165,77,0,0,0,0,0
MD,Moldova,country,Europe and Central Asia,47.411631,28.369885,LU,Luxembourg,country,Europe and Central Asia,49.815273,6.129583,1652.23512788637,2001,2,0,0,0,0,0,0,0,0,0,0,0,0,0,0,2,0,0,0,0,0,0,0,0
RO,Romania,country,Europe and Central Asia,45.943161,24.96676,LU,Luxembourg,country,Europe and Central Asia,49.815273,6.129583,1466.44149690005,2001,33,0,0,17,0,0,0,0,0,0,0,0,0,0,0,16,0,0,0,0,0,0,0,0
RU,Russian Federation,country,Europe and Central Asia,61.52401,105.318756,LU,Luxembourg,country,Europe and Central Asia,49.815273,6.129583,5733.80089280781,2001,1,0,0,0,0,0,0,0,0,0,0,0,0,0,0,1,0,0,0,0,0,0,0,0
RW,Rwanda,country,Sub-Saharan Africa,-1.940278,29.873888,LU,Luxembourg,country,Europe and Central Asia,49.815273,6.129583,6193.51849397335,2001,0,0,0,0,0,0,0,0,0,0,0,0,0,0,0,0,0,0,0,0,0,0,0,0
SN,Senegal,country,Sub-Saharan Africa,14.497401,-14.452362,LU,Luxembourg,country,Europe and Central Asia,49.815273,6.129583,4352.22825220695,2001,12,0,0,0,0,0,0,12,0,0,0,0,0,0,0,0,0,0,0,0,0,0,0,0
SG,Singapore,country,East Asia and Pacific,1.352083,103.819836,LU,Luxembourg,country,Europe and Central Asia,49.815273,6.129583,10454.6924271224,2001,0,0,0,0,0,0,0,0,0,0,0,0,0,0,0,0,0,0,0,0,0,0,0,0
SI,Slovenia,country,Europe and Central Asia,46.151241,14.995463,LU,Luxembourg,country,Europe and Central Asia,49.815273,6.129583,775.622526349262,2001,44,0,6,0,0,0,0,0,0,0,0,0,0,38,0,0,0,0,0,0,0,0,0,0
ZA,S. Africa,country,Sub-Saharan Africa,-30.559482,22.937506,LU,Luxembourg,country,Europe and Central Asia,49.815273,6.129583,9100.53728565787,2001,27,0,0,0,0,0,0,0,23,0,0,0,0,0,0,1,0,3,0,0,0,0,0,0
ES,Spain,country,Europe and Central Asia,40.463667,-3.74922,LU,Luxembourg,country,Europe and Central Asia,49.815273,6.129583,1295.87958402427,2001,3606,1012,0,1,0,17,6,84,1115,0,0,1,6,18,3,1293,0,42,8,0,0,0,0,0
SR,Suriname,country,Latin America and the Caribbean,3.919305,-56.027783,LU,Luxembourg,country,Europe and Central Asia,49.815273,6.129583,7718.52307809051,2001,1,0,0,0,0,0,0,1,0,0,0,0,0,0,0,0,0,0,0,0,0,0,0,0
SE,Sweden,country,Europe and Central Asia,60.128161,18.643501,LU,Luxembourg,country,Europe and Central Asia,49.815273,6.129583,1394.0262531727,2001,52,11,1,1,0,0,1,2,7,0,0,0,1,3,0,7,0,7,11,0,0,0,0,0
CH,Switzerland,country,Europe and Central Asia,46.818188,8.227512,LU,Luxembourg,country,Europe and Central Asia,49.815273,6.129583,367.973027880722,2001,1207,55,73,216,0,0,0,30,1,0,0,0,68,106,0,292,0,0,366,0,0,0,0,0
TH,Thailand,country,East Asia and Pacific,15.870032,100.992541,LU,Luxembourg,country,Europe and Central Asia,49.815273,6.129583,9017.76829500549,2001,2,0,0,0,0,0,0,0,2,0,0,0,0,0,0,0,0,0,0,0,0,0,0,0
TG,Togo,country,Sub-Saharan Africa,8.619543,0.824782,LU,Luxembourg,country,Europe and Central Asia,49.815273,6.129583,4612.28599267815,2001,0,0,0,0,0,0,0,0,0,0,0,0,0,0,0,0,0,0,0,0,0,0,0,0
TN,Tunisia,country,Middle East and North Africa,33.886917,9.537499,LU,Luxembourg,country,Europe and Central Asia,49.815273,6.129583,1795.01956667528,2001,0,0,0,0,0,0,0,0,0,0,0,0,0,0,0,0,0,0,0,0,0,0,0,0
TR,Turkey,country,Europe and Central Asia,38.963745,35.243322,LU,Luxembourg,country,Europe and Central Asia,49.815273,6.129583,2589.17278784847,2001,23,4,0,0,16,0,3,0,0,0,0,0,0,0,0,0,0,0,0,0,0,0,0,0
UG,Uganda,country,Sub-Saharan Africa,1.373333,32.290275,LU,Luxembourg,country,Europe and Central Asia,49.815273,6.129583,5935.92698836676,2001,1,0,0,0,0,0,0,0,0,0,0,0,0,1,0,0,0,0,0,0,0,0,0,0
UA,Ukraine,country,Europe and Central Asia,48.379433,31.16558,LU,Luxembourg,country,Europe and Central Asia,49.815273,6.129583,1823.28665143496,2001,35,0,0,0,0,0,0,0,0,0,0,0,0,0,0,35,0,0,0,0,0,0,0,0
GB,United Kingdom,country,Europe and Central Asia,55.378051,-3.435973,LU,Luxembourg,country,Europe and Central Asia,49.815273,6.129583,893.974896587879,2001,3611,25,0,0,0,0,0,0,3,0,1,45,0,3300,4,213,0,18,2,0,0,0,0,0
TZ,Tanzania,country,Sub-Saharan Africa,-6.369028,34.888822,LU,Luxembourg,country,Europe and Central Asia,49.815273,6.129583,6844.23866911968,2001,18,0,0,0,0,0,0,0,0,0,0,0,18,0,0,0,0,0,0,0,0,0,0,0
US,USA,country,North America,37.09024,-95.712891,LU,Luxembourg,country,Europe and Central Asia,49.815273,6.129583,7703.36932873328,2001,3094,3,0,0,0,3009,0,30,2,0,0,0,0,20,0,26,0,4,0,0,0,0,0,0
UY,Uruguay,country,Latin America and the Caribbean,-32.522779,-55.765835,LU,Luxembourg,country,Europe and Central Asia,49.815273,6.129583,11007.7323252116,2001,4,0,0,0,0,0,0,0,0,0,0,0,0,0,0,0,0,4,0,0,0,0,0,0
VN,Vietnam,country,East Asia and Pacific,14.058324,108.277199,LU,Luxembourg,country,Europe and Central Asia,49.815273,6.129583,9675.05905315424,2001,13,0,0,0,0,0,0,0,0,0,0,0,0,13,0,0,0,0,0,0,0,0,0,0
YE,Yemen,country,Middle East and North Africa,15.552727,48.516388,LU,Luxembourg,country,Europe and Central Asia,49.815273,6.129583,5387.40751545124,2001,0,0,0,0,0,0,0,0,0,0,0,0,0,0,0,0,0,0,0,0,0,0,0,0
DZ,Algeria,country,Middle East and North Africa,28.033886,1.659626,LU,Luxembourg,country,Europe and Central Asia,49.815273,6.129583,2454.29818371356,2002,0,0,0,0,0,0,0,0,0,0,0,0,0,0,0,0,0,0,0,0,0,0,0,0
AG,Antigua & Barbuda,country,Latin America and the Caribbean,17.060816,-61.796428,LU,Luxembourg,country,Europe and Central Asia,49.815273,6.129583,6999.05168107612,2002,0,0,0,0,0,0,0,0,0,0,0,0,0,0,0,0,0,0,0,0,0,0,0,0
AR,Argentina,country,Latin America and the Caribbean,-38.416097,-63.616672,LU,Luxembourg,country,Europe and Central Asia,49.815273,6.129583,11960.0415450277,2002,1016,664,0,0,0,0,0,0,75,0,0,0,0,0,0,33,0,244,0,0,0,0,0,0
AU,Australia,country,East Asia and Pacific,-25.274398,133.775136,LU,Luxembourg,country,Europe and Central Asia,49.815273,6.129583,14810.3724514144,2002,55,0,0,0,0,48,0,0,0,0,0,0,0,0,0,7,0,0,0,0,0,0,0,0
AT,Austria,country,Europe and Central Asia,47.516231,14.550072,LU,Luxembourg,country,Europe and Central Asia,49.815273,6.129583,669.41995381979,2002,291,17,0,3,0,0,54,4,158,0,6,0,5,6,1,36,0,0,1,0,0,0,0,0
AZ,Azerbaijan,country,Europe and Central Asia,40.143105,47.576927,LU,Luxembourg,country,Europe and Central Asia,49.815273,6.129583,3387.35423229799,2002,0,0,0,0,0,0,0,0,0,0,0,0,0,0,0,0,0,0,0,0,0,0,0,0
BY,Belarus,country,Europe and Central Asia,53.709807,27.953389,LU,Luxembourg,country,Europe and Central Asia,49.815273,6.129583,1557.83718133834,2002,0,0,0,0,0,0,0,0,0,0,0,0,0,0,0,0,0,0,0,0,0,0,0,0
BE,Belgium,country,Europe and Central Asia,50.503887,4.469936,LU,Luxembourg,country,Europe and Central Asia,49.815273,6.129583,141.010751522359,2002,287657,13816,6222,5355,138,4019,1423,17810,26392,8,180,39855,4523,15261,5567,110809,119,14573,21706,0,0,0,0,0
BR,Brazil,country,Latin America and the Caribbean,-14.235004,-51.92528,LU,Luxembourg,country,Europe and Central Asia,49.815273,6.129583,9103.11688193022,2002,0,0,0,0,0,0,0,0,0,0,0,0,0,0,0,0,0,0,0,0,0,0,0,0
BG,Bulgaria,country,Europe and Central Asia,42.733883,25.48583,LU,Luxembourg,country,Europe and Central Asia,49.815273,6.129583,1678.22916383142,2002,2,0,0,0,0,0,0,0,0,0,0,0,0,0,0,2,0,0,0,0,0,0,0,0
CV,Cape Verde,country,Sub-Saharan Africa,16.002082,-24.013197,LU,Luxembourg,country,Europe and Central Asia,49.815273,6.129583,4638.70684226144,2002,18,0,0,0,0,0,0,0,0,0,0,0,18,0,0,0,0,0,0,0,0,0,0,0
CM,Cameroon,country,Sub-Saharan Africa,7.369722,12.354722,LU,Luxembourg,country,Europe and Central Asia,49.815273,6.129583,4760.56927700153,2002,1,0,0,0,0,0,0,1,0,0,0,0,0,0,0,0,0,0,0,0,0,0,0,0
CA,Canada,country,North America,56.130366,-106.346771,LU,Luxembourg,country,Europe and Central Asia,49.815273,6.129583,6702.33363009104,2002,30,0,0,0,0,0,28,1,0,0,0,0,0,1,0,0,0,0,0,0,0,0,0,0
CL,Chile,country,Latin America and the Caribbean,-35.675147,-71.542969,LU,Luxembourg,country,Europe and Central Asia,49.815273,6.129583,12188.285018942,2002,14,0,0,0,0,0,0,3,0,0,0,0,0,0,0,11,0,0,0,0,0,0,0,0
HK,Hong Kong,country,East Asia and Pacific,22.396428,114.109497,LU,Luxembourg,country,Europe and Central Asia,49.815273,6.129583,9335.45682195649,2002,0,0,0,0,0,0,0,0,0,0,0,0,0,0,0,0,0,0,0,0,0,0,0,0
CN,China,country,East Asia and Pacific,35.86166,104.195397,LU,Luxembourg,country,Europe and Central Asia,49.815273,6.129583,7572.64473244044,2002,326,0,0,0,0,291,0,0,0,0,0,0,0,0,0,35,0,0,0,0,0,0,0,0
TW,Taiwan,country,East Asia and Pacific,23.69781,120.960515,LU,Luxembourg,country,Europe and Central Asia,49.815273,6.129583,9642.68630068626,2002,1,0,0,0,0,0,0,0,0,0,0,0,0,1,0,0,0,0,0,0,0,0,0,0
CO,Colombia,country,Latin America and the Caribbean,4.570868,-74.297333,LU,Luxembourg,country,Europe and Central Asia,49.815273,6.129583,8943.0904745837,2002,67,0,0,0,0,0,0,0,15,0,0,0,0,52,0,0,0,0,0,0,0,0,0,0
CR,Costa Rica,country,Latin America and the Caribbean,9.748917,-83.753428,LU,Luxembourg,country,Europe and Central Asia,49.815273,6.129583,9182.98520480261,2002,7,0,0,0,0,0,0,0,7,0,0,0,0,0,0,0,0,0,0,0,0,0,0,0
CI,Ivory Coast,country,Sub-Saharan Africa,7.539989,-5.54708,LU,Luxembourg,country,Europe and Central Asia,49.815273,6.129583,4830.25571832994,2002,3103,0,0,0,0,0,0,0,0,0,0,0,0,3103,0,0,0,0,0,0,0,0,0,0
CZ,Czech Republic,country,Europe and Central Asia,49.817492,15.472962,LU,Luxembourg,country,Europe and Central Asia,49.815273,6.129583,670.679115869592,2002,30,30,0,0,0,0,0,0,0,0,0,0,0,0,0,0,0,0,0,0,0,0,0,0
CD,"Congo, Dem. Rep.",country,Sub-Saharan Africa,-4.038333,21.758664,LU,Luxembourg,country,Europe and Central Asia,49.815273,6.129583,6180.97290912076,2002,3,0,0,0,0,0,0,3,0,0,0,0,0,0,0,0,0,0,0,0,0,0,0,0
DK,Denmark,country,Europe and Central Asia,56.26392,9.501785,LU,Luxembourg,country,Europe and Central Asia,49.815273,6.129583,752.276128265553,2002,362,29,0,5,0,0,0,8,1,0,0,0,157,75,0,55,0,11,21,0,0,0,0,0
DO,Dominican Republic,country,Latin America and the Caribbean,18.735693,-70.162651,LU,Luxembourg,country,Europe and Central Asia,49.815273,6.129583,7462.13990673475,2002,3,0,0,0,0,0,0,3,0,0,0,0,0,0,0,0,0,0,0,0,0,0,0,0
EC,Ecuador,country,Latin America and the Caribbean,-1.831239,-78.183406,LU,Luxembourg,country,Europe and Central Asia,49.815273,6.129583,9766.78336283187,2002,45,0,0,0,0,0,0,0,12,0,0,0,0,33,0,0,0,0,0,0,0,0,0,0
EG,Egypt,country,Middle East and North Africa,26.820553,30.802498,LU,Luxembourg,country,Europe and Central Asia,49.815273,6.129583,3314.696345984,2002,5,0,0,0,0,0,0,5,0,0,0,0,0,0,0,0,0,0,0,0,0,0,0,0
FI,Finland,country,Europe and Central Asia,61.92411,25.748151,LU,Luxembourg,country,Europe and Central Asia,49.815273,6.129583,1807.30315723987,2002,47,7,0,1,0,0,1,1,0,0,0,0,1,0,31,5,0,0,0,0,0,0,0,0
FR,France,country,Europe and Central Asia,46.227638,2.213749,LU,Luxembourg,country,Europe and Central Asia,49.815273,6.129583,494.324476495474,2002,219957,43331,3883,346,268,152,215,10338,7773,0,66,3826,812,2015,458,115635,133,5850,24989,0,0,0,0,0
DE,Germany,country,Europe and Central Asia,51.165691,10.451526,LU,Luxembourg,country,Europe and Central Asia,49.815273,6.129583,340.938789770655,2002,77133,8066,591,781,20,2910,817,1739,4302,3,92,13892,6168,5982,1923,15475,11,2274,12074,24,0,0,0,0
GH,Ghana,country,Sub-Saharan Africa,7.946527,-1.023194,LU,Luxembourg,country,Europe and Central Asia,49.815273,6.129583,4708.13900793224,2002,2543,0,0,0,0,0,0,3,2540,0,0,0,0,0,0,0,0,0,0,0,0,0,0,0
GR,Greece,country,Europe and Central Asia,39.074208,21.824312,LU,Luxembourg,country,Europe and Central Asia,49.815273,6.129583,1721.32654055404,2002,3,0,0,0,0,0,0,0,0,0,0,0,0,3,0,0,0,0,0,0,0,0,0,0
GT,Guatemala,country,Latin America and the Caribbean,15.783471,-90.230759,LU,Luxembourg,country,Europe and Central Asia,49.815273,6.129583,9129.21957521566,2002,0,0,0,0,0,0,0,0,0,0,0,0,0,0,0,0,0,0,0,0,0,0,0,0
HT,Haiti,country,Latin America and the Caribbean,18.971187,-72.285215,LU,Luxembourg,country,Europe and Central Asia,49.815273,6.129583,7595.16968689707,2002,0,0,0,0,0,0,0,0,0,0,0,0,0,0,0,0,0,0,0,0,0,0,0,0
HU,Hungary,country,Europe and Central Asia,47.162494,19.503304,LU,Luxembourg,country,Europe and Central Asia,49.815273,6.129583,1028.32524646512,2002,64,0,0,0,0,0,47,0,0,0,0,0,0,15,0,1,0,1,0,0,0,0,0,0
IN,India,country,South Asia,20.593684,78.96288,LU,Luxembourg,country,Europe and Central Asia,49.815273,6.129583,7063.10107305307,2002,0,0,0,0,0,0,0,0,0,0,0,0,0,0,0,0,0,0,0,0,0,0,0,0
ID,Indonesia,country,East Asia and Pacific,-0.789275,113.921327,LU,Luxembourg,country,Europe and Central Asia,49.815273,6.129583,11352.9962916656,2002,36856,0,0,0,0,0,26,0,0,0,0,0,0,36830,0,0,0,0,0,0,0,0,0,0
IR,Iran,country,Middle East and North Africa,32.427908,53.688046,LU,Luxembourg,country,Europe and Central Asia,49.815273,6.129583,4340.80525197097,2002,2662,0,0,0,0,2662,0,0,0,0,0,0,0,0,0,0,0,0,0,0,0,0,0,0
IE,Ireland,country,Europe and Central Asia,53.41291,-8.24389,LU,Luxembourg,country,Europe and Central Asia,49.815273,6.129583,1068.87311816525,2002,333,152,0,15,0,1,0,0,0,0,0,0,0,160,0,0,0,5,0,0,0,0,0,0
IL,Israel,country,Middle East and North Africa,31.046051,34.851612,LU,Luxembourg,country,Europe and Central Asia,49.815273,6.129583,3172.78536497163,2002,1,0,0,0,0,0,0,0,0,0,0,0,0,1,0,0,0,0,0,0,0,0,0,0
IT,Italy,country,Europe and Central Asia,41.87194,12.56738,LU,Luxembourg,country,Europe and Central Asia,49.815273,6.129583,1014.55513004579,2002,10630,1431,0,34,0,91,13,1650,327,0,0,7,715,354,240,4573,0,887,308,0,0,0,0,0
JP,Japan,country,East Asia and Pacific,36.204824,138.252924,LU,Luxembourg,country,Europe and Central Asia,49.815273,6.129583,9366.84221317977,2002,1,0,0,0,0,0,0,0,0,0,0,0,0,1,0,0,0,0,0,0,0,0,0,0
JO,Jordan,country,Middle East and North Africa,30.585164,36.238414,LU,Luxembourg,country,Europe and Central Asia,49.815273,6.129583,3298.16052787536,2002,0,0,0,0,0,0,0,0,0,0,0,0,0,0,0,0,0,0,0,0,0,0,0,0
KE,Kenya,country,Sub-Saharan Africa,-0.023559,37.906193,LU,Luxembourg,country,Europe and Central Asia,49.815273,6.129583,6317.92967816752,2002,218,0,0,0,0,0,0,213,5,0,0,0,0,0,0,0,0,0,0,0,0,0,0,0
MY,Malaysia,country,East Asia and Pacific,4.210484,101.975766,LU,Luxembourg,country,Europe and Central Asia,49.815273,6.129583,10079.0664946099,2002,480,0,0,0,0,0,0,0,0,0,0,0,0,480,0,0,0,0,0,0,0,0,0,0
ML,Mali,country,Sub-Saharan Africa,17.570692,-3.996166,LU,Luxembourg,country,Europe and Central Asia,49.815273,6.129583,3702.41147783922,2002,0,0,0,0,0,0,0,0,0,0,0,0,0,0,0,0,0,0,0,0,0,0,0,0
MX,Mexico,country,Latin America and the Caribbean,23.634501,-102.552784,LU,Luxembourg,country,Europe and Central Asia,49.815273,6.129583,9271.29106660609,2002,33,0,0,0,0,0,0,0,4,0,0,0,0,24,0,5,0,0,0,0,0,0,0,0
MA,Morocco,country,Middle East and North Africa,31.791702,-7.09262,LU,Luxembourg,country,Europe and Central Asia,49.815273,6.129583,2287.17988322945,2002,97,0,0,0,0,0,18,56,0,0,0,0,0,23,0,0,0,0,0,0,0,0,0,0
NA,Namibia,country,Sub-Saharan Africa,-22.95764,18.49041,LU,Luxembourg,country,Europe and Central Asia,49.815273,6.129583,8192.81398823353,2002,0,0,0,0,0,0,0,0,0,0,0,0,0,0,0,0,0,0,0,0,0,0,0,0
NL,Netherlands,country,Europe and Central Asia,52.132633,5.291266,LU,Luxembourg,country,Europe and Central Asia,49.815273,6.129583,264.570285267402,2002,25639,1669,1220,70,8,106,1462,4283,1546,0,5,6440,364,3428,206,2585,5,1494,753,0,0,0,0,0
NC,New Caledonia,country,East Asia and Pacific,-20.904305,165.618042,LU,Luxembourg,country,Europe and Central Asia,49.815273,6.129583,16346.2732415788,2002,0,0,0,0,0,0,0,0,0,0,0,0,0,0,0,0,0,0,0,0,0,0,0,0
NZ,New Zealand,country,East Asia and Pacific,-40.900557,174.885971,LU,Luxembourg,country,Europe and Central Asia,49.815273,6.129583,18714.3674951129,2002,11,0,0,0,0,0,0,0,0,0,0,0,0,0,0,0,0,11,0,0,0,0,0,0
NO,Norway,country,Europe and Central Asia,60.472024,8.468946,LU,Luxembourg,country,Europe and Central Asia,49.815273,6.129583,1195.41073083658,2002,14,0,0,0,0,0,0,0,0,0,0,1,0,0,0,0,0,0,13,0,0,0,0,0
PE,Peru,country,Latin America and the Caribbean,-9.189967,-75.015152,LU,Luxembourg,country,Europe and Central Asia,49.815273,6.129583,10171.5716694118,2002,7,0,0,0,0,0,0,7,0,0,0,0,0,0,0,0,0,0,0,0,0,0,0,0
PH,Philippines,country,East Asia and Pacific,12.879721,121.774017,LU,Luxembourg,country,Europe and Central Asia,49.815273,6.129583,10670.0591511423,2002,0,0,0,0,0,0,0,0,0,0,0,0,0,0,0,0,0,0,0,0,0,0,0,0
PL,Poland,country,Europe and Central Asia,51.919438,19.145136,LU,Luxembourg,country,Europe and Central Asia,49.815273,6.129583,942.517532342503,2002,7,5,0,0,0,0,0,0,0,0,0,0,0,2,0,0,0,0,0,0,0,0,0,0
PT,Portugal,country,Europe and Central Asia,39.399872,-8.224454,LU,Luxembourg,country,Europe and Central Asia,49.815273,6.129583,1618.96996128454,2002,7447,355,69,48,11,34,61,340,229,7,2,4,46,88,197,5656,0,215,85,0,0,0,0,0
KR,"Korea, Rep.",country,East Asia and Pacific,35.907757,127.766922,LU,Luxembourg,country,Europe and Central Asia,49.815273,6.129583,8903.85063079069,2002,0,0,0,0,0,0,0,0,0,0,0,0,0,0,0,0,0,0,0,0,0,0,0,0
RO,Romania,country,Europe and Central Asia,45.943161,24.96676,LU,Luxembourg,country,Europe and Central Asia,49.815273,6.129583,1466.44149690005,2002,40,0,0,23,0,0,0,0,0,0,0,0,0,0,0,17,0,0,0,0,0,0,0,0
RW,Rwanda,country,Sub-Saharan Africa,-1.940278,29.873888,LU,Luxembourg,country,Europe and Central Asia,49.815273,6.129583,6193.51849397335,2002,0,0,0,0,0,0,0,0,0,0,0,0,0,0,0,0,0,0,0,0,0,0,0,0
SN,Senegal,country,Sub-Saharan Africa,14.497401,-14.452362,LU,Luxembourg,country,Europe and Central Asia,49.815273,6.129583,4352.22825220695,2002,0,0,0,0,0,0,0,0,0,0,0,0,0,0,0,0,0,0,0,0,0,0,0,0
RS,Serbia,country,Europe and Central Asia,44.016521,21.005859,LU,Luxembourg,country,Europe and Central Asia,49.815273,6.129583,1299.06721262005,2002,20,0,20,0,0,0,0,0,0,0,0,0,0,0,0,0,0,0,0,0,0,0,0,0
SG,Singapore,country,East Asia and Pacific,1.352083,103.819836,LU,Luxembourg,country,Europe and Central Asia,49.815273,6.129583,10454.6924271224,2002,14,0,0,0,0,0,0,0,0,0,0,0,0,14,0,0,0,0,0,0,0,0,0,0
SI,Slovenia,country,Europe and Central Asia,46.151241,14.995463,LU,Luxembourg,country,Europe and Central Asia,49.815273,6.129583,775.622526349262,2002,0,0,0,0,0,0,0,0,0,0,0,0,0,0,0,0,0,0,0,0,0,0,0,0
ZA,S. Africa,country,Sub-Saharan Africa,-30.559482,22.937506,LU,Luxembourg,country,Europe and Central Asia,49.815273,6.129583,9100.53728565787,2002,2,0,0,0,0,0,0,0,0,0,0,0,0,0,0,2,0,0,0,0,0,0,0,0
ES,Spain,country,Europe and Central Asia,40.463667,-3.74922,LU,Luxembourg,country,Europe and Central Asia,49.815273,6.129583,1295.87958402427,2002,2540,80,0,8,0,4,4,98,1040,0,0,0,0,9,3,1251,0,31,12,0,0,0,0,0
LK,Sri Lanka,country,South Asia,7.873054,80.771797,LU,Luxembourg,country,Europe and Central Asia,49.815273,6.129583,8248.97272285409,2002,0,0,0,0,0,0,0,0,0,0,0,0,0,0,0,0,0,0,0,0,0,0,0,0
SE,Sweden,country,Europe and Central Asia,60.128161,18.643501,LU,Luxembourg,country,Europe and Central Asia,49.815273,6.129583,1394.0262531727,2002,42,8,1,2,0,0,1,2,7,0,0,0,1,3,0,4,0,5,8,0,0,0,0,0
CH,Switzerland,country,Europe and Central Asia,46.818188,8.227512,LU,Luxembourg,country,Europe and Central Asia,49.815273,6.129583,367.973027880722,2002,1095,45,0,10,0,0,0,53,3,0,0,1,77,167,3,394,0,0,342,0,0,0,0,0
TH,Thailand,country,East Asia and Pacific,15.870032,100.992541,LU,Luxembourg,country,Europe and Central Asia,49.815273,6.129583,9017.76829500549,2002,49,1,0,0,0,0,0,2,4,0,0,0,0,42,0,0,0,0,0,0,0,0,0,0
TG,Togo,country,Sub-Saharan Africa,8.619543,0.824782,LU,Luxembourg,country,Europe and Central Asia,49.815273,6.129583,4612.28599267815,2002,1,0,0,0,0,0,0,1,0,0,0,0,0,0,0,0,0,0,0,0,0,0,0,0
TN,Tunisia,country,Middle East and North Africa,33.886917,9.537499,LU,Luxembourg,country,Europe and Central Asia,49.815273,6.129583,1795.01956667528,2002,0,0,0,0,0,0,0,0,0,0,0,0,0,0,0,0,0,0,0,0,0,0,0,0
TR,Turkey,country,Europe and Central Asia,38.963745,35.243322,LU,Luxembourg,country,Europe and Central Asia,49.815273,6.129583,2589.17278784847,2002,2,0,0,0,0,2,0,0,0,0,0,0,0,0,0,0,0,0,0,0,0,0,0,0
UG,Uganda,country,Sub-Saharan Africa,1.373333,32.290275,LU,Luxembourg,country,Europe and Central Asia,49.815273,6.129583,5935.92698836676,2002,16,0,0,0,0,0,0,16,0,0,0,0,0,0,0,0,0,0,0,0,0,0,0,0
UA,Ukraine,country,Europe and Central Asia,48.379433,31.16558,LU,Luxembourg,country,Europe and Central Asia,49.815273,6.129583,1823.28665143496,2002,12,0,0,0,0,0,0,0,0,0,0,0,0,0,0,12,0,0,0,0,0,0,0,0
GB,United Kingdom,country,Europe and Central Asia,55.378051,-3.435973,LU,Luxembourg,country,Europe and Central Asia,49.815273,6.129583,893.974896587879,2002,3240,12,0,0,0,96,0,2,6,3,0,35,1,2577,106,377,0,24,1,0,0,0,0,0
US,USA,country,North America,37.09024,-95.712891,LU,Luxembourg,country,Europe and Central Asia,49.815273,6.129583,7703.36932873328,2002,3473,1,0,0,0,3363,0,38,1,0,0,0,0,55,0,15,0,0,0,0,0,0,0,0
UY,Uruguay,country,Latin America and the Caribbean,-32.522779,-55.765835,LU,Luxembourg,country,Europe and Central Asia,49.815273,6.129583,11007.7323252116,2002,1,0,0,0,0,0,0,0,0,0,0,0,0,0,0,0,0,1,0,0,0,0,0,0
VE,Venezuela,country,Latin America and the Caribbean,6.42375,-66.58973,LU,Luxembourg,country,Europe and Central Asia,49.815273,6.129583,8235.60314288059,2002,0,0,0,0,0,0,0,0,0,0,0,0,0,0,0,0,0,0,0,0,0,0,0,0
VN,Vietnam,country,East Asia and Pacific,14.058324,108.277199,LU,Luxembourg,country,Europe and Central Asia,49.815273,6.129583,9675.05905315424,2002,38,0,0,0,0,0,0,0,0,0,0,0,0,38,0,0,0,0,0,0,0,0,0,0
AG,Antigua & Barbuda,country,Latin America and the Caribbean,17.060816,-61.796428,LU,Luxembourg,country,Europe and Central Asia,49.815273,6.129583,6999.05168107612,2003,0,0,0,0,0,0,0,0,0,0,0,0,0,0,0,0,0,0,0,0,0,0,0,0
AR,Argentina,country,Latin America and the Caribbean,-38.416097,-63.616672,LU,Luxembourg,country,Europe and Central Asia,49.815273,6.129583,11960.0415450277,2003,2173,2100,0,0,0,0,0,0,0,0,0,0,0,0,0,16,0,57,0,0,0,0,0,0
AU,Australia,country,East Asia and Pacific,-25.274398,133.775136,LU,Luxembourg,country,Europe and Central Asia,49.815273,6.129583,14810.3724514144,2003,54,0,0,0,0,32,21,0,0,0,0,0,0,0,0,1,0,0,0,0,0,0,0,0
AT,Austria,country,Europe and Central Asia,47.516231,14.550072,LU,Luxembourg,country,Europe and Central Asia,49.815273,6.129583,669.41995381979,2003,1175,12,0,5,0,1,104,3,294,0,2,0,8,659,0,33,0,54,0,0,0,0,0,0
AZ,Azerbaijan,country,Europe and Central Asia,40.143105,47.576927,LU,Luxembourg,country,Europe and Central Asia,49.815273,6.129583,3387.35423229799,2003,0,0,0,0,0,0,0,0,0,0,0,0,0,0,0,0,0,0,0,0,0,0,0,0
BE,Belgium,country,Europe and Central Asia,50.503887,4.469936,LU,Luxembourg,country,Europe and Central Asia,49.815273,6.129583,141.010751522359,2003,334987,18270,5822,6098,149,2142,1022,19030,26344,5,189,35005,4979,17556,6281,157378,31,13519,21189,9,0,0,0,0
BA,Bosnia & Herzegovina,country,Europe and Central Asia,43.915886,17.679076,LU,Luxembourg,country,Europe and Central Asia,49.815273,6.129583,1095.25015076661,2003,49,0,0,0,0,0,0,1,0,0,0,0,0,0,0,48,0,0,0,0,0,0,0,0
BR,Brazil,country,Latin America and the Caribbean,-14.235004,-51.92528,LU,Luxembourg,country,Europe and Central Asia,49.815273,6.129583,9103.11688193022,2003,150,0,0,0,0,17,0,0,8,0,0,0,0,125,0,0,0,0,0,0,0,0,0,0
BG,Bulgaria,country,Europe and Central Asia,42.733883,25.48583,LU,Luxembourg,country,Europe and Central Asia,49.815273,6.129583,1678.22916383142,2003,0,0,0,0,0,0,0,0,0,0,0,0,0,0,0,0,0,0,0,0,0,0,0,0
CM,Cameroon,country,Sub-Saharan Africa,7.369722,12.354722,LU,Luxembourg,country,Europe and Central Asia,49.815273,6.129583,4760.56927700153,2003,7,1,0,0,0,1,0,4,1,0,0,0,0,0,0,0,0,0,0,0,0,0,0,0
CA,Canada,country,North America,56.130366,-106.346771,LU,Luxembourg,country,Europe and Central Asia,49.815273,6.129583,6702.33363009104,2003,753,0,0,0,0,0,0,0,0,0,0,0,0,0,5,0,0,748,0,0,0,0,0,0
CL,Chile,country,Latin America and the Caribbean,-35.675147,-71.542969,LU,Luxembourg,country,Europe and Central Asia,49.815273,6.129583,12188.285018942,2003,12,0,0,0,0,0,0,3,0,0,0,0,0,0,0,9,0,0,0,0,0,0,0,0
CN,China,country,East Asia and Pacific,35.86166,104.195397,LU,Luxembourg,country,Europe and Central Asia,49.815273,6.129583,7572.64473244044,2003,316,0,0,0,0,109,0,41,5,0,0,0,0,54,0,107,0,0,0,0,0,0,0,0
TW,Taiwan,country,East Asia and Pacific,23.69781,120.960515,LU,Luxembourg,country,Europe and Central Asia,49.815273,6.129583,9642.68630068626,2003,35,0,0,0,0,0,0,0,0,0,0,0,0,35,0,0,0,0,0,0,0,0,0,0
CO,Colombia,country,Latin America and the Caribbean,4.570868,-74.297333,LU,Luxembourg,country,Europe and Central Asia,49.815273,6.129583,8943.0904745837,2003,20,0,0,0,0,0,0,0,0,0,0,0,0,20,0,0,0,0,0,0,0,0,0,0
CI,Ivory Coast,country,Sub-Saharan Africa,7.539989,-5.54708,LU,Luxembourg,country,Europe and Central Asia,49.815273,6.129583,4830.25571832994,2003,3315,0,0,0,0,0,0,0,0,0,0,0,0,3315,0,0,0,0,0,0,0,0,0,0
CZ,Czech Republic,country,Europe and Central Asia,49.817492,15.472962,LU,Luxembourg,country,Europe and Central Asia,49.815273,6.129583,670.679115869592,2003,61,47,0,0,0,0,0,0,14,0,0,0,0,0,0,0,0,0,0,0,0,0,0,0
CD,"Congo, Dem. Rep.",country,Sub-Saharan Africa,-4.038333,21.758664,LU,Luxembourg,country,Europe and Central Asia,49.815273,6.129583,6180.97290912076,2003,2,0,0,0,0,0,0,2,0,0,0,0,0,0,0,0,0,0,0,0,0,0,0,0
DK,Denmark,country,Europe and Central Asia,56.26392,9.501785,LU,Luxembourg,country,Europe and Central Asia,49.815273,6.129583,752.276128265553,2003,262,21,0,6,0,0,0,3,0,0,0,0,78,65,0,63,0,16,10,0,0,0,0,0
DJ,Djibouti,country,Middle East and North Africa,11.825138,42.590275,LU,Luxembourg,country,Europe and Central Asia,49.815273,6.129583,5382.98350939383,2003,1,0,0,0,0,0,0,0,0,0,0,0,0,0,0,0,0,0,0,1,0,0,0,0
DO,Dominican Republic,country,Latin America and the Caribbean,18.735693,-70.162651,LU,Luxembourg,country,Europe and Central Asia,49.815273,6.129583,7462.13990673475,2003,0,0,0,0,0,0,0,0,0,0,0,0,0,0,0,0,0,0,0,0,0,0,0,0
EC,Ecuador,country,Latin America and the Caribbean,-1.831239,-78.183406,LU,Luxembourg,country,Europe and Central Asia,49.815273,6.129583,9766.78336283187,2003,41,0,0,0,0,0,0,0,0,0,0,0,0,40,0,1,0,0,0,0,0,0,0,0
EG,Egypt,country,Middle East and North Africa,26.820553,30.802498,LU,Luxembourg,country,Europe and Central Asia,49.815273,6.129583,3314.696345984,2003,2,0,0,0,0,0,0,2,0,0,0,0,0,0,0,0,0,0,0,0,0,0,0,0
FI,Finland,country,Europe and Central Asia,61.92411,25.748151,LU,Luxembourg,country,Europe and Central Asia,49.815273,6.129583,1807.30315723987,2003,25,21,0,0,0,0,0,0,0,0,0,0,0,0,0,3,0,0,1,0,0,0,0,0
FR,France,country,Europe and Central Asia,46.227638,2.213749,LU,Luxembourg,country,Europe and Central Asia,49.815273,6.129583,494.324476495474,2003,246642,53179,3318,488,224,150,640,10559,7938,0,117,9449,1134,3149,784,123486,62,5991,26036,0,0,0,0,0
DE,Germany,country,Europe and Central Asia,51.165691,10.451526,LU,Luxembourg,country,Europe and Central Asia,49.815273,6.129583,340.938789770655,2003,88900,12835,747,736,26,1388,2067,1853,4885,3,79,18910,5647,6659,1756,18964,9,2145,10152,48,0,0,0,0
GH,Ghana,country,Sub-Saharan Africa,7.946527,-1.023194,LU,Luxembourg,country,Europe and Central Asia,49.815273,6.129583,4708.13900793224,2003,4848,0,2,0,0,0,0,15,4831,0,0,0,0,0,0,0,0,0,0,0,0,0,0,0
GR,Greece,country,Europe and Central Asia,39.074208,21.824312,LU,Luxembourg,country,Europe and Central Asia,49.815273,6.129583,1721.32654055404,2003,14,0,0,0,0,0,0,0,2,0,0,0,1,4,2,1,0,0,4,0,0,0,0,0
GT,Guatemala,country,Latin America and the Caribbean,15.783471,-90.230759,LU,Luxembourg,country,Europe and Central Asia,49.815273,6.129583,9129.21957521566,2003,0,0,0,0,0,0,0,0,0,0,0,0,0,0,0,0,0,0,0,0,0,0,0,0
HN,Honduras,country,Latin America and the Caribbean,15.199999,-86.241905,LU,Luxembourg,country,Europe and Central Asia,49.815273,6.129583,8899.79212900431,2003,0,0,0,0,0,0,0,0,0,0,0,0,0,0,0,0,0,0,0,0,0,0,0,0
HU,Hungary,country,Europe and Central Asia,47.162494,19.503304,LU,Luxembourg,country,Europe and Central Asia,49.815273,6.129583,1028.32524646512,2003,7,0,0,0,0,0,0,0,0,0,0,0,0,6,0,0,0,1,0,0,0,0,0,0
IS,Iceland,country,Europe and Central Asia,64.963051,-19.020835,LU,Luxembourg,country,Europe and Central Asia,49.815273,6.129583,2232.46528514078,2003,0,0,0,0,0,0,0,0,0,0,0,0,0,0,0,0,0,0,0,0,0,0,0,0
IN,India,country,South Asia,20.593684,78.96288,LU,Luxembourg,country,Europe and Central Asia,49.815273,6.129583,7063.10107305307,2003,17,0,0,0,0,16,0,0,1,0,0,0,0,0,0,0,0,0,0,0,0,0,0,0
ID,Indonesia,country,East Asia and Pacific,-0.789275,113.921327,LU,Luxembourg,country,Europe and Central Asia,49.815273,6.129583,11352.9962916656,2003,40007,0,0,0,0,0,0,0,0,0,0,0,0,40007,0,0,0,0,0,0,0,0,0,0
IR,Iran,country,Middle East and North Africa,32.427908,53.688046,LU,Luxembourg,country,Europe and Central Asia,49.815273,6.129583,4340.80525197097,2003,944,0,0,0,0,944,0,0,0,0,0,0,0,0,0,0,0,0,0,0,0,0,0,0
IE,Ireland,country,Europe and Central Asia,53.41291,-8.24389,LU,Luxembourg,country,Europe and Central Asia,49.815273,6.129583,1068.87311816525,2003,1165,67,0,10,0,0,0,0,0,0,0,0,0,1080,0,1,0,7,0,0,0,0,0,0
IL,Israel,country,Middle East and North Africa,31.046051,34.851612,LU,Luxembourg,country,Europe and Central Asia,49.815273,6.129583,3172.78536497163,2003,7,0,0,0,0,0,0,6,0,0,0,0,0,1,0,0,0,0,0,0,0,0,0,0
IT,Italy,country,Europe and Central Asia,41.87194,12.56738,LU,Luxembourg,country,Europe and Central Asia,49.815273,6.129583,1014.55513004579,2003,9625,1345,3,41,2,12,4,1533,503,0,0,4,821,499,232,3207,0,1059,360,0,0,0,0,0
JM,Jamaica,country,Latin America and the Caribbean,18.109581,-77.297508,LU,Luxembourg,country,Europe and Central Asia,49.815273,6.129583,8024.03401763318,2003,6,0,0,0,0,0,0,0,0,0,0,0,0,6,0,0,0,0,0,0,0,0,0,0
JP,Japan,country,East Asia and Pacific,36.204824,138.252924,LU,Luxembourg,country,Europe and Central Asia,49.815273,6.129583,9366.84221317977,2003,0,0,0,0,0,0,0,0,0,0,0,0,0,0,0,0,0,0,0,0,0,0,0,0
KE,Kenya,country,Sub-Saharan Africa,-0.023559,37.906193,LU,Luxembourg,country,Europe and Central Asia,49.815273,6.129583,6317.92967816752,2003,1161,0,0,0,0,0,0,1113,42,0,0,0,6,0,0,0,0,0,0,0,0,0,0,0
KG,Kyrgyz Rep.,country,Europe and Central Asia,41.20438,74.766098,LU,Luxembourg,country,Europe and Central Asia,49.815273,6.129583,5248.47401585302,2003,0,0,0,0,0,0,0,0,0,0,0,0,0,0,0,0,0,0,0,0,0,0,0,0
LB,Lebanon,country,Middle East and North Africa,33.854721,35.862285,LU,Luxembourg,country,Europe and Central Asia,49.815273,6.129583,3007.0461716613,2003,0,0,0,0,0,0,0,0,0,0,0,0,0,0,0,0,0,0,0,0,0,0,0,0
MY,Malaysia,country,East Asia and Pacific,4.210484,101.975766,LU,Luxembourg,country,Europe and Central Asia,49.815273,6.129583,10079.0664946099,2003,0,0,0,0,0,0,0,0,0,0,0,0,0,0,0,0,0,0,0,0,0,0,0,0
MX,Mexico,country,Latin America and the Caribbean,23.634501,-102.552784,LU,Luxembourg,country,Europe and Central Asia,49.815273,6.129583,9271.29106660609,2003,305,0,0,0,0,0,0,0,0,0,0,0,305,0,0,0,0,0,0,0,0,0,0,0
MA,Morocco,country,Middle East and North Africa,31.791702,-7.09262,LU,Luxembourg,country,Europe and Central Asia,49.815273,6.129583,2287.17988322945,2003,447,0,0,0,0,0,0,17,0,0,0,0,0,430,0,0,0,0,0,0,0,0,0,0
NL,Netherlands,country,Europe and Central Asia,52.132633,5.291266,LU,Luxembourg,country,Europe and Central Asia,49.815273,6.129583,264.570285267402,2003,38708,3485,993,114,14,329,2868,4468,2123,0,4,15597,364,3824,219,1995,28,1612,699,0,0,0,0,0
NC,New Caledonia,country,East Asia and Pacific,-20.904305,165.618042,LU,Luxembourg,country,Europe and Central Asia,49.815273,6.129583,16346.2732415788,2003,0,0,0,0,0,0,0,0,0,0,0,0,0,0,0,0,0,0,0,0,0,0,0,0
NZ,New Zealand,country,East Asia and Pacific,-40.900557,174.885971,LU,Luxembourg,country,Europe and Central Asia,49.815273,6.129583,18714.3674951129,2003,21,0,0,0,0,0,0,0,21,0,0,0,0,0,0,0,0,0,0,0,0,0,0,0
NO,Norway,country,Europe and Central Asia,60.472024,8.468946,LU,Luxembourg,country,Europe and Central Asia,49.815273,6.129583,1195.41073083658,2003,14,0,0,0,0,0,0,0,0,0,0,0,0,0,0,0,0,0,14,0,0,0,0,0
PE,Peru,country,Latin America and the Caribbean,-9.189967,-75.015152,LU,Luxembourg,country,Europe and Central Asia,49.815273,6.129583,10171.5716694118,2003,1,0,0,0,0,0,0,1,0,0,0,0,0,0,0,0,0,0,0,0,0,0,0,0
PL,Poland,country,Europe and Central Asia,51.919438,19.145136,LU,Luxembourg,country,Europe and Central Asia,49.815273,6.129583,942.517532342503,2003,43,3,17,0,0,0,0,0,0,0,0,0,0,0,0,23,0,0,0,0,0,0,0,0
PT,Portugal,country,Europe and Central Asia,39.399872,-8.224454,LU,Luxembourg,country,Europe and Central Asia,49.815273,6.129583,1618.96996128454,2003,10319,341,73,66,12,43,92,391,274,9,4,6,107,113,204,8219,0,239,126,0,0,0,0,0
MD,Moldova,country,Europe and Central Asia,47.411631,28.369885,LU,Luxembourg,country,Europe and Central Asia,49.815273,6.129583,1652.23512788637,2003,1,0,0,0,0,0,0,0,0,0,0,0,0,0,0,1,0,0,0,0,0,0,0,0
RO,Romania,country,Europe and Central Asia,45.943161,24.96676,LU,Luxembourg,country,Europe and Central Asia,49.815273,6.129583,1466.44149690005,2003,31,0,0,21,0,0,0,0,0,0,0,0,0,0,0,10,0,0,0,0,0,0,0,0
RW,Rwanda,country,Sub-Saharan Africa,-1.940278,29.873888,LU,Luxembourg,country,Europe and Central Asia,49.815273,6.129583,6193.51849397335,2003,0,0,0,0,0,0,0,0,0,0,0,0,0,0,0,0,0,0,0,0,0,0,0,0
WS,Samoa,country,East Asia and Pacific,-13.759029,-172.104629,LU,Luxembourg,country,Europe and Central Asia,49.815273,6.129583,16020.5216437174,2003,0,0,0,0,0,0,0,0,0,0,0,0,0,0,0,0,0,0,0,0,0,0,0,0
SA,Saudi Arabia,country,Middle East and North Africa,23.885942,45.079162,LU,Luxembourg,country,Europe and Central Asia,49.815273,6.129583,4431.55793983308,2003,0,0,0,0,0,0,0,0,0,0,0,0,0,0,0,0,0,0,0,0,0,0,0,0
SG,Singapore,country,East Asia and Pacific,1.352083,103.819836,LU,Luxembourg,country,Europe and Central Asia,49.815273,6.129583,10454.6924271224,2003,137,0,0,0,0,0,0,0,0,0,0,0,0,136,0,1,0,0,0,0,0,0,0,0
SK,Slovak Rep.,country,Europe and Central Asia,48.669026,19.699024,LU,Luxembourg,country,Europe and Central Asia,49.815273,6.129583,993.003033210224,2003,14,0,0,0,0,0,0,0,14,0,0,0,0,0,0,0,0,0,0,0,0,0,0,0
SI,Slovenia,country,Europe and Central Asia,46.151241,14.995463,LU,Luxembourg,country,Europe and Central Asia,49.815273,6.129583,775.622526349262,2003,0,0,0,0,0,0,0,0,0,0,0,0,0,0,0,0,0,0,0,0,0,0,0,0
ZA,S. Africa,country,Sub-Saharan Africa,-30.559482,22.937506,LU,Luxembourg,country,Europe and Central Asia,49.815273,6.129583,9100.53728565787,2003,8,0,0,0,0,0,0,0,2,0,0,0,0,0,0,6,0,0,0,0,0,0,0,0
ES,Spain,country,Europe and Central Asia,40.463667,-3.74922,LU,Luxembourg,country,Europe and Central Asia,49.815273,6.129583,1295.87958402427,2003,3747,986,0,3,0,14,5,188,1176,0,1,0,1,10,4,1312,0,36,11,0,0,0,0,0
LK,Sri Lanka,country,South Asia,7.873054,80.771797,LU,Luxembourg,country,Europe and Central Asia,49.815273,6.129583,8248.97272285409,2003,0,0,0,0,0,0,0,0,0,0,0,0,0,0,0,0,0,0,0,0,0,0,0,0
SE,Sweden,country,Europe and Central Asia,60.128161,18.643501,LU,Luxembourg,country,Europe and Central Asia,49.815273,6.129583,1394.0262531727,2003,49,13,2,1,0,0,0,1,6,0,0,0,0,13,0,0,0,2,11,0,0,0,0,0
CH,Switzerland,country,Europe and Central Asia,46.818188,8.227512,LU,Luxembourg,country,Europe and Central Asia,49.815273,6.129583,367.973027880722,2003,1074,63,0,10,0,0,0,37,3,0,0,0,49,107,0,493,0,0,312,0,0,0,0,0
SY,Syrian Arab Rep.,country,Middle East and North Africa,34.802075,38.996815,LU,Luxembourg,country,Europe and Central Asia,49.815273,6.129583,3142.55538859235,2003,0,0,0,0,0,0,0,0,0,0,0,0,0,0,0,0,0,0,0,0,0,0,0,0
TH,Thailand,country,East Asia and Pacific,15.870032,100.992541,LU,Luxembourg,country,Europe and Central Asia,49.815273,6.129583,9017.76829500549,2003,129,0,0,0,0,0,0,12,1,0,0,0,0,116,0,0,0,0,0,0,0,0,0,0
TR,Turkey,country,Europe and Central Asia,38.963745,35.243322,LU,Luxembourg,country,Europe and Central Asia,49.815273,6.129583,2589.17278784847,2003,43,0,0,0,0,19,0,0,0,0,0,0,0,0,0,24,0,0,0,0,0,0,0,0
UG,Uganda,country,Sub-Saharan Africa,1.373333,32.290275,LU,Luxembourg,country,Europe and Central Asia,49.815273,6.129583,5935.92698836676,2003,33,0,0,0,0,0,0,0,24,0,0,0,9,0,0,0,0,0,0,0,0,0,0,0
UA,Ukraine,country,Europe and Central Asia,48.379433,31.16558,LU,Luxembourg,country,Europe and Central Asia,49.815273,6.129583,1823.28665143496,2003,1,0,0,0,0,0,0,0,0,0,0,0,0,0,0,1,0,0,0,0,0,0,0,0
AE,United Arab Emirates,country,Middle East and North Africa,23.424076,53.847818,LU,Luxembourg,country,Europe and Central Asia,49.815273,6.129583,5054.92783035055,2003,0,0,0,0,0,0,0,0,0,0,0,0,0,0,0,0,0,0,0,0,0,0,0,0
GB,United Kingdom,country,Europe and Central Asia,55.378051,-3.435973,LU,Luxembourg,country,Europe and Central Asia,49.815273,6.129583,893.974896587879,2003,2550,13,0,1,0,194,0,114,21,0,0,7,1,1686,134,358,0,21,0,0,0,0,0,0
US,USA,country,North America,37.09024,-95.712891,LU,Luxembourg,country,Europe and Central Asia,49.815273,6.129583,7703.36932873328,2003,5089,1,0,0,0,5019,0,19,2,0,0,0,0,4,0,9,0,35,0,0,0,0,0,0
UY,Uruguay,country,Latin America and the Caribbean,-32.522779,-55.765835,LU,Luxembourg,country,Europe and Central Asia,49.815273,6.129583,11007.7323252116,2003,0,0,0,0,0,0,0,0,0,0,0,0,0,0,0,0,0,0,0,0,0,0,0,0
VN,Vietnam,country,East Asia and Pacific,14.058324,108.277199,LU,Luxembourg,country,Europe and Central Asia,49.815273,6.129583,9675.05905315424,2003,38,13,0,0,0,0,0,0,0,0,0,0,0,25,0,0,0,0,0,0,0,0,0,0
DZ,Algeria,country,Middle East and North Africa,28.033886,1.659626,LU,Luxembourg,country,Europe and Central Asia,49.815273,6.129583,2454.29818371356,2004,1,0,0,0,0,0,0,0,1,0,0,0,0,0,0,0,0,0,0,0,0,0,0,0
AG,Antigua & Barbuda,country,Latin America and the Caribbean,17.060816,-61.796428,LU,Luxembourg,country,Europe and Central Asia,49.815273,6.129583,6999.05168107612,2004,0,0,0,0,0,0,0,0,0,0,0,0,0,0,0,0,0,0,0,0,0,0,0,0
AR,Argentina,country,Latin America and the Caribbean,-38.416097,-63.616672,LU,Luxembourg,country,Europe and Central Asia,49.815273,6.129583,11960.0415450277,2004,98,0,0,0,0,0,0,0,19,0,0,0,0,0,0,15,0,64,0,0,0,0,0,0
AU,Australia,country,East Asia and Pacific,-25.274398,133.775136,LU,Luxembourg,country,Europe and Central Asia,49.815273,6.129583,14810.3724514144,2004,141,0,0,0,0,79,0,57,0,0,0,0,0,0,0,5,0,0,0,0,0,0,0,0
AT,Austria,country,Europe and Central Asia,47.516231,14.550072,LU,Luxembourg,country,Europe and Central Asia,49.815273,6.129583,669.41995381979,2004,1920,127,0,9,0,0,198,4,711,0,2,0,12,773,0,31,0,52,1,0,0,0,0,0
BE,Belgium,country,Europe and Central Asia,50.503887,4.469936,LU,Luxembourg,country,Europe and Central Asia,49.815273,6.129583,141.010751522359,2004,352870,22311,6780,6191,79,3594,4704,16610,22589,7,192,45347,5176,21525,5757,158047,44,13958,20003,0,0,0,0,0
BO,Bolivia,country,Latin America and the Caribbean,-16.290154,-63.588653,LU,Luxembourg,country,Europe and Central Asia,49.815273,6.129583,10016.234186657,2004,25,0,0,0,0,25,0,0,0,0,0,0,0,0,0,0,0,0,0,0,0,0,0,0
BA,Bosnia & Herzegovina,country,Europe and Central Asia,43.915886,17.679076,LU,Luxembourg,country,Europe and Central Asia,49.815273,6.129583,1095.25015076661,2004,45,1,0,0,0,0,0,2,6,0,0,0,0,0,0,36,0,0,0,0,0,0,0,0
BR,Brazil,country,Latin America and the Caribbean,-14.235004,-51.92528,LU,Luxembourg,country,Europe and Central Asia,49.815273,6.129583,9103.11688193022,2004,5,0,0,0,0,0,0,0,1,0,0,0,0,0,0,4,0,0,0,0,0,0,0,0
BG,Bulgaria,country,Europe and Central Asia,42.733883,25.48583,LU,Luxembourg,country,Europe and Central Asia,49.815273,6.129583,1678.22916383142,2004,0,0,0,0,0,0,0,0,0,0,0,0,0,0,0,0,0,0,0,0,0,0,0,0
BI,Burundi,country,Sub-Saharan Africa,-3.373056,29.918886,LU,Luxembourg,country,Europe and Central Asia,49.815273,6.129583,6346.59029430381,2004,0,0,0,0,0,0,0,0,0,0,0,0,0,0,0,0,0,0,0,0,0,0,0,0
CM,Cameroon,country,Sub-Saharan Africa,7.369722,12.354722,LU,Luxembourg,country,Europe and Central Asia,49.815273,6.129583,4760.56927700153,2004,1,0,0,0,0,0,0,1,0,0,0,0,0,0,0,0,0,0,0,0,0,0,0,0
CA,Canada,country,North America,56.130366,-106.346771,LU,Luxembourg,country,Europe and Central Asia,49.815273,6.129583,6702.33363009104,2004,1953,0,0,0,0,0,0,0,0,0,0,0,0,0,0,0,0,1953,0,0,0,0,0,0
CL,Chile,country,Latin America and the Caribbean,-35.675147,-71.542969,LU,Luxembourg,country,Europe and Central Asia,49.815273,6.129583,12188.285018942,2004,10,0,0,0,0,0,0,0,0,0,0,0,0,0,0,10,0,0,0,0,0,0,0,0
HK,Hong Kong,country,East Asia and Pacific,22.396428,114.109497,LU,Luxembourg,country,Europe and Central Asia,49.815273,6.129583,9335.45682195649,2004,17,0,0,0,0,0,0,0,0,0,0,0,0,0,0,17,0,0,0,0,0,0,0,0
CN,China,country,East Asia and Pacific,35.86166,104.195397,LU,Luxembourg,country,Europe and Central Asia,49.815273,6.129583,7572.64473244044,2004,164,0,0,0,0,34,0,0,0,0,0,0,0,0,0,130,0,0,0,0,0,0,0,0
TW,Taiwan,country,East Asia and Pacific,23.69781,120.960515,LU,Luxembourg,country,Europe and Central Asia,49.815273,6.129583,9642.68630068626,2004,40,0,0,0,0,0,0,0,0,0,0,0,0,40,0,0,0,0,0,0,0,0,0,0
CO,Colombia,country,Latin America and the Caribbean,4.570868,-74.297333,LU,Luxembourg,country,Europe and Central Asia,49.815273,6.129583,8943.0904745837,2004,8,0,0,0,0,0,0,0,0,0,0,0,0,8,0,0,0,0,0,0,0,0,0,0
CR,Costa Rica,country,Latin America and the Caribbean,9.748917,-83.753428,LU,Luxembourg,country,Europe and Central Asia,49.815273,6.129583,9182.98520480261,2004,11,0,0,0,0,0,0,0,11,0,0,0,0,0,0,0,0,0,0,0,0,0,0,0
CI,Ivory Coast,country,Sub-Saharan Africa,7.539989,-5.54708,LU,Luxembourg,country,Europe and Central Asia,49.815273,6.129583,4830.25571832994,2004,6224,0,0,0,0,0,0,0,0,0,0,0,0,6224,0,0,0,0,0,0,0,0,0,0
CZ,Czech Republic,country,Europe and Central Asia,49.817492,15.472962,LU,Luxembourg,country,Europe and Central Asia,49.815273,6.129583,670.679115869592,2004,38,38,0,0,0,0,0,0,0,0,0,0,0,0,0,0,0,0,0,0,0,0,0,0
CD,"Congo, Dem. Rep.",country,Sub-Saharan Africa,-4.038333,21.758664,LU,Luxembourg,country,Europe and Central Asia,49.815273,6.129583,6180.97290912076,2004,5,2,0,0,0,0,0,3,0,0,0,0,0,0,0,0,0,0,0,0,0,0,0,0
DK,Denmark,country,Europe and Central Asia,56.26392,9.501785,LU,Luxembourg,country,Europe and Central Asia,49.815273,6.129583,752.276128265553,2004,308,38,0,8,0,0,0,1,2,0,0,0,89,59,0,67,0,36,8,0,0,0,0,0
DO,Dominican Republic,country,Latin America and the Caribbean,18.735693,-70.162651,LU,Luxembourg,country,Europe and Central Asia,49.815273,6.129583,7462.13990673475,2004,0,0,0,0,0,0,0,0,0,0,0,0,0,0,0,0,0,0,0,0,0,0,0,0
EC,Ecuador,country,Latin America and the Caribbean,-1.831239,-78.183406,LU,Luxembourg,country,Europe and Central Asia,49.815273,6.129583,9766.78336283187,2004,16,0,0,0,0,0,0,0,0,0,0,0,0,16,0,0,0,0,0,0,0,0,0,0
EG,Egypt,country,Middle East and North Africa,26.820553,30.802498,LU,Luxembourg,country,Europe and Central Asia,49.815273,6.129583,3314.696345984,2004,0,0,0,0,0,0,0,0,0,0,0,0,0,0,0,0,0,0,0,0,0,0,0,0
EE,Estonia,country,Europe and Central Asia,58.595272,25.013607,LU,Luxembourg,country,Europe and Central Asia,49.815273,6.129583,1561.40485192757,2004,0,0,0,0,0,0,0,0,0,0,0,0,0,0,0,0,0,0,0,0,0,0,0,0
FI,Finland,country,Europe and Central Asia,61.92411,25.748151,LU,Luxembourg,country,Europe and Central Asia,49.815273,6.129583,1807.30315723987,2004,7,4,0,0,0,0,0,0,0,0,0,0,0,0,0,2,0,0,1,0,0,0,0,0
FR,France,country,Europe and Central Asia,46.227638,2.213749,LU,Luxembourg,country,Europe and Central Asia,49.815273,6.129583,494.324476495474,2004,160464,45800,3128,593,207,131,1854,9627,7684,36,123,9828,1435,4557,582,41190,10,6166,27523,0,0,0,0,0
GE,Georgia,country,Europe and Central Asia,42.315407,43.356892,LU,Luxembourg,country,Europe and Central Asia,49.815273,6.129583,2960.08602199546,2004,0,0,0,0,0,0,0,0,0,0,0,0,0,0,0,0,0,0,0,0,0,0,0,0
DE,Germany,country,Europe and Central Asia,51.165691,10.451526,LU,Luxembourg,country,Europe and Central Asia,49.815273,6.129583,340.938789770655,2004,105929,24421,655,708,20,1301,2537,2093,5314,1,79,25215,6507,7094,1873,16589,10,2598,8924,0,0,0,0,0
GH,Ghana,country,Sub-Saharan Africa,7.946527,-1.023194,LU,Luxembourg,country,Europe and Central Asia,49.815273,6.129583,4708.13900793224,2004,2575,0,1,0,0,0,0,37,2535,0,2,0,0,0,0,0,0,0,0,0,0,0,0,0
GR,Greece,country,Europe and Central Asia,39.074208,21.824312,LU,Luxembourg,country,Europe and Central Asia,49.815273,6.129583,1721.32654055404,2004,73,0,0,0,0,61,0,0,1,0,0,0,0,6,1,0,0,0,4,0,0,0,0,0
HN,Honduras,country,Latin America and the Caribbean,15.199999,-86.241905,LU,Luxembourg,country,Europe and Central Asia,49.815273,6.129583,8899.79212900431,2004,2,0,0,0,0,0,0,0,0,0,0,0,2,0,0,0,0,0,0,0,0,0,0,0
HU,Hungary,country,Europe and Central Asia,47.162494,19.503304,LU,Luxembourg,country,Europe and Central Asia,49.815273,6.129583,1028.32524646512,2004,11,0,0,0,0,0,0,0,0,0,0,0,0,0,0,11,0,0,0,0,0,0,0,0
IS,Iceland,country,Europe and Central Asia,64.963051,-19.020835,LU,Luxembourg,country,Europe and Central Asia,49.815273,6.129583,2232.46528514078,2004,0,0,0,0,0,0,0,0,0,0,0,0,0,0,0,0,0,0,0,0,0,0,0,0
IN,India,country,South Asia,20.593684,78.96288,LU,Luxembourg,country,Europe and Central Asia,49.815273,6.129583,7063.10107305307,2004,137,116,0,19,0,0,0,0,0,0,0,0,0,0,2,0,0,0,0,0,0,0,0,0
ID,Indonesia,country,East Asia and Pacific,-0.789275,113.921327,LU,Luxembourg,country,Europe and Central Asia,49.815273,6.129583,11352.9962916656,2004,41999,0,0,0,0,0,0,0,0,0,0,0,0,41999,0,0,0,0,0,0,0,0,0,0
IR,Iran,country,Middle East and North Africa,32.427908,53.688046,LU,Luxembourg,country,Europe and Central Asia,49.815273,6.129583,4340.80525197097,2004,1306,0,0,0,0,1306,0,0,0,0,0,0,0,0,0,0,0,0,0,0,0,0,0,0
IE,Ireland,country,Europe and Central Asia,53.41291,-8.24389,LU,Luxembourg,country,Europe and Central Asia,49.815273,6.129583,1068.87311816525,2004,4634,102,0,18,0,0,0,0,0,0,0,0,0,4503,0,0,0,11,0,0,0,0,0,0
IL,Israel,country,Middle East and North Africa,31.046051,34.851612,LU,Luxembourg,country,Europe and Central Asia,49.815273,6.129583,3172.78536497163,2004,1,1,0,0,0,0,0,0,0,0,0,0,0,0,0,0,0,0,0,0,0,0,0,0
IT,Italy,country,Europe and Central Asia,41.87194,12.56738,LU,Luxembourg,country,Europe and Central Asia,49.815273,6.129583,1014.55513004579,2004,10263,1630,0,56,2,39,15,1539,398,0,0,17,790,599,225,3827,0,684,442,0,0,0,0,0
JM,Jamaica,country,Latin America and the Caribbean,18.109581,-77.297508,LU,Luxembourg,country,Europe and Central Asia,49.815273,6.129583,8024.03401763318,2004,23,0,0,0,0,0,0,0,0,0,0,0,0,23,0,0,0,0,0,0,0,0,0,0
JP,Japan,country,East Asia and Pacific,36.204824,138.252924,LU,Luxembourg,country,Europe and Central Asia,49.815273,6.129583,9366.84221317977,2004,0,0,0,0,0,0,0,0,0,0,0,0,0,0,0,0,0,0,0,0,0,0,0,0
KZ,Kazakhstan,country,Europe and Central Asia,48.019573,66.923684,LU,Luxembourg,country,Europe and Central Asia,49.815273,6.129583,4327.61422612754,2004,0,0,0,0,0,0,0,0,0,0,0,0,0,0,0,0,0,0,0,0,0,0,0,0
KE,Kenya,country,Sub-Saharan Africa,-0.023559,37.906193,LU,Luxembourg,country,Europe and Central Asia,49.815273,6.129583,6317.92967816752,2004,806,0,0,0,0,0,0,739,67,0,0,0,0,0,0,0,0,0,0,0,0,0,0,0
LB,Lebanon,country,Middle East and North Africa,33.854721,35.862285,LU,Luxembourg,country,Europe and Central Asia,49.815273,6.129583,3007.0461716613,2004,3,0,0,0,0,0,0,0,3,0,0,0,0,0,0,0,0,0,0,0,0,0,0,0
MY,Malaysia,country,East Asia and Pacific,4.210484,101.975766,LU,Luxembourg,country,Europe and Central Asia,49.815273,6.129583,10079.0664946099,2004,273,0,0,0,0,0,0,0,0,0,0,0,0,273,0,0,0,0,0,0,0,0,0,0
MA,Morocco,country,Middle East and North Africa,31.791702,-7.09262,LU,Luxembourg,country,Europe and Central Asia,49.815273,6.129583,2287.17988322945,2004,28,0,0,0,0,0,0,0,0,0,0,0,0,28,0,0,0,0,0,0,0,0,0,0
NL,Netherlands,country,Europe and Central Asia,52.132633,5.291266,LU,Luxembourg,country,Europe and Central Asia,49.815273,6.129583,264.570285267402,2004,38858,3079,1598,141,6,522,876,5207,2127,0,5,16452,443,3826,83,2202,20,1550,741,0,0,0,0,0
NC,New Caledonia,country,East Asia and Pacific,-20.904305,165.618042,LU,Luxembourg,country,Europe and Central Asia,49.815273,6.129583,16346.2732415788,2004,0,0,0,0,0,0,0,0,0,0,0,0,0,0,0,0,0,0,0,0,0,0,0,0
NZ,New Zealand,country,East Asia and Pacific,-40.900557,174.885971,LU,Luxembourg,country,Europe and Central Asia,49.815273,6.129583,18714.3674951129,2004,0,0,0,0,0,0,0,0,0,0,0,0,0,0,0,0,0,0,0,0,0,0,0,0
NO,Norway,country,Europe and Central Asia,60.472024,8.468946,LU,Luxembourg,country,Europe and Central Asia,49.815273,6.129583,1195.41073083658,2004,11,0,0,0,0,0,0,0,0,0,0,0,0,2,0,0,0,0,9,0,0,0,0,0
PK,Pakistan,country,South Asia,30.375321,69.345116,LU,Luxembourg,country,Europe and Central Asia,49.815273,6.129583,5612.60421707933,2004,13,13,0,0,0,0,0,0,0,0,0,0,0,0,0,0,0,0,0,0,0,0,0,0
PE,Peru,country,Latin America and the Caribbean,-9.189967,-75.015152,LU,Luxembourg,country,Europe and Central Asia,49.815273,6.129583,10171.5716694118,2004,0,0,0,0,0,0,0,0,0,0,0,0,0,0,0,0,0,0,0,0,0,0,0,0
PL,Poland,country,Europe and Central Asia,51.919438,19.145136,LU,Luxembourg,country,Europe and Central Asia,49.815273,6.129583,942.517532342503,2004,7,1,1,0,0,0,0,0,1,0,0,0,4,0,0,0,0,0,0,0,0,0,0,0
PT,Portugal,country,Europe and Central Asia,39.399872,-8.224454,LU,Luxembourg,country,Europe and Central Asia,49.815273,6.129583,1618.96996128454,2004,10840,472,291,85,23,10,92,499,381,9,5,7,137,271,262,7751,0,355,190,0,0,0,0,0
KR,"Korea, Rep.",country,East Asia and Pacific,35.907757,127.766922,LU,Luxembourg,country,Europe and Central Asia,49.815273,6.129583,8903.85063079069,2004,0,0,0,0,0,0,0,0,0,0,0,0,0,0,0,0,0,0,0,0,0,0,0,0
RO,Romania,country,Europe and Central Asia,45.943161,24.96676,LU,Luxembourg,country,Europe and Central Asia,49.815273,6.129583,1466.44149690005,2004,28,0,0,8,0,0,0,0,0,0,0,0,0,0,0,20,0,0,0,0,0,0,0,0
RU,Russian Federation,country,Europe and Central Asia,61.52401,105.318756,LU,Luxembourg,country,Europe and Central Asia,49.815273,6.129583,5733.80089280781,2004,1,0,0,0,0,0,0,0,0,0,0,0,0,0,0,1,0,0,0,0,0,0,0,0
RS,Serbia,country,Europe and Central Asia,44.016521,21.005859,LU,Luxembourg,country,Europe and Central Asia,49.815273,6.129583,1299.06721262005,2004,8,0,0,0,0,0,0,0,0,0,0,0,0,0,0,8,0,0,0,0,0,0,0,0
SG,Singapore,country,East Asia and Pacific,1.352083,103.819836,LU,Luxembourg,country,Europe and Central Asia,49.815273,6.129583,10454.6924271224,2004,224,0,0,0,0,0,0,0,0,0,0,0,0,224,0,0,0,0,0,0,0,0,0,0
SI,Slovenia,country,Europe and Central Asia,46.151241,14.995463,LU,Luxembourg,country,Europe and Central Asia,49.815273,6.129583,775.622526349262,2004,0,0,0,0,0,0,0,0,0,0,0,0,0,0,0,0,0,0,0,0,0,0,0,0
ZA,S. Africa,country,Sub-Saharan Africa,-30.559482,22.937506,LU,Luxembourg,country,Europe and Central Asia,49.815273,6.129583,9100.53728565787,2004,101,0,0,0,0,32,0,0,23,0,0,0,0,20,0,26,0,0,0,0,0,0,0,0
ES,Spain,country,Europe and Central Asia,40.463667,-3.74922,LU,Luxembourg,country,Europe and Central Asia,49.815273,6.129583,1295.87958402427,2004,5571,2768,0,28,0,0,5,190,1193,0,2,33,5,14,7,1270,0,54,2,0,0,0,0,0
SE,Sweden,country,Europe and Central Asia,60.128161,18.643501,LU,Luxembourg,country,Europe and Central Asia,49.815273,6.129583,1394.0262531727,2004,55,21,1,1,0,0,1,1,6,0,0,0,11,2,1,2,0,2,6,0,0,0,0,0
CH,Switzerland,country,Europe and Central Asia,46.818188,8.227512,LU,Luxembourg,country,Europe and Central Asia,49.815273,6.129583,367.973027880722,2004,1252,52,0,12,0,0,0,32,2,0,0,0,45,116,0,675,0,0,318,0,0,0,0,0
TH,Thailand,country,East Asia and Pacific,15.870032,100.992541,LU,Luxembourg,country,Europe and Central Asia,49.815273,6.129583,9017.76829500549,2004,2,0,0,0,0,0,0,0,0,0,0,0,0,0,0,0,0,2,0,0,0,0,0,0
TN,Tunisia,country,Middle East and North Africa,33.886917,9.537499,LU,Luxembourg,country,Europe and Central Asia,49.815273,6.129583,1795.01956667528,2004,71,0,71,0,0,0,0,0,0,0,0,0,0,0,0,0,0,0,0,0,0,0,0,0
TR,Turkey,country,Europe and Central Asia,38.963745,35.243322,LU,Luxembourg,country,Europe and Central Asia,49.815273,6.129583,2589.17278784847,2004,2,2,0,0,0,0,0,0,0,0,0,0,0,0,0,0,0,0,0,0,0,0,0,0
UG,Uganda,country,Sub-Saharan Africa,1.373333,32.290275,LU,Luxembourg,country,Europe and Central Asia,49.815273,6.129583,5935.92698836676,2004,0,0,0,0,0,0,0,0,0,0,0,0,0,0,0,0,0,0,0,0,0,0,0,0
UA,Ukraine,country,Europe and Central Asia,48.379433,31.16558,LU,Luxembourg,country,Europe and Central Asia,49.815273,6.129583,1823.28665143496,2004,1,0,0,0,0,0,0,0,0,0,0,0,0,0,0,1,0,0,0,0,0,0,0,0
AE,United Arab Emirates,country,Middle East and North Africa,23.424076,53.847818,LU,Luxembourg,country,Europe and Central Asia,49.815273,6.129583,5054.92783035055,2004,0,0,0,0,0,0,0,0,0,0,0,0,0,0,0,0,0,0,0,0,0,0,0,0
GB,United Kingdom,country,Europe and Central Asia,55.378051,-3.435973,LU,Luxembourg,country,Europe and Central Asia,49.815273,6.129583,893.974896587879,2004,1917,6,0,1,0,80,0,26,16,0,0,0,1,1224,260,259,0,36,8,0,0,0,0,0
US,USA,country,North America,37.09024,-95.712891,LU,Luxembourg,country,Europe and Central Asia,49.815273,6.129583,7703.36932873328,2004,7815,0,0,0,0,7746,0,32,0,0,0,1,0,26,0,10,0,0,0,0,0,0,0,0
DZ,Algeria,country,Middle East and North Africa,28.033886,1.659626,LU,Luxembourg,country,Europe and Central Asia,49.815273,6.129583,2454.29818371356,2005,8,0,0,0,0,0,0,0,0,0,0,0,0,0,0,8,0,0,0,0,0,0,0,0
AR,Argentina,country,Latin America and the Caribbean,-38.416097,-63.616672,LU,Luxembourg,country,Europe and Central Asia,49.815273,6.129583,11960.0415450277,2005,83,0,0,0,0,0,0,0,0,0,0,0,0,0,0,0,0,83,0,0,0,0,0,0
AU,Australia,country,East Asia and Pacific,-25.274398,133.775136,LU,Luxembourg,country,Europe and Central Asia,49.815273,6.129583,14810.3724514144,2005,100,0,0,0,0,100,0,0,0,0,0,0,0,0,0,0,0,0,0,0,0,0,0,0
AT,Austria,country,Europe and Central Asia,47.516231,14.550072,LU,Luxembourg,country,Europe and Central Asia,49.815273,6.129583,669.41995381979,2005,1073,20,0,7,0,0,1,3,777,0,2,1,27,142,1,50,0,41,1,0,0,0,0,0
BE,Belgium,country,Europe and Central Asia,50.503887,4.469936,LU,Luxembourg,country,Europe and Central Asia,49.815273,6.129583,141.010751522359,2005,347391,22160,4955,5517,76,4139,3214,20171,22635,2,164,45680,4757,19596,4794,155596,58,13844,20091,0,0,0,0,0
BO,Bolivia,country,Latin America and the Caribbean,-16.290154,-63.588653,LU,Luxembourg,country,Europe and Central Asia,49.815273,6.129583,10016.234186657,2005,26,0,0,0,0,26,0,0,0,0,0,0,0,0,0,0,0,0,0,0,0,0,0,0
BR,Brazil,country,Latin America and the Caribbean,-14.235004,-51.92528,LU,Luxembourg,country,Europe and Central Asia,49.815273,6.129583,9103.11688193022,2005,203,0,0,0,0,0,0,0,0,0,0,0,3,194,0,6,0,0,0,0,0,0,0,0
BF,Burkina Faso,country,Sub-Saharan Africa,12.238333,-1.561593,LU,Luxembourg,country,Europe and Central Asia,49.815273,6.129583,4242.02482004955,2005,18,0,0,0,0,0,0,0,18,0,0,0,0,0,0,0,0,0,0,0,0,0,0,0
CA,Canada,country,North America,56.130366,-106.346771,LU,Luxembourg,country,Europe and Central Asia,49.815273,6.129583,6702.33363009104,2005,2413,0,0,0,0,0,0,0,0,0,0,0,0,0,0,0,0,2413,0,0,0,0,0,0
CL,Chile,country,Latin America and the Caribbean,-35.675147,-71.542969,LU,Luxembourg,country,Europe and Central Asia,49.815273,6.129583,12188.285018942,2005,1,0,0,0,0,0,0,0,0,0,0,0,0,0,0,1,0,0,0,0,0,0,0,0
HK,Hong Kong,country,East Asia and Pacific,22.396428,114.109497,LU,Luxembourg,country,Europe and Central Asia,49.815273,6.129583,9335.45682195649,2005,0,0,0,0,0,0,0,0,0,0,0,0,0,0,0,0,0,0,0,0,0,0,0,0
CN,China,country,East Asia and Pacific,35.86166,104.195397,LU,Luxembourg,country,Europe and Central Asia,49.815273,6.129583,7572.64473244044,2005,265,0,0,0,0,147,0,1,0,0,0,0,0,0,0,117,0,0,0,0,0,0,0,0
TW,Taiwan,country,East Asia and Pacific,23.69781,120.960515,LU,Luxembourg,country,Europe and Central Asia,49.815273,6.129583,9642.68630068626,2005,6,0,0,0,0,0,0,0,0,0,0,0,0,6,0,0,0,0,0,0,0,0,0,0
CO,Colombia,country,Latin America and the Caribbean,4.570868,-74.297333,LU,Luxembourg,country,Europe and Central Asia,49.815273,6.129583,8943.0904745837,2005,9,0,0,0,0,0,0,0,0,0,0,0,0,9,0,0,0,0,0,0,0,0,0,0
CI,Ivory Coast,country,Sub-Saharan Africa,7.539989,-5.54708,LU,Luxembourg,country,Europe and Central Asia,49.815273,6.129583,4830.25571832994,2005,5134,0,0,0,0,0,0,0,0,0,0,0,0,5134,0,0,0,0,0,0,0,0,0,0
CZ,Czech Republic,country,Europe and Central Asia,49.817492,15.472962,LU,Luxembourg,country,Europe and Central Asia,49.815273,6.129583,670.679115869592,2005,17,13,0,4,0,0,0,0,0,0,0,0,0,0,0,0,0,0,0,0,0,0,0,0
DK,Denmark,country,Europe and Central Asia,56.26392,9.501785,LU,Luxembourg,country,Europe and Central Asia,49.815273,6.129583,752.276128265553,2005,217,33,0,3,0,3,0,3,2,0,0,0,54,55,0,9,0,29,26,0,0,0,0,0
EC,Ecuador,country,Latin America and the Caribbean,-1.831239,-78.183406,LU,Luxembourg,country,Europe and Central Asia,49.815273,6.129583,9766.78336283187,2005,11,0,0,0,0,0,0,0,0,0,0,0,0,11,0,0,0,0,0,0,0,0,0,0
EG,Egypt,country,Middle East and North Africa,26.820553,30.802498,LU,Luxembourg,country,Europe and Central Asia,49.815273,6.129583,3314.696345984,2005,1,0,0,0,0,0,0,0,0,0,0,0,0,1,0,0,0,0,0,0,0,0,0,0
EE,Estonia,country,Europe and Central Asia,58.595272,25.013607,LU,Luxembourg,country,Europe and Central Asia,49.815273,6.129583,1561.40485192757,2005,2,0,0,0,0,0,0,0,0,0,0,0,0,0,0,2,0,0,0,0,0,0,0,0
FI,Finland,country,Europe and Central Asia,61.92411,25.748151,LU,Luxembourg,country,Europe and Central Asia,49.815273,6.129583,1807.30315723987,2005,3,2,0,0,0,0,0,0,0,0,0,0,0,0,0,1,0,0,0,0,0,0,0,0
FR,France,country,Europe and Central Asia,46.227638,2.213749,LU,Luxembourg,country,Europe and Central Asia,49.815273,6.129583,494.324476495474,2005,140001,34189,2678,508,211,185,597,9783,6587,0,102,7362,1472,3495,468,36631,4,5767,29966,0,0,0,0,0
DE,Germany,country,Europe and Central Asia,51.165691,10.451526,LU,Luxembourg,country,Europe and Central Asia,49.815273,6.129583,340.938789770655,2005,92828,21416,638,962,14,1063,1803,2303,4748,3,79,16607,7822,7062,1498,15418,2,2701,8691,0,0,0,0,0
GH,Ghana,country,Sub-Saharan Africa,7.946527,-1.023194,LU,Luxembourg,country,Europe and Central Asia,49.815273,6.129583,4708.13900793224,2005,2092,0,0,0,0,0,0,1,2091,0,0,0,0,0,0,0,0,0,0,0,0,0,0,0
GR,Greece,country,Europe and Central Asia,39.074208,21.824312,LU,Luxembourg,country,Europe and Central Asia,49.815273,6.129583,1721.32654055404,2005,102,0,0,0,0,85,0,0,1,0,0,0,0,4,1,0,0,0,11,0,0,0,0,0
HU,Hungary,country,Europe and Central Asia,47.162494,19.503304,LU,Luxembourg,country,Europe and Central Asia,49.815273,6.129583,1028.32524646512,2005,27,0,0,0,0,5,0,0,0,0,0,0,0,21,0,1,0,0,0,0,0,0,0,0
IS,Iceland,country,Europe and Central Asia,64.963051,-19.020835,LU,Luxembourg,country,Europe and Central Asia,49.815273,6.129583,2232.46528514078,2005,0,0,0,0,0,0,0,0,0,0,0,0,0,0,0,0,0,0,0,0,0,0,0,0
IN,India,country,South Asia,20.593684,78.96288,LU,Luxembourg,country,Europe and Central Asia,49.815273,6.129583,7063.10107305307,2005,1,0,0,0,0,0,0,0,0,0,0,0,0,1,0,0,0,0,0,0,0,0,0,0
ID,Indonesia,country,East Asia and Pacific,-0.789275,113.921327,LU,Luxembourg,country,Europe and Central Asia,49.815273,6.129583,11352.9962916656,2005,34478,0,0,0,0,0,0,0,0,0,0,0,0,34478,0,0,0,0,0,0,0,0,0,0
IR,Iran,country,Middle East and North Africa,32.427908,53.688046,LU,Luxembourg,country,Europe and Central Asia,49.815273,6.129583,4340.80525197097,2005,1954,0,0,0,0,1954,0,0,0,0,0,0,0,0,0,0,0,0,0,0,0,0,0,0
IE,Ireland,country,Europe and Central Asia,53.41291,-8.24389,LU,Luxembourg,country,Europe and Central Asia,49.815273,6.129583,1068.87311816525,2005,927,96,0,26,0,0,0,0,0,0,0,0,0,780,0,0,0,25,0,0,0,0,0,0
IL,Israel,country,Middle East and North Africa,31.046051,34.851612,LU,Luxembourg,country,Europe and Central Asia,49.815273,6.129583,3172.78536497163,2005,1,0,0,0,0,0,0,0,0,0,1,0,0,0,0,0,0,0,0,0,0,0,0,0
IT,Italy,country,Europe and Central Asia,41.87194,12.56738,LU,Luxembourg,country,Europe and Central Asia,49.815273,6.129583,1014.55513004579,2005,10267,2278,1,69,0,199,17,1398,330,0,0,12,824,754,252,2991,0,625,517,0,0,0,0,0
JP,Japan,country,East Asia and Pacific,36.204824,138.252924,LU,Luxembourg,country,Europe and Central Asia,49.815273,6.129583,9366.84221317977,2005,0,0,0,0,0,0,0,0,0,0,0,0,0,0,0,0,0,0,0,0,0,0,0,0
KE,Kenya,country,Sub-Saharan Africa,-0.023559,37.906193,LU,Luxembourg,country,Europe and Central Asia,49.815273,6.129583,6317.92967816752,2005,1033,0,0,0,0,24,0,874,135,0,0,0,0,0,0,0,0,0,0,0,0,0,0,0
LB,Lebanon,country,Middle East and North Africa,33.854721,35.862285,LU,Luxembourg,country,Europe and Central Asia,49.815273,6.129583,3007.0461716613,2005,1,0,0,0,0,0,0,0,0,0,0,0,0,0,0,1,0,0,0,0,0,0,0,0
MY,Malaysia,country,East Asia and Pacific,4.210484,101.975766,LU,Luxembourg,country,Europe and Central Asia,49.815273,6.129583,10079.0664946099,2005,4941,0,0,0,0,0,0,0,0,0,0,0,0,4941,0,0,0,0,0,0,0,0,0,0
MX,Mexico,country,Latin America and the Caribbean,23.634501,-102.552784,LU,Luxembourg,country,Europe and Central Asia,49.815273,6.129583,9271.29106660609,2005,2,0,0,0,0,0,0,2,0,0,0,0,0,0,0,0,0,0,0,0,0,0,0,0
MA,Morocco,country,Middle East and North Africa,31.791702,-7.09262,LU,Luxembourg,country,Europe and Central Asia,49.815273,6.129583,2287.17988322945,2005,207,0,0,0,0,0,0,0,0,0,0,0,0,0,0,207,0,0,0,0,0,0,0,0
NL,Netherlands,country,Europe and Central Asia,52.132633,5.291266,LU,Luxembourg,country,Europe and Central Asia,49.815273,6.129583,264.570285267402,2005,39798,1620,889,173,1,235,138,4666,2297,0,13,19744,2113,3741,98,1647,21,1691,732,0,0,0,0,0
NZ,New Zealand,country,East Asia and Pacific,-40.900557,174.885971,LU,Luxembourg,country,Europe and Central Asia,49.815273,6.129583,18714.3674951129,2005,0,0,0,0,0,0,0,0,0,0,0,0,0,0,0,0,0,0,0,0,0,0,0,0
NO,Norway,country,Europe and Central Asia,60.472024,8.468946,LU,Luxembourg,country,Europe and Central Asia,49.815273,6.129583,1195.41073083658,2005,15,0,0,0,0,0,0,0,0,0,0,0,0,0,0,0,0,0,15,0,0,0,0,0
PA,Panama,country,Latin America and the Caribbean,8.537981,-80.782127,LU,Luxembourg,country,Europe and Central Asia,49.815273,6.129583,9072.59824423119,2005,0,0,0,0,0,0,0,0,0,0,0,0,0,0,0,0,0,0,0,0,0,0,0,0
PY,Paraguay,country,Latin America and the Caribbean,-23.442503,-58.443832,LU,Luxembourg,country,Europe and Central Asia,49.815273,6.129583,10336.2162371616,2005,0,0,0,0,0,0,0,0,0,0,0,0,0,0,0,0,0,0,0,0,0,0,0,0
PH,Philippines,country,East Asia and Pacific,12.879721,121.774017,LU,Luxembourg,country,Europe and Central Asia,49.815273,6.129583,10670.0591511423,2005,0,0,0,0,0,0,0,0,0,0,0,0,0,0,0,0,0,0,0,0,0,0,0,0
PL,Poland,country,Europe and Central Asia,51.919438,19.145136,LU,Luxembourg,country,Europe and Central Asia,49.815273,6.129583,942.517532342503,2005,187,6,151,9,0,0,0,0,0,0,0,0,18,0,0,0,0,3,0,0,0,0,0,0
PT,Portugal,country,Europe and Central Asia,39.399872,-8.224454,LU,Luxembourg,country,Europe and Central Asia,49.815273,6.129583,1618.96996128454,2005,10916,484,73,100,29,9,94,505,370,8,4,6,134,180,293,7963,0,436,228,0,0,0,0,0
MD,Moldova,country,Europe and Central Asia,47.411631,28.369885,LU,Luxembourg,country,Europe and Central Asia,49.815273,6.129583,1652.23512788637,2005,1,0,0,0,0,0,0,0,0,0,0,0,0,0,0,1,0,0,0,0,0,0,0,0
RO,Romania,country,Europe and Central Asia,45.943161,24.96676,LU,Luxembourg,country,Europe and Central Asia,49.815273,6.129583,1466.44149690005,2005,26,0,0,11,0,0,0,0,0,0,0,0,0,0,0,15,0,0,0,0,0,0,0,0
SG,Singapore,country,East Asia and Pacific,1.352083,103.819836,LU,Luxembourg,country,Europe and Central Asia,49.815273,6.129583,10454.6924271224,2005,2,0,0,0,0,0,0,0,0,0,0,0,0,2,0,0,0,0,0,0,0,0,0,0
ZA,S. Africa,country,Sub-Saharan Africa,-30.559482,22.937506,LU,Luxembourg,country,Europe and Central Asia,49.815273,6.129583,9100.53728565787,2005,140,0,0,0,0,136,0,0,0,0,0,0,0,0,0,4,0,0,0,0,0,0,0,0
ES,Spain,country,Europe and Central Asia,40.463667,-3.74922,LU,Luxembourg,country,Europe and Central Asia,49.815273,6.129583,1295.87958402427,2005,4168,1457,0,2,0,18,2,217,1024,0,2,0,3,66,5,1308,0,59,5,0,0,0,0,0
LK,Sri Lanka,country,South Asia,7.873054,80.771797,LU,Luxembourg,country,Europe and Central Asia,49.815273,6.129583,8248.97272285409,2005,0,0,0,0,0,0,0,0,0,0,0,0,0,0,0,0,0,0,0,0,0,0,0,0
SE,Sweden,country,Europe and Central Asia,60.128161,18.643501,LU,Luxembourg,country,Europe and Central Asia,49.815273,6.129583,1394.0262531727,2005,67,33,0,1,0,0,0,1,5,0,0,0,17,2,0,1,0,2,5,0,0,0,0,0
CH,Switzerland,country,Europe and Central Asia,46.818188,8.227512,LU,Luxembourg,country,Europe and Central Asia,49.815273,6.129583,367.973027880722,2005,1349,65,0,7,0,0,0,29,0,0,0,0,41,110,0,800,0,0,297,0,0,0,0,0
TH,Thailand,country,East Asia and Pacific,15.870032,100.992541,LU,Luxembourg,country,Europe and Central Asia,49.815273,6.129583,9017.76829500549,2005,6,0,0,0,0,0,0,6,0,0,0,0,0,0,0,0,0,0,0,0,0,0,0,0
TN,Tunisia,country,Middle East and North Africa,33.886917,9.537499,LU,Luxembourg,country,Europe and Central Asia,49.815273,6.129583,1795.01956667528,2005,23,0,23,0,0,0,0,0,0,0,0,0,0,0,0,0,0,0,0,0,0,0,0,0
UA,Ukraine,country,Europe and Central Asia,48.379433,31.16558,LU,Luxembourg,country,Europe and Central Asia,49.815273,6.129583,1823.28665143496,2005,1,0,0,0,0,0,0,0,0,0,0,0,0,0,0,1,0,0,0,0,0,0,0,0
AE,United Arab Emirates,country,Middle East and North Africa,23.424076,53.847818,LU,Luxembourg,country,Europe and Central Asia,49.815273,6.129583,5054.92783035055,2005,0,0,0,0,0,0,0,0,0,0,0,0,0,0,0,0,0,0,0,0,0,0,0,0
GB,United Kingdom,country,Europe and Central Asia,55.378051,-3.435973,LU,Luxembourg,country,Europe and Central Asia,49.815273,6.129583,893.974896587879,2005,1990,8,5,0,0,362,0,11,18,0,0,0,0,1003,295,265,0,21,2,0,0,0,0,0
US,USA,country,North America,37.09024,-95.712891,LU,Luxembourg,country,Europe and Central Asia,49.815273,6.129583,7703.36932873328,2005,10644,0,0,0,0,10607,0,8,0,0,0,15,0,5,0,9,0,0,0,0,0,0,0,0
AG,Antigua & Barbuda,country,Latin America and the Caribbean,17.060816,-61.796428,LU,Luxembourg,country,Europe and Central Asia,49.815273,6.129583,6999.05168107612,2006,0,0,0,0,0,0,0,0,0,0,0,0,0,0,0,0,0,0,0,0,0,0,0,0
AR,Argentina,country,Latin America and the Caribbean,-38.416097,-63.616672,LU,Luxembourg,country,Europe and Central Asia,49.815273,6.129583,11960.0415450277,2006,113,0,0,0,0,0,0,0,0,0,0,0,0,0,0,28,0,85,0,0,0,0,0,0
AU,Australia,country,East Asia and Pacific,-25.274398,133.775136,LU,Luxembourg,country,Europe and Central Asia,49.815273,6.129583,14810.3724514144,2006,78,0,0,0,0,77,0,0,0,0,0,0,0,0,0,1,0,0,0,0,0,0,0,0
AT,Austria,country,Europe and Central Asia,47.516231,14.550072,LU,Luxembourg,country,Europe and Central Asia,49.815273,6.129583,669.41995381979,2006,1569,26,0,5,0,0,3,3,1105,0,0,1,32,172,4,134,0,81,3,0,0,0,0,0
BE,Belgium,country,Europe and Central Asia,50.503887,4.469936,LU,Luxembourg,country,Europe and Central Asia,49.815273,6.129583,141.010751522359,2006,326074,19214,6672,4921,120,4590,1749,20698,25439,3,203,30927,4868,15878,5108,150593,117,15123,19966,0,2,0,0,0
BR,Brazil,country,Latin America and the Caribbean,-14.235004,-51.92528,LU,Luxembourg,country,Europe and Central Asia,49.815273,6.129583,9103.11688193022,2006,2,0,0,0,0,0,0,0,0,0,0,0,0,0,0,2,0,0,0,0,0,0,0,0
BF,Burkina Faso,country,Sub-Saharan Africa,12.238333,-1.561593,LU,Luxembourg,country,Europe and Central Asia,49.815273,6.129583,4242.02482004955,2006,9,0,0,0,0,0,0,0,9,0,0,0,0,0,0,0,0,0,0,0,0,0,0,0
CA,Canada,country,North America,56.130366,-106.346771,LU,Luxembourg,country,Europe and Central Asia,49.815273,6.129583,6702.33363009104,2006,2466,0,0,0,0,0,0,0,0,0,0,0,0,0,0,0,0,2466,0,0,0,0,0,0
CL,Chile,country,Latin America and the Caribbean,-35.675147,-71.542969,LU,Luxembourg,country,Europe and Central Asia,49.815273,6.129583,12188.285018942,2006,31,0,0,0,0,0,0,0,0,0,0,0,0,0,0,31,0,0,0,0,0,0,0,0
HK,Hong Kong,country,East Asia and Pacific,22.396428,114.109497,LU,Luxembourg,country,Europe and Central Asia,49.815273,6.129583,9335.45682195649,2006,0,0,0,0,0,0,0,0,0,0,0,0,0,0,0,0,0,0,0,0,0,0,0,0
CN,China,country,East Asia and Pacific,35.86166,104.195397,LU,Luxembourg,country,Europe and Central Asia,49.815273,6.129583,7572.64473244044,2006,202,2,0,0,0,0,38,4,0,0,0,0,0,4,0,154,0,0,0,0,0,0,0,0
TW,Taiwan,country,East Asia and Pacific,23.69781,120.960515,LU,Luxembourg,country,Europe and Central Asia,49.815273,6.129583,9642.68630068626,2006,6,0,0,0,0,0,0,0,0,0,0,0,0,6,0,0,0,0,0,0,0,0,0,0
CO,Colombia,country,Latin America and the Caribbean,4.570868,-74.297333,LU,Luxembourg,country,Europe and Central Asia,49.815273,6.129583,8943.0904745837,2006,7,0,0,0,0,0,0,0,0,0,0,0,0,7,0,0,0,0,0,0,0,0,0,0
CI,Ivory Coast,country,Sub-Saharan Africa,7.539989,-5.54708,LU,Luxembourg,country,Europe and Central Asia,49.815273,6.129583,4830.25571832994,2006,6669,0,0,0,0,0,0,0,0,0,0,0,0,6669,0,0,0,0,0,0,0,0,0,0
HR,Croatia,country,Europe and Central Asia,45.1,15.2,LU,Luxembourg,country,Europe and Central Asia,49.815273,6.129583,860.160793010921,2006,16,0,0,0,0,0,0,0,0,0,0,0,0,16,0,0,0,0,0,0,0,0,0,0
CY,Cyprus,country,Europe and Central Asia,35.126413,33.429859,LU,Luxembourg,country,Europe and Central Asia,49.815273,6.129583,2749.19124519582,2006,0,0,0,0,0,0,0,0,0,0,0,0,0,0,0,0,0,0,0,0,0,0,0,0
CZ,Czech Republic,country,Europe and Central Asia,49.817492,15.472962,LU,Luxembourg,country,Europe and Central Asia,49.815273,6.129583,670.679115869592,2006,19,12,0,1,0,0,0,0,0,0,0,0,6,0,0,0,0,0,0,0,0,0,0,0
DK,Denmark,country,Europe and Central Asia,56.26392,9.501785,LU,Luxembourg,country,Europe and Central Asia,49.815273,6.129583,752.276128265553,2006,258,41,0,8,0,0,0,3,1,0,0,0,32,56,0,35,0,20,62,0,0,0,0,0
DO,Dominican Republic,country,Latin America and the Caribbean,18.735693,-70.162651,LU,Luxembourg,country,Europe and Central Asia,49.815273,6.129583,7462.13990673475,2006,0,0,0,0,0,0,0,0,0,0,0,0,0,0,0,0,0,0,0,0,0,0,0,0
EC,Ecuador,country,Latin America and the Caribbean,-1.831239,-78.183406,LU,Luxembourg,country,Europe and Central Asia,49.815273,6.129583,9766.78336283187,2006,59,0,0,0,0,0,0,0,0,0,0,0,0,59,0,0,0,0,0,0,0,0,0,0
EG,Egypt,country,Middle East and North Africa,26.820553,30.802498,LU,Luxembourg,country,Europe and Central Asia,49.815273,6.129583,3314.696345984,2006,347,0,0,0,0,0,345,0,0,0,0,0,0,2,0,0,0,0,0,0,0,0,0,0
EE,Estonia,country,Europe and Central Asia,58.595272,25.013607,LU,Luxembourg,country,Europe and Central Asia,49.815273,6.129583,1561.40485192757,2006,0,0,0,0,0,0,0,0,0,0,0,0,0,0,0,0,0,0,0,0,0,0,0,0
FI,Finland,country,Europe and Central Asia,61.92411,25.748151,LU,Luxembourg,country,Europe and Central Asia,49.815273,6.129583,1807.30315723987,2006,7,5,0,0,0,0,0,0,0,0,0,0,0,0,0,2,0,0,0,0,0,0,0,0
FR,France,country,Europe and Central Asia,46.227638,2.213749,LU,Luxembourg,country,Europe and Central Asia,49.815273,6.129583,494.324476495474,2006,124608,26066,2722,464,214,284,1031,10347,7832,0,103,8160,1184,2484,628,32072,10,5890,25127,0,0,0,0,0
DE,Germany,country,Europe and Central Asia,51.165691,10.451526,LU,Luxembourg,country,Europe and Central Asia,49.815273,6.129583,340.938789770655,2006,111016,23362,745,1065,14,836,1781,2199,5314,1,92,34500,6058,7195,1606,14846,26,2718,8681,3,0,0,0,0
GH,Ghana,country,Sub-Saharan Africa,7.946527,-1.023194,LU,Luxembourg,country,Europe and Central Asia,49.815273,6.129583,4708.13900793224,2006,2114,0,1,0,0,0,0,0,2113,0,0,0,0,0,0,0,0,0,0,0,0,0,0,0
GR,Greece,country,Europe and Central Asia,39.074208,21.824312,LU,Luxembourg,country,Europe and Central Asia,49.815273,6.129583,1721.32654055404,2006,118,0,0,0,0,79,0,0,0,0,0,0,0,7,1,18,0,0,13,0,0,0,0,0
HU,Hungary,country,Europe and Central Asia,47.162494,19.503304,LU,Luxembourg,country,Europe and Central Asia,49.815273,6.129583,1028.32524646512,2006,38,0,0,0,0,0,0,0,0,0,1,0,0,36,0,1,0,0,0,0,0,0,0,0
IS,Iceland,country,Europe and Central Asia,64.963051,-19.020835,LU,Luxembourg,country,Europe and Central Asia,49.815273,6.129583,2232.46528514078,2006,0,0,0,0,0,0,0,0,0,0,0,0,0,0,0,0,0,0,0,0,0,0,0,0
IN,India,country,South Asia,20.593684,78.96288,LU,Luxembourg,country,Europe and Central Asia,49.815273,6.129583,7063.10107305307,2006,6,0,0,0,0,0,0,0,0,0,0,0,0,5,0,1,0,0,0,0,0,0,0,0
ID,Indonesia,country,East Asia and Pacific,-0.789275,113.921327,LU,Luxembourg,country,Europe and Central Asia,49.815273,6.129583,11352.9962916656,2006,45988,0,0,0,0,0,0,0,0,0,0,0,0,45988,0,0,0,0,0,0,0,0,0,0
IR,Iran,country,Middle East and North Africa,32.427908,53.688046,LU,Luxembourg,country,Europe and Central Asia,49.815273,6.129583,4340.80525197097,2006,1133,0,0,0,0,1133,0,0,0,0,0,0,0,0,0,0,0,0,0,0,0,0,0,0
IE,Ireland,country,Europe and Central Asia,53.41291,-8.24389,LU,Luxembourg,country,Europe and Central Asia,49.815273,6.129583,1068.87311816525,2006,1009,20,0,22,0,0,0,0,0,0,0,0,0,949,0,1,0,17,0,0,0,0,0,0
IL,Israel,country,Middle East and North Africa,31.046051,34.851612,LU,Luxembourg,country,Europe and Central Asia,49.815273,6.129583,3172.78536497163,2006,0,0,0,0,0,0,0,0,0,0,0,0,0,0,0,0,0,0,0,0,0,0,0,0
IT,Italy,country,Europe and Central Asia,41.87194,12.56738,LU,Luxembourg,country,Europe and Central Asia,49.815273,6.129583,1014.55513004579,2006,11316,2519,2,68,0,29,9,1474,420,0,1,10,852,754,407,3520,0,746,505,0,0,0,0,0
JP,Japan,country,East Asia and Pacific,36.204824,138.252924,LU,Luxembourg,country,Europe and Central Asia,49.815273,6.129583,9366.84221317977,2006,0,0,0,0,0,0,0,0,0,0,0,0,0,0,0,0,0,0,0,0,0,0,0,0
KE,Kenya,country,Sub-Saharan Africa,-0.023559,37.906193,LU,Luxembourg,country,Europe and Central Asia,49.815273,6.129583,6317.92967816752,2006,1182,0,0,0,0,0,0,1018,164,0,0,0,0,0,0,0,0,0,0,0,0,0,0,0
LB,Lebanon,country,Middle East and North Africa,33.854721,35.862285,LU,Luxembourg,country,Europe and Central Asia,49.815273,6.129583,3007.0461716613,2006,1,0,0,0,0,0,0,0,0,0,0,0,0,0,0,1,0,0,0,0,0,0,0,0
MY,Malaysia,country,East Asia and Pacific,4.210484,101.975766,LU,Luxembourg,country,Europe and Central Asia,49.815273,6.129583,10079.0664946099,2006,6560,0,0,0,0,0,0,0,0,0,0,0,0,6560,0,0,0,0,0,0,0,0,0,0
MA,Morocco,country,Middle East and North Africa,31.791702,-7.09262,LU,Luxembourg,country,Europe and Central Asia,49.815273,6.129583,2287.17988322945,2006,20,0,0,0,0,0,0,0,0,0,0,0,0,0,0,20,0,0,0,0,0,0,0,0
NL,Netherlands,country,Europe and Central Asia,52.132633,5.291266,LU,Luxembourg,country,Europe and Central Asia,49.815273,6.129583,264.570285267402,2006,49857,4488,1135,140,3,161,447,5623,1909,0,31,26611,1206,4089,80,1427,56,1704,803,0,0,0,0,0
NC,New Caledonia,country,East Asia and Pacific,-20.904305,165.618042,LU,Luxembourg,country,Europe and Central Asia,49.815273,6.129583,16346.2732415788,2006,0,0,0,0,0,0,0,0,0,0,0,0,0,0,0,0,0,0,0,0,0,0,0,0
NZ,New Zealand,country,East Asia and Pacific,-40.900557,174.885971,LU,Luxembourg,country,Europe and Central Asia,49.815273,6.129583,18714.3674951129,2006,0,0,0,0,0,0,0,0,0,0,0,0,0,0,0,0,0,0,0,0,0,0,0,0
NO,Norway,country,Europe and Central Asia,60.472024,8.468946,LU,Luxembourg,country,Europe and Central Asia,49.815273,6.129583,1195.41073083658,2006,16,0,0,0,0,4,0,0,0,0,0,0,0,0,0,0,0,0,12,0,0,0,0,0
PL,Poland,country,Europe and Central Asia,51.919438,19.145136,LU,Luxembourg,country,Europe and Central Asia,49.815273,6.129583,942.517532342503,2006,229,13,50,20,0,0,0,0,0,0,0,0,60,22,0,0,0,0,64,0,0,0,0,0
PT,Portugal,country,Europe and Central Asia,39.399872,-8.224454,LU,Luxembourg,country,Europe and Central Asia,49.815273,6.129583,1618.96996128454,2006,11172,432,148,90,17,21,144,476,354,11,4,5,126,94,318,8339,0,413,180,0,0,0,0,0
RO,Romania,country,Europe and Central Asia,45.943161,24.96676,LU,Luxembourg,country,Europe and Central Asia,49.815273,6.129583,1466.44149690005,2006,23,0,0,7,0,0,0,0,0,0,0,0,0,0,0,16,0,0,0,0,0,0,0,0
SG,Singapore,country,East Asia and Pacific,1.352083,103.819836,LU,Luxembourg,country,Europe and Central Asia,49.815273,6.129583,10454.6924271224,2006,3,0,0,0,0,0,0,0,0,0,0,0,0,3,0,0,0,0,0,0,0,0,0,0
SK,Slovak Rep.,country,Europe and Central Asia,48.669026,19.699024,LU,Luxembourg,country,Europe and Central Asia,49.815273,6.129583,993.003033210224,2006,0,0,0,0,0,0,0,0,0,0,0,0,0,0,0,0,0,0,0,0,0,0,0,0
ZA,S. Africa,country,Sub-Saharan Africa,-30.559482,22.937506,LU,Luxembourg,country,Europe and Central Asia,49.815273,6.129583,9100.53728565787,2006,5,0,0,0,0,0,0,0,0,0,0,0,0,0,0,5,0,0,0,0,0,0,0,0
ES,Spain,country,Europe and Central Asia,40.463667,-3.74922,LU,Luxembourg,country,Europe and Central Asia,49.815273,6.129583,1295.87958402427,2006,4602,1458,0,5,0,5,4,503,1148,0,2,0,3,50,7,1265,0,147,5,0,0,0,0,0
LK,Sri Lanka,country,South Asia,7.873054,80.771797,LU,Luxembourg,country,Europe and Central Asia,49.815273,6.129583,8248.97272285409,2006,0,0,0,0,0,0,0,0,0,0,0,0,0,0,0,0,0,0,0,0,0,0,0,0
SE,Sweden,country,Europe and Central Asia,60.128161,18.643501,LU,Luxembourg,country,Europe and Central Asia,49.815273,6.129583,1394.0262531727,2006,121,3,0,1,0,0,0,1,2,0,0,0,87,2,0,7,0,2,16,0,0,0,0,0
CH,Switzerland,country,Europe and Central Asia,46.818188,8.227512,LU,Luxembourg,country,Europe and Central Asia,49.815273,6.129583,367.973027880722,2006,1365,71,23,5,0,0,0,15,1,0,0,0,22,115,0,748,0,0,365,0,0,0,0,0
TH,Thailand,country,East Asia and Pacific,15.870032,100.992541,LU,Luxembourg,country,Europe and Central Asia,49.815273,6.129583,9017.76829500549,2006,6,0,0,0,0,0,0,6,0,0,0,0,0,0,0,0,0,0,0,0,0,0,0,0
TN,Tunisia,country,Middle East and North Africa,33.886917,9.537499,LU,Luxembourg,country,Europe and Central Asia,49.815273,6.129583,1795.01956667528,2006,0,0,0,0,0,0,0,0,0,0,0,0,0,0,0,0,0,0,0,0,0,0,0,0
TR,Turkey,country,Europe and Central Asia,38.963745,35.243322,LU,Luxembourg,country,Europe and Central Asia,49.815273,6.129583,2589.17278784847,2006,135,0,0,0,0,0,0,135,0,0,0,0,0,0,0,0,0,0,0,0,0,0,0,0
