sourceCode,sourceName,sourceGrouping,sourceRegion,sourceLat,sourceLong,destCode,destName,destGrouping,destRegion,destLat,destLong,distance,year,totalTons,cereals,roots,sugarCrops,pulses,nuts,oilCrops,vegetables,fruits,fibers,spices,fodderCrops,coffeeTea,tobaccoRubber,oilsFats,beverages,livestock,animalMeats,animalProducts,animalHides,nimalOther,pesticides,fertilizers,machinery
AF,Afghanistan,country,South Asia,33.93911,67.709953,US,USA,country,North America,37.09024,-95.712891,11945.9354467417,1986,580,3,0,0,8,526,0,0,16,0,6,0,0,21,0,0,0,0,0,0,0,0,0,0
AL,Albania,country,Europe and Central Asia,41.153332,20.168331,US,USA,country,North America,37.09024,-95.712891,9157.04399623222,1986,1205,0,0,0,0,0,0,0,0,0,32,0,0,1173,0,0,0,0,0,0,0,0,0,0
DZ,Algeria,country,Middle East and North Africa,28.033886,1.659626,US,USA,country,North America,37.09024,-95.712891,8779.41026461201,1986,170,0,0,0,0,0,0,0,0,0,0,0,18,0,0,152,0,0,0,0,0,0,0,0
AO,Angola,country,Sub-Saharan Africa,-11.202692,17.873887,US,USA,country,North America,37.09024,-95.712891,12855.6818927448,1986,407,0,0,0,21,0,0,0,0,0,0,0,386,0,0,0,0,0,0,0,0,0,0,0
AG,Antigua & Barbuda,country,Latin America and the Caribbean,17.060816,-61.796428,US,USA,country,North America,37.09024,-95.712891,3999.38025584943,1986,2285,0,0,516,0,0,0,353,1327,0,0,7,11,0,0,32,0,0,39,0,0,0,0,0
AR,Argentina,country,Latin America and the Caribbean,-38.416097,-63.616672,US,USA,country,North America,37.09024,-95.712891,9027.78308395216,1986,330875,51461,0,79225,412,0,12563,3484,55219,1203,74,15406,17249,13893,38158,1306,0,37416,3716,90,0,0,0,0
AW,Aruba,country,Latin America and the Caribbean,12.52111,-69.968338,US,USA,country,North America,37.09024,-95.712891,3749.04564461343,1986,22,0,0,0,0,0,0,0,0,0,0,0,0,0,0,4,0,18,0,0,0,0,0,0
AU,Australia,country,East Asia and Pacific,-25.274398,133.775136,US,USA,country,North America,37.09024,-95.712891,15201.4934480637,1986,642526,255,0,222112,2723,506,4337,265,16126,24066,50,8957,532,5011,2637,25909,0,323202,5461,377,0,0,0,0
AT,Austria,country,Europe and Central Asia,47.516231,14.550072,US,USA,country,North America,37.09024,-95.712891,8353.28397261787,1986,17882,1000,0,3445,0,15,15,197,3746,0,0,3,894,30,46,920,0,121,7450,0,0,0,0,0
BS,The Bahamas,country,Latin America and the Caribbean,25.03428,-77.39628,US,USA,country,North America,37.09024,-95.712891,2195.73438188177,1986,12539,0,0,0,0,0,0,2500,9580,0,0,0,0,14,0,445,0,0,0,0,0,0,0,0
BH,Bahrain,country,Middle East and North Africa,25.930414,50.637772,US,USA,country,North America,37.09024,-95.712891,12187.1930653907,1986,400,0,0,0,0,0,0,0,0,0,0,0,400,0,0,0,0,0,0,0,0,0,0,0
BD,Bangladesh,country,South Asia,23.684994,90.356331,US,USA,country,North America,37.09024,-95.712891,13242.1548837342,1986,11001,0,0,0,0,16,0,0,0,8692,0,0,68,43,0,0,0,2182,0,0,0,0,0,0
BB,Barbados,country,Latin America and the Caribbean,13.193887,-59.543198,US,USA,country,North America,37.09024,-95.712891,4467.07536935911,1986,3831,0,0,3209,0,0,0,0,0,1,0,0,0,57,2,562,0,0,0,0,0,0,0,0
BE,Belgium,country,Europe and Central Asia,50.503887,4.469936,US,USA,country,North America,37.09024,-95.712891,7562.35939315518,1986,55326,2842,0,11130,65,189,120,12021,3373,1637,80,132,7180,6146,181,3486,0,3844,2900,0,0,0,0,0
BZ,Belize,country,Latin America and the Caribbean,17.189877,-88.49765,US,USA,country,North America,37.09024,-95.712891,2325.7362559901,1986,75273,0,0,51208,16,0,0,180,23196,0,0,0,204,342,0,0,0,127,0,0,0,0,0,0
BJ,Benin,country,Sub-Saharan Africa,9.30769,2.315834,US,USA,country,North America,37.09024,-95.712891,10097.8900517005,1986,8,0,0,0,0,0,0,0,0,0,0,0,0,0,0,8,0,0,0,0,0,0,0,0
BM,Bermuda,country,North America,32.321384,-64.75737,US,USA,country,North America,37.09024,-95.712891,2869.02299967506,1986,21,0,0,0,0,0,0,0,0,0,0,0,0,0,0,21,0,0,0,0,0,0,0,0
BO,Bolivia,country,Latin America and the Caribbean,-16.290154,-63.588653,US,USA,country,North America,37.09024,-95.712891,6830.7841558998,1986,9101,0,0,7639,0,352,0,0,0,0,0,0,1016,94,0,0,0,0,0,0,0,0,0,0
BW,Botswana,country,Sub-Saharan Africa,-22.328474,24.684866,US,USA,country,North America,37.09024,-95.712891,14142.9070636178,1986,36,0,0,0,0,0,0,0,16,0,0,0,0,0,0,0,0,0,0,20,0,0,0,0
BR,Brazil,country,Latin America and the Caribbean,-14.235004,-51.92528,US,USA,country,North America,37.09024,-95.712891,7325.11541751429,1986,1705716,1907,20,497592,0,21647,11,2881,771377,7740,11251,1224,267156,62434,37118,987,0,22098,230,43,0,0,0,0
VG,British Virgin Islands,country,Latin America and the Caribbean,18.420695,-64.639968,US,USA,country,North America,37.09024,-95.712891,3672.19069093201,1986,16,0,0,0,0,0,0,0,0,0,0,0,0,0,0,16,0,0,0,0,0,0,0,0
BN,Brunei Darussalam,country,,4.535277,114.727669,US,USA,country,North America,37.09024,-95.712891,14430.8619318203,1986,0,0,0,0,0,0,0,0,0,0,0,0,0,0,0,0,0,0,0,0,0,0,0,0
BG,Bulgaria,country,Europe and Central Asia,42.733883,25.48583,US,USA,country,North America,37.09024,-95.712891,9343.10283213143,1986,8255,0,0,0,0,0,0,146,38,39,31,0,1,5449,0,1577,0,0,974,0,0,0,0,0
BI,Burundi,country,Sub-Saharan Africa,-3.373056,29.918886,US,USA,country,North America,37.09024,-95.712891,13353.8416271379,1986,3170,0,0,0,0,0,0,0,0,0,0,0,3170,0,0,0,0,0,0,0,0,0,0,0
CM,Cameroon,country,Sub-Saharan Africa,7.369722,12.354722,US,USA,country,North America,37.09024,-95.712891,11095.3423663214,1986,8364,0,0,0,0,0,2,56,0,0,0,0,7135,1171,0,0,0,0,0,0,0,0,0,0
CA,Canada,country,North America,56.130366,-106.346771,US,USA,country,North America,37.09024,-95.712891,2264.06901471138,1986,3306380,886637,189053,331876,12575,167,133867,151175,76195,1030,48,543100,41932,196144,62078,350323,7510,302216,11140,16824,0,0,0,0
KY,Cayman Islands,country,Latin America and the Caribbean,19.513469,-80.566956,US,USA,country,North America,37.09024,-95.712891,2448.82499139281,1986,47,0,0,0,0,0,0,0,0,0,0,0,41,0,0,0,0,0,6,0,0,0,0,0
CF,Central African Rep.,country,Sub-Saharan Africa,6.611111,20.939444,US,USA,country,North America,37.09024,-95.712891,11868.8110045116,1986,157,0,0,0,0,0,0,0,0,0,0,0,0,157,0,0,0,0,0,0,0,0,0,0
CL,Chile,country,Latin America and the Caribbean,-35.675147,-71.542969,US,USA,country,North America,37.09024,-95.712891,8476.33334046106,1986,302837,39,0,12209,563,128,94,10199,271091,274,69,0,216,5941,0,1967,0,0,47,0,0,0,0,0
HK,Hong Kong,country,East Asia and Pacific,22.396428,114.109497,US,USA,country,North America,37.09024,-95.712891,12713.7159928997,1986,59774,5169,13,1885,346,524,4872,25776,3594,450,418,35,1953,11017,416,3214,0,49,43,0,0,0,0,0
MO,"Macao SAR, China",country,East Asia and Pacific,22.198745,113.543873,US,USA,country,North America,37.09024,-95.712891,12758.7240786185,1986,7377,1,0,0,0,0,85,924,1086,0,18,0,185,20,4995,9,0,0,54,0,0,0,0,0
CN,China,country,East Asia and Pacific,35.86166,104.195397,US,USA,country,North America,37.09024,-95.712891,11660.3114893707,1986,135801,5100,28,16874,988,1640,3943,45308,4255,1905,5768,278,18851,17511,1014,11483,0,9,845,1,0,0,0,0
TW,Taiwan,country,East Asia and Pacific,23.69781,120.960515,US,USA,country,North America,37.09024,-95.712891,12254.8953461346,1986,137467,6690,7,20123,523,183,2354,72429,17163,213,328,699,2006,9013,1331,3561,0,449,391,4,0,0,0,0
CO,Colombia,country,Latin America and the Caribbean,4.570868,-74.297333,US,USA,country,North America,37.09024,-95.712891,4227.03974725237,1986,1475196,4259,4,235342,76,0,0,1341,555683,39,0,2,163004,514655,22,769,0,0,0,0,0,0,0,0
KM,Comoros,country,Sub-Saharan Africa,-11.875001,43.872219,US,USA,country,North America,37.09024,-95.712891,15131.152745492,1986,49,0,0,0,0,0,0,0,0,0,49,0,0,0,0,0,0,0,0,0,0,0,0,0
CG,"Congo, Rep.",country,Sub-Saharan Africa,-0.228021,15.827659,US,USA,country,North America,37.09024,-95.712891,11930.5653715462,1986,11482,0,0,11230,0,0,0,0,0,0,0,0,252,0,0,0,0,0,0,0,0,0,0,0
CK,Cook Islands,country,East Asia and Pacific,-21.236736,-159.777671,US,USA,country,North America,37.09024,-95.712891,9336.68731737874,1986,135,0,0,0,0,0,0,15,120,0,0,0,0,0,0,0,0,0,0,0,0,0,0,0
CR,Costa Rica,country,Latin America and the Caribbean,9.748917,-83.753428,US,USA,country,North America,37.09024,-95.712891,3272.68638611991,1986,783881,774,0,58821,0,195,150,12212,606752,0,191,0,27246,42857,0,17,0,34524,0,142,0,0,0,0
CI,Ivory Coast,country,Sub-Saharan Africa,7.539989,-5.54708,US,USA,country,North America,37.09024,-95.712891,9528.13940497655,1986,174239,10,0,11023,0,14,179,116,764,0,58,0,160091,1884,17,83,0,0,0,0,0,0,0,0
CY,Cyprus,country,Europe and Central Asia,35.126413,33.429859,US,USA,country,North America,37.09024,-95.712891,10432.6242658417,1986,393,111,0,0,4,0,0,8,3,0,0,0,27,98,0,34,0,0,108,0,0,0,0,0
CZ,Czech Republic,country,Europe and Central Asia,49.817492,15.472962,US,USA,country,North America,37.09024,-95.712891,8243.60931018466,1986,4802,0,0,4,0,0,0,113,0,0,0,0,259,1886,0,1462,0,955,123,0,0,0,0,0
CD,"Congo, Dem. Rep.",country,Sub-Saharan Africa,-4.038333,21.758664,US,USA,country,North America,37.09024,-95.712891,12709.9827210254,1986,8928,0,0,0,0,0,0,0,0,0,0,4307,4590,0,0,31,0,0,0,0,0,0,0,0
DK,Denmark,country,Europe and Central Asia,56.26392,9.501785,US,USA,country,North America,37.09024,-95.712891,7496.29773354088,1986,191931,28461,5,1564,0,7,1,36,2838,0,3,309,306,11764,737,5865,0,126687,13348,0,0,0,0,0
DJ,Djibouti,country,Middle East and North Africa,11.825138,42.590275,US,USA,country,North America,37.09024,-95.712891,13063.0736911695,1986,29,0,0,0,0,0,0,0,0,0,0,0,0,29,0,0,0,0,0,0,0,0,0,0
DM,Dominica,country,Latin America and the Caribbean,15.414999,-61.370976,US,USA,country,North America,37.09024,-95.712891,4154.60750234614,1986,2208,17,0,5,0,0,0,1007,550,0,0,0,460,62,0,107,0,0,0,0,0,0,0,0
DO,Dominican Republic,country,Latin America and the Caribbean,18.735693,-70.162651,US,USA,country,North America,37.09024,-95.712891,3219.93825308174,1986,716306,969,7685,511762,63,1921,11568,47799,23469,0,134,16173,67541,14413,0,391,0,12257,161,0,0,0,0,0
EC,Ecuador,country,Latin America and the Caribbean,-1.831239,-78.183406,US,USA,country,North America,37.09024,-95.712891,4695.98172079927,1986,920628,19,0,17271,0,0,10,2884,768912,4368,29,2,121072,4605,1446,0,0,0,10,0,0,0,0,0
EG,Egypt,country,Middle East and North Africa,26.820553,30.802498,US,USA,country,North America,37.09024,-95.712891,10988.7012592759,1986,4166,0,0,0,0,0,0,513,148,211,1978,0,69,1240,0,7,0,0,0,0,0,0,0,0
SV,El Salvador,country,Latin America and the Caribbean,13.794185,-88.89653,US,USA,country,North America,37.09024,-95.712891,2680.24109181114,1986,168250,52,0,84106,0,0,2893,10600,2231,0,0,0,66817,229,0,212,0,682,428,0,0,0,0,0
ET,Ethiopia,country,Sub-Saharan Africa,9.145,40.489673,US,USA,country,North America,37.09024,-95.712891,13158.2946396878,1986,15190,0,0,0,0,0,20,0,0,0,6,0,14571,56,0,49,0,0,10,478,0,0,0,0
FK,Falkland Islands,country,,-51.796253,-59.523613,US,USA,country,North America,37.09024,-95.712891,10502.3356306872,1986,0,0,0,0,0,0,0,0,0,0,0,0,0,0,0,0,0,0,0,0,0,0,0,0
FJ,Fiji,country,East Asia and Pacific,-16.578193,179.414413,US,USA,country,North America,37.09024,-95.712891,10681.6510289114,1986,16750,92,0,14491,0,0,86,27,74,0,1632,0,0,106,242,0,0,0,0,0,0,0,0,0
FI,Finland,country,Europe and Central Asia,61.92411,25.748151,US,USA,country,North America,37.09024,-95.712891,7832.06184142534,1986,142209,125140,4,442,0,0,0,44,245,0,62,416,1897,45,0,1185,0,1160,11569,0,0,0,0,0
FR,France,country,Europe and Central Asia,46.227638,2.213749,US,USA,country,North America,37.09024,-95.712891,7674.17131253648,1986,310377,4617,236,14458,7,167,2192,4918,18093,465,548,1858,7868,11750,854,231405,0,154,10361,426,0,0,0,0
PF,French Polynesia,country,East Asia and Pacific,-17.679742,-149.406843,US,USA,country,North America,37.09024,-95.712891,8295.8691929679,1986,83,0,0,0,0,0,0,0,61,0,1,0,0,0,0,21,0,0,0,0,0,0,0,0
GA,Gabon,country,Sub-Saharan Africa,-0.803689,11.609444,US,USA,country,North America,37.09024,-95.712891,11603.6829840653,1986,12568,0,19,12387,0,0,0,0,115,0,0,23,12,0,0,0,0,0,12,0,0,0,0,0
GH,Ghana,country,Sub-Saharan Africa,7.946527,-1.023194,US,USA,country,North America,37.09024,-95.712891,9898.95306641973,1986,31084,18,0,0,0,0,0,3,0,0,8,0,30953,6,96,0,0,0,0,0,0,0,0,0
GI,Gibraltar,country,Europe and Central Asia,36.137741,-5.345374,US,USA,country,North America,37.09024,-95.712891,7727.78742114297,1986,2049,0,0,0,0,0,0,409,474,0,0,0,1164,2,0,0,0,0,0,0,0,0,0,0
GR,Greece,country,Europe and Central Asia,39.074208,21.824312,US,USA,country,North America,37.09024,-95.712891,9419.41576295611,1986,58787,1226,0,126,10,1,5710,9817,18433,8,18,0,445,17514,906,2780,0,0,1788,5,0,0,0,0
GL,Greenland,country,Europe and Central Asia,71.706936,-42.604303,US,USA,country,North America,37.09024,-95.712891,4865.32129217747,1986,94,0,0,0,0,0,0,0,91,0,0,0,0,0,0,3,0,0,0,0,0,0,0,0
GD,Grenada,country,Latin America and the Caribbean,12.262776,-61.604171,US,USA,country,North America,37.09024,-95.712891,4378.43015582348,1986,260,4,0,0,0,0,0,1,0,0,145,0,110,0,0,0,0,0,0,0,0,0,0,0
GT,Guatemala,country,Latin America and the Caribbean,15.783471,-90.230759,US,USA,country,North America,37.09024,-95.712891,2432.74402422745,1986,728886,22,0,260283,0,290,3725,40274,288893,151,328,0,101078,29208,0,115,0,4519,0,0,0,0,0,0
GN,Guinea,country,Sub-Saharan Africa,9.945587,-9.696645,US,USA,country,North America,37.09024,-95.712891,9001.9640041232,1986,354,0,35,0,0,0,0,0,0,0,0,0,318,0,0,1,0,0,0,0,0,0,0,0
GY,Guyana,country,Latin America and the Caribbean,4.860416,-58.93018,US,USA,country,North America,37.09024,-95.712891,5182.31178215859,1986,29004,0,0,27906,0,0,0,19,1004,0,4,0,0,19,0,52,0,0,0,0,0,0,0,0
HT,Haiti,country,Latin America and the Caribbean,18.971187,-72.285215,US,USA,country,North America,37.09024,-95.712891,3044.47056674424,1986,57633,0,0,43959,0,0,0,310,7951,0,0,802,1852,2213,0,225,0,20,0,301,0,0,0,0
HN,Honduras,country,Latin America and the Caribbean,15.199999,-86.241905,US,USA,country,North America,37.09024,-95.712891,2610.4544004986,1986,694753,7,0,71566,21,14,1546,15797,564534,0,77,0,25396,5449,0,126,0,10220,0,0,0,0,0,0
HU,Hungary,country,Europe and Central Asia,47.162494,19.503304,US,USA,country,North America,37.09024,-95.712891,8661.74794658267,1986,26255,443,0,364,0,0,0,992,6701,0,554,17,302,182,0,698,0,15160,842,0,0,0,0,0
IS,Iceland,country,Europe and Central Asia,64.963051,-19.020835,US,USA,country,North America,37.09024,-95.712891,5719.9336237285,1986,1278,0,0,1,0,10,0,161,96,0,0,0,0,294,0,75,0,18,623,0,0,0,0,0
IN,India,country,South Asia,20.593684,78.96288,US,USA,country,North America,37.09024,-95.712891,13591.878332668,1986,143685,7349,0,12254,1086,22342,21,671,1115,3791,27975,34,26766,37425,1170,437,0,1243,0,6,0,0,0,0
ID,Indonesia,country,East Asia and Pacific,-0.789275,113.921327,US,USA,country,North America,37.09024,-95.712891,14978.5673165406,1986,616973,58,0,10289,0,586,65,720,5507,847,20694,0,98839,439224,40102,24,0,17,0,1,0,0,0,0
IR,Iran,country,Middle East and North Africa,32.427908,53.688046,US,USA,country,North America,37.09024,-95.712891,11670.9538579968,1986,9456,2,0,0,0,4972,0,85,1677,0,880,0,48,1185,54,197,0,0,0,356,0,0,0,0
IQ,Iraq,country,Middle East and North Africa,33.223191,43.679291,US,USA,country,North America,37.09024,-95.712891,11148.3327753548,1986,443,0,0,48,0,12,0,0,83,0,0,0,0,300,0,0,0,0,0,0,0,0,0,0
IE,Ireland,country,Europe and Central Asia,53.41291,-8.24389,US,USA,country,North America,37.09024,-95.712891,6640.55458013614,1986,44389,176,0,826,75,0,21,18,22,55,0,5484,4718,489,0,30356,0,1413,736,0,0,0,0,0
IL,Israel,country,Middle East and North Africa,31.046051,34.851612,US,USA,country,North America,37.09024,-95.712891,10872.2085041883,1986,97417,1646,0,1353,21,77,942,39279,24074,85,42,15,744,25122,81,1214,0,1233,1489,0,0,0,0,0
IT,Italy,country,Europe and Central Asia,41.87194,12.56738,US,USA,country,North America,37.09024,-95.712891,8628.71032590973,1986,412601,52578,0,19850,42,4064,381,57320,4834,162,58,7129,4139,12399,34596,202171,0,123,12631,124,0,0,0,0
JM,Jamaica,country,Latin America and the Caribbean,18.109581,-77.297508,US,USA,country,North America,37.09024,-95.712891,2775.49878559896,1986,42895,228,20,5953,0,0,50,9320,5851,0,434,9542,278,5520,4,5529,0,0,166,0,0,0,0,0
JP,Japan,country,East Asia and Pacific,36.204824,138.252924,US,USA,country,North America,37.09024,-95.712891,10161.8071431089,1986,114188,9614,57,984,24,50,5937,2810,18546,182,224,1767,1513,37799,2876,31742,0,60,3,0,0,0,0,0
JO,Jordan,country,Middle East and North Africa,30.585164,36.238414,US,USA,country,North America,37.09024,-95.712891,10993.351572571,1986,59,0,0,0,0,0,0,0,20,0,5,0,0,9,0,25,0,0,0,0,0,0,0,0
KE,Kenya,country,Sub-Saharan Africa,-0.023559,37.906193,US,USA,country,North America,37.09024,-95.712891,13737.2826494317,1986,33552,5,0,0,632,610,0,53,0,0,1,7,30673,1533,0,38,0,0,0,0,0,0,0,0
KI,Kiribati,country,East Asia and Pacific,-3.370417,-168.734039,US,USA,country,North America,37.09024,-95.712891,8753.45952575571,1986,7070,0,0,31,0,0,42,54,4044,0,1,0,2419,434,0,45,0,0,0,0,0,0,0,0
KW,Kuwait,country,Middle East and North Africa,29.31166,47.481766,US,USA,country,North America,37.09024,-95.712891,11707.4240759878,1986,37,0,0,0,0,0,0,0,0,0,0,0,0,0,0,37,0,0,0,0,0,0,0,0
LA,Lao PDR,country,East Asia and Pacific,19.85627,102.495496,US,USA,country,North America,37.09024,-95.712891,13416.3306808657,1986,27,0,0,0,0,0,0,11,0,0,15,0,0,1,0,0,0,0,0,0,0,0,0,0
LB,Lebanon,country,Middle East and North Africa,33.854721,35.862285,US,USA,country,North America,37.09024,-95.712891,10680.9254392285,1986,3670,22,0,189,191,5,26,102,46,0,46,0,10,2782,88,161,0,0,2,0,0,0,0,0
LS,Lesotho,country,Sub-Saharan Africa,-29.609988,28.233608,US,USA,country,North America,37.09024,-95.712891,14833.8744197471,1986,107,0,0,0,0,0,71,0,0,0,0,0,0,36,0,0,0,0,0,0,0,0,0,0
LR,Liberia,country,Sub-Saharan Africa,6.428055,-9.429499,US,USA,country,North America,37.09024,-95.712891,9258.59871915808,1986,62612,0,0,0,0,0,23,0,0,0,0,0,725,61862,2,0,0,0,0,0,0,0,0,0
MG,Madagascar,country,Sub-Saharan Africa,-18.766947,46.869107,US,USA,country,North America,37.09024,-95.712891,15868.5436718364,1986,16197,0,0,11282,0,0,0,0,0,0,1070,0,3567,278,0,0,0,0,0,0,0,0,0,0
MW,Malawi,country,Sub-Saharan Africa,-13.254308,34.301525,US,USA,country,North America,37.09024,-95.712891,14427.6584598012,1986,7144,7,0,4,167,33,14,42,0,0,0,0,1250,5627,0,0,0,0,0,0,0,0,0,0
MY,Malaysia,country,East Asia and Pacific,4.210484,101.975766,US,USA,country,North America,37.09024,-95.712891,15087.3757402785,1986,582401,28,266,0,0,18,15,457,6441,21,739,0,8855,173577,391361,623,0,0,0,0,0,0,0,0
ML,Mali,country,Sub-Saharan Africa,17.570692,-3.996166,US,USA,country,North America,37.09024,-95.712891,8998.53409002115,1986,5785,0,0,0,0,0,0,2,0,0,0,0,0,4709,0,1056,0,0,18,0,0,0,0,0
MT,Malta,country,Middle East and North Africa,35.937496,14.375416,US,USA,country,North America,37.09024,-95.712891,9173.63894024064,1986,105,0,0,0,0,0,0,0,0,0,0,0,0,96,0,9,0,0,0,0,0,0,0,0
MR,Mauritania,country,Sub-Saharan Africa,21.00789,-10.940835,US,USA,country,North America,37.09024,-95.712891,8181.73964042956,1986,18,0,0,0,0,0,0,0,18,0,0,0,0,0,0,0,0,0,0,0,0,0,0,0
MU,Mauritius,country,Sub-Saharan Africa,-20.348404,57.552152,US,USA,country,North America,37.09024,-95.712891,16849.4559877056,1986,40063,0,0,38731,0,20,11,10,118,0,0,0,230,821,4,43,0,31,44,0,0,0,0,0
MX,Mexico,country,Latin America and the Caribbean,23.634501,-102.552784,US,USA,country,North America,37.09024,-95.712891,1634.35580586104,1986,2352155,11419,0,219723,9578,12522,28202,1300777,325688,19082,2778,522,140414,65565,705,212570,0,1228,1107,275,0,0,0,0
MN,Mongolia,country,East Asia and Pacific,46.862496,103.846656,US,USA,country,North America,37.09024,-95.712891,10490.3678831785,1986,192,0,0,0,0,0,18,37,0,115,0,0,0,22,0,0,0,0,0,0,0,0,0,0
MS,Montserrat,country,Latin America and the Caribbean,16.7425,-62.1874,US,USA,country,North America,37.09024,-95.712891,3991.14252824769,1986,224,0,0,0,0,4,0,56,7,0,0,0,0,58,0,99,0,0,0,0,0,0,0,0
MA,Morocco,country,Middle East and North Africa,31.791702,-7.09262,US,USA,country,North America,37.09024,-95.712891,7846.4225823721,1986,5971,0,0,0,8,7,1032,998,38,0,1587,0,0,373,1838,90,0,0,0,0,0,0,0,0
MZ,Mozambique,country,Sub-Saharan Africa,-18.665695,35.529562,US,USA,country,North America,37.09024,-95.712891,14886.4237045166,1986,22102,0,0,20133,0,1316,3,314,17,21,3,0,295,0,0,0,0,0,0,0,0,0,0,0
MM,Myanmar,country,East Asia and Pacific,21.913965,95.956223,US,USA,country,North America,37.09024,-95.712891,13355.9809098561,1986,64,0,0,0,0,0,0,0,0,0,0,0,0,6,0,58,0,0,0,0,0,0,0,0
NA,Namibia,country,Sub-Saharan Africa,-22.95764,18.49041,US,USA,country,North America,37.09024,-95.712891,13629.5158472508,1986,3129,0,0,0,0,0,0,0,1028,0,0,209,1640,243,0,9,0,0,0,0,0,0,0,0
NR,Nauru,country,East Asia and Pacific,-0.522778,166.931503,US,USA,country,North America,37.09024,-95.712891,10706.5256536018,1986,7,7,0,0,0,0,0,0,0,0,0,0,0,0,0,0,0,0,0,0,0,0,0,0
NP,Nepal,country,South Asia,28.394857,84.124008,US,USA,country,North America,37.09024,-95.712891,12747.7207595067,1986,55,0,0,0,36,0,0,19,0,0,0,0,0,0,0,0,0,0,0,0,0,0,0,0
NL,Netherlands,country,Europe and Central Asia,52.132633,5.291266,US,USA,country,North America,37.09024,-95.712891,7514.49450150191,1986,908175,2539,726,26938,29,306,2113,10147,5504,68,2576,1149,38840,440668,7783,352949,0,3235,12530,75,0,0,0,0
NC,New Caledonia,country,East Asia and Pacific,-20.904305,165.618042,US,USA,country,North America,37.09024,-95.712891,12146.8611395984,1986,127,0,0,0,0,0,0,0,0,0,0,0,27,39,0,61,0,0,0,0,0,0,0,0
NZ,New Zealand,country,East Asia and Pacific,-40.900557,174.885971,US,USA,country,North America,37.09024,-95.712891,12564.0565528273,1986,310251,32850,0,356,183,33,80,1494,43452,13001,4,2155,49,2284,301,3159,0,181534,23435,5881,0,0,0,0
NI,Nicaragua,country,Latin America and the Caribbean,12.865416,-85.207229,US,USA,country,North America,37.09024,-95.712891,2892.67151899733,1986,50,0,0,0,0,0,0,0,0,0,0,0,3,35,0,12,0,0,0,0,0,0,0,0
NE,Niger,country,Sub-Saharan Africa,17.607789,8.081666,US,USA,country,North America,37.09024,-95.712891,10011.4917303107,1986,666,0,0,0,0,0,0,75,0,0,14,0,0,0,20,557,0,0,0,0,0,0,0,0
NG,Nigeria,country,Sub-Saharan Africa,9.081999,8.675277,US,USA,country,North America,37.09024,-95.712891,10661.0874959799,1986,2720,0,0,0,0,0,0,1,0,0,117,0,2200,154,28,23,0,0,0,197,0,0,0,0
NU,Niue,country,East Asia and Pacific,-19.054445,-169.867233,US,USA,country,North America,37.09024,-95.712891,9961.41893536537,1986,57,0,0,0,0,0,0,0,0,12,0,0,0,0,19,9,0,17,0,0,0,0,0,0
NO,Norway,country,Europe and Central Asia,60.472024,8.468946,US,USA,country,North America,37.09024,-95.712891,7194.85324423004,1986,10776,664,0,3,0,0,0,12,37,11,0,173,389,596,17,1395,0,0,7479,0,0,0,0,0
PK,Pakistan,country,South Asia,30.375321,69.345116,US,USA,country,North America,37.09024,-95.712891,12367.4065672626,1986,20117,185,0,30,0,0,6,144,529,169,2902,0,0,16083,4,0,0,15,0,50,0,0,0,0
PA,Panama,country,Latin America and the Caribbean,8.537981,-80.782127,US,USA,country,North America,37.09024,-95.712891,3517.43456042857,1986,377262,11,0,98105,0,0,0,6764,259977,0,113,0,10673,862,4,521,0,58,174,0,0,0,0,0
PG,Papua New Guinea,country,East Asia and Pacific,-6.314993,143.95555,US,USA,country,North America,37.09024,-95.712891,13115.8723069308,1986,26326,0,0,11158,0,0,0,0,0,0,0,0,11931,264,2423,550,0,0,0,0,0,0,0,0
PY,Paraguay,country,Latin America and the Caribbean,-23.442503,-58.443832,US,USA,country,North America,37.09024,-95.712891,7789.21764432307,1986,16071,0,0,10574,0,0,0,0,0,0,0,0,4615,882,0,0,0,0,0,0,0,0,0,0
PE,Peru,country,Latin America and the Caribbean,-9.189967,-75.015152,US,USA,country,North America,37.09024,-95.712891,5586.58660342723,1986,118852,921,0,64898,1293,1022,19,697,557,35,176,0,42884,5802,0,530,0,17,0,1,0,0,0,0
PH,Philippines,country,East Asia and Pacific,12.879721,121.774017,US,USA,country,North America,37.09024,-95.712891,13230.9559540651,1986,1045578,1787,2,213047,0,466,32765,205,252911,7195,28,0,27873,13278,491949,4033,0,36,3,0,0,0,0,0
PL,Poland,country,Europe and Central Asia,51.919438,19.145136,US,USA,country,North America,37.09024,-95.712891,8289.00813883866,1986,45489,117,0,147,0,0,0,813,3245,0,541,0,444,773,1973,418,0,35928,1090,0,0,0,0,0
PT,Portugal,country,Europe and Central Asia,39.399872,-8.224454,US,USA,country,North America,37.09024,-95.712891,7325.69316074389,1986,43177,320,0,166,147,122,429,18717,346,0,27,0,396,1409,721,18004,0,32,2341,0,0,0,0,0
KR,"Korea, Rep.",country,East Asia and Pacific,35.907757,127.766922,US,USA,country,North America,37.09024,-95.712891,10754.6834489747,1986,29130,3779,0,597,51,129,364,4572,6456,14,380,85,244,10504,1,1951,0,0,3,0,0,0,0,0
RE,Reunion,country,Sub-Saharan Africa,-21.115141,55.536384,US,USA,country,North America,37.09024,-95.712891,16744.3989522372,1986,1,0,0,0,0,0,0,0,0,0,0,0,0,1,0,0,0,0,0,0,0,0,0,0
RO,Romania,country,Europe and Central Asia,45.943161,24.96676,US,USA,country,North America,37.09024,-95.712891,9055.98983405594,1986,6655,26,0,77,0,0,140,132,287,0,667,0,3,99,0,1333,0,3483,408,0,0,0,0,0
RW,Rwanda,country,Sub-Saharan Africa,-1.940278,29.873888,US,USA,country,North America,37.09024,-95.712891,13243.7015699809,1986,3287,0,0,0,0,0,0,0,0,0,0,0,3204,83,0,0,0,0,0,0,0,0,0,0
KN,St. Kitts and Nevis,country,Latin America and the Caribbean,17.357822,-62.782998,US,USA,country,North America,37.09024,-95.712891,3898.35313229081,1986,18610,0,0,18391,0,0,0,0,201,0,0,0,18,0,0,0,0,0,0,0,0,0,0,0
LC,St. Lucia,country,Latin America and the Caribbean,13.909444,-60.978893,US,USA,country,North America,37.09024,-95.712891,4299.26244035927,1986,154,0,0,0,0,0,0,1,126,0,0,0,27,0,0,0,0,0,0,0,0,0,0,0
VC,St. Vincent & Grenadines,country,Latin America and the Caribbean,12.984305,-61.287228,US,USA,country,North America,37.09024,-95.712891,4346.40943315167,1986,1346,0,61,0,0,0,0,187,0,0,7,1091,0,0,0,0,0,0,0,0,0,0,0,0
WS,Samoa,country,East Asia and Pacific,-13.759029,-172.104629,US,USA,country,North America,37.09024,-95.712891,9770.82529671588,1986,1624,0,0,0,0,0,403,37,0,0,15,0,88,65,1016,0,0,0,0,0,0,0,0,0
ST,Sao Tome and Principe,country,Sub-Saharan Africa,0.18636,6.613081,US,USA,country,North America,37.09024,-95.712891,11097.4722895413,1986,104,0,0,0,0,0,0,0,0,0,0,0,104,0,0,0,0,0,0,0,0,0,0,0
SA,Saudi Arabia,country,Middle East and North Africa,23.885942,45.079162,US,USA,country,North America,37.09024,-95.712891,12102.7724748303,1986,121,0,0,6,0,0,0,0,46,0,0,0,0,65,4,0,0,0,0,0,0,0,0,0
SN,Senegal,country,Sub-Saharan Africa,14.497401,-14.452362,US,USA,country,North America,37.09024,-95.712891,8286.18527990894,1986,126,0,0,0,0,0,6,80,0,0,0,0,0,22,0,0,0,18,0,0,0,0,0,0
SC,Seychelles,country,Sub-Saharan Africa,-4.679574,55.491977,US,USA,country,North America,37.09024,-95.712891,15388.6144185058,1986,112,0,0,0,0,0,0,38,0,0,1,0,51,3,0,19,0,0,0,0,0,0,0,0
SL,Sierra Leone,country,Sub-Saharan Africa,8.460555,-11.779889,US,USA,country,North America,37.09024,-95.712891,8915.45421533275,1986,342,0,0,0,0,0,0,6,0,0,0,0,18,318,0,0,0,0,0,0,0,0,0,0
SG,Singapore,country,East Asia and Pacific,1.352083,103.819836,US,USA,country,North America,37.09024,-95.712891,15307.0297650791,1986,61512,306,182,3,216,8,65,267,12858,930,278,12,12344,17954,10538,5528,0,0,13,10,0,0,0,0
SB,Solomon Islands,country,East Asia and Pacific,-9.64571,160.156194,US,USA,country,North America,37.09024,-95.712891,11915.6472964443,1986,7,7,0,0,0,0,0,0,0,0,0,0,0,0,0,0,0,0,0,0,0,0,0,0
SO,Somalia,country,Sub-Saharan Africa,5.152149,46.199616,US,USA,country,North America,37.09024,-95.712891,13896.0009416821,1986,5,0,0,0,0,0,0,0,0,0,0,0,0,5,0,0,0,0,0,0,0,0,0,0
ZA,S. Africa,country,Sub-Saharan Africa,-30.559482,22.937506,US,USA,country,North America,37.09024,-95.712891,14414.8988246973,1986,152664,0,0,100542,111,308,43,184,37396,2528,67,889,1046,7445,1547,31,0,0,218,309,0,0,0,0
ES,Spain,country,Europe and Central Asia,40.463667,-3.74922,US,USA,country,North America,37.09024,-95.712891,7597.41810045668,1986,243538,3933,0,4995,1,121,57405,63912,46476,357,7000,75,946,14010,11304,32792,0,0,206,5,0,0,0,0
LK,Sri Lanka,country,South Asia,7.873054,80.771797,US,USA,country,North America,37.09024,-95.712891,15018.8123647166,1986,47857,0,0,0,0,71,1731,0,5,0,1148,0,9270,7061,28571,0,0,0,0,0,0,0,0,0
SD,Sudan,country,Sub-Saharan Africa,12.862807,30.217636,US,USA,country,North America,37.09024,-95.712891,12110.3441413662,1986,4278,0,0,0,0,0,0,0,32,0,0,0,5,3621,0,0,0,0,0,620,0,0,0,0
SR,Suriname,country,Latin America and the Caribbean,3.919305,-56.027783,US,USA,country,North America,37.09024,-95.712891,5474.92375121958,1986,193,0,0,26,0,0,0,0,0,0,107,0,15,45,0,0,0,0,0,0,0,0,0,0
SZ,Swaziland,country,Sub-Saharan Africa,-26.522503,31.465866,US,USA,country,North America,37.09024,-95.712891,14969.8457935729,1986,73897,1,0,73577,0,0,0,0,156,0,0,0,20,14,0,127,0,2,0,0,0,0,0,0
SE,Sweden,country,Europe and Central Asia,60.128161,18.643501,US,USA,country,North America,37.09024,-95.712891,7676.0483915986,1986,236389,207350,0,2312,0,0,16,344,387,0,1,234,2003,1754,115,8443,0,11484,1432,514,0,0,0,0
CH,Switzerland,country,Europe and Central Asia,46.818188,8.227512,US,USA,country,North America,37.09024,-95.712891,8020.18062133206,1986,41227,1471,0,479,36,36,95,1801,2234,0,33,2362,4837,8905,709,12878,0,73,5278,0,0,0,0,0
SY,Syrian Arab Rep.,country,Middle East and North Africa,34.802075,38.996815,US,USA,country,North America,37.09024,-95.712891,10764.1747503364,1986,135,0,0,1,0,0,14,0,98,0,11,0,0,3,0,8,0,0,0,0,0,0,0,0
TH,Thailand,country,East Asia and Pacific,15.870032,100.992541,US,USA,country,North America,37.09024,-95.712891,13887.0204065045,1986,442120,69151,58,21951,2880,634,466,7719,212698,1382,354,252,16427,102208,2196,2448,0,17,16,1263,0,0,0,0
TG,Togo,country,Sub-Saharan Africa,8.619543,0.824782,US,USA,country,North America,37.09024,-95.712891,10015.0039164594,1986,10,0,0,0,0,0,0,0,0,0,0,0,0,10,0,0,0,0,0,0,0,0,0,0
TK,Tokelau,country,,-8.967363,-171.855881,US,USA,country,North America,37.09024,-95.712891,9413.78295393247,1986,621,0,0,0,0,20,2,8,10,0,0,0,0,550,0,0,0,17,14,0,0,0,0,0
TO,Tonga,country,East Asia and Pacific,-21.178986,-175.198242,US,USA,country,North America,37.09024,-95.712891,10543.2723750517,1986,29,0,0,0,0,0,0,0,0,0,12,17,0,0,0,0,0,0,0,0,0,0,0,0
TT,Trinidad and Tobago,country,Latin America and the Caribbean,10.691803,-61.222503,US,USA,country,North America,37.09024,-95.712891,4532.58682063172,1986,12459,53,0,11474,0,0,0,51,23,0,2,0,537,77,0,201,0,41,0,0,0,0,0,0
TN,Tunisia,country,Middle East and North Africa,33.886917,9.537499,US,USA,country,North America,37.09024,-95.712891,8980.5029084597,1986,2561,13,0,0,0,59,1,128,567,0,65,0,219,56,1332,0,0,0,0,121,0,0,0,0
TR,Turkey,country,Europe and Central Asia,38.963745,35.243322,US,USA,country,North America,37.09024,-95.712891,10193.0582278006,1986,87471,38,0,329,1459,2276,427,4668,5796,8836,2222,0,66,59029,2086,166,0,10,63,0,0,0,0,0
TC,Turks and Caicos Islands,country,Latin America and the Caribbean,21.694025,-71.797928,US,USA,country,North America,37.09024,-95.712891,2869.67024994774,1986,34,0,0,0,0,0,0,0,0,0,0,0,0,34,0,0,0,0,0,0,0,0,0,0
UG,Uganda,country,Sub-Saharan Africa,1.373333,32.290275,US,USA,country,North America,37.09024,-95.712891,13186.904930472,1986,44274,0,0,0,0,0,0,0,0,0,0,0,44234,0,0,0,0,0,0,40,0,0,0,0
AE,United Arab Emirates,country,Middle East and North Africa,23.424076,53.847818,US,USA,country,North America,37.09024,-95.712891,12583.1774681464,1986,227,0,0,0,0,193,0,0,0,0,24,0,0,10,0,0,0,0,0,0,0,0,0,0
GB,United Kingdom,country,Europe and Central Asia,55.378051,-3.435973,US,USA,country,North America,37.09024,-95.712891,6838.05510555534,1986,203773,5776,75,9071,221,292,939,1712,3920,3991,61,4274,14327,20257,5397,128811,0,132,3767,750,0,0,0,0
TZ,Tanzania,country,Sub-Saharan Africa,-6.369028,34.888822,US,USA,country,North America,37.09024,-95.712891,13987.2584916769,1986,12666,0,0,9980,18,0,0,0,0,0,10,0,2292,366,0,0,0,0,0,0,0,0,0,0
UY,Uruguay,country,Latin America and the Caribbean,-32.522779,-55.765835,US,USA,country,North America,37.09024,-95.712891,8790.38789248341,1986,17671,0,0,11097,0,0,0,2,0,2644,0,109,0,251,0,17,0,3494,57,0,0,0,0,0
RU,Russian Federation,country,Europe and Central Asia,61.52401,105.318756,US,USA,country,North America,37.09024,-95.712891,8896.03927504428,1986,6177,20,0,346,0,0,139,13,22,1,0,0,235,20,9,5187,0,0,0,185,0,0,0,0
VE,Venezuela,country,Latin America and the Caribbean,6.42375,-66.58973,US,USA,country,North America,37.09024,-95.712891,4513.04520056102,1986,35850,635,0,18,65,10,35,3374,12007,1486,0,0,15452,305,170,927,0,43,1317,6,0,0,0,0
BA,Bosnia & Herzegovina,country,Europe and Central Asia,43.915886,17.679076,US,USA,country,North America,37.09024,-95.712891,8798.48013527383,1986,29009,271,0,2041,0,0,0,434,5227,4,45,0,471,7789,0,4148,0,8409,170,0,0,0,0,0
ZM,Zambia,country,Sub-Saharan Africa,-13.133897,27.849332,US,USA,country,North America,37.09024,-95.712891,13859.9541895252,1986,128,0,0,0,0,0,0,0,0,0,0,0,128,0,0,0,0,0,0,0,0,0,0,0
ZW,Zimbabwe,country,Sub-Saharan Africa,-19.015438,29.154857,US,USA,country,North America,37.09024,-95.712891,14346.391001393,1986,22742,0,0,18691,0,14,0,0,0,0,0,0,1201,2836,0,0,0,0,0,0,0,0,0,0
AF,Afghanistan,country,South Asia,33.93911,67.709953,US,USA,country,North America,37.09024,-95.712891,11945.9354467417,1987,3077,0,0,0,0,16,0,0,0,0,0,0,0,3061,0,0,0,0,0,0,0,0,0,0
AL,Albania,country,Europe and Central Asia,41.153332,20.168331,US,USA,country,North America,37.09024,-95.712891,9157.04399623222,1987,687,0,0,0,0,0,0,9,0,0,35,0,0,632,0,11,0,0,0,0,0,0,0,0
DZ,Algeria,country,Middle East and North Africa,28.033886,1.659626,US,USA,country,North America,37.09024,-95.712891,8779.41026461201,1987,415,0,0,0,0,0,0,0,0,0,0,0,225,0,0,190,0,0,0,0,0,0,0,0
AO,Angola,country,Sub-Saharan Africa,-11.202692,17.873887,US,USA,country,North America,37.09024,-95.712891,12855.6818927448,1987,103,0,0,0,0,0,0,0,0,0,0,0,87,0,0,0,0,0,16,0,0,0,0,0
AG,Antigua & Barbuda,country,Latin America and the Caribbean,17.060816,-61.796428,US,USA,country,North America,37.09024,-95.712891,3999.38025584943,1987,827,0,0,170,0,0,0,96,541,0,0,0,20,0,0,0,0,0,0,0,0,0,0,0
AR,Argentina,country,Latin America and the Caribbean,-38.416097,-63.616672,US,USA,country,North America,37.09024,-95.712891,9027.78308395216,1987,267502,27405,0,46200,1288,0,902,2329,48756,1156,215,27435,17721,13062,29063,1685,0,45986,4170,129,0,0,0,0
AW,Aruba,country,Latin America and the Caribbean,12.52111,-69.968338,US,USA,country,North America,37.09024,-95.712891,3749.04564461343,1987,15,0,0,15,0,0,0,0,0,0,0,0,0,0,0,0,0,0,0,0,0,0,0,0
AU,Australia,country,East Asia and Pacific,-25.274398,133.775136,US,USA,country,North America,37.09024,-95.712891,15201.4934480637,1987,694372,672,17,207500,2698,670,5321,264,16125,29528,251,4916,1967,3735,3773,56978,0,354311,4958,688,0,0,0,0
AT,Austria,country,Europe and Central Asia,47.516231,14.550072,US,USA,country,North America,37.09024,-95.712891,8353.28397261787,1987,15225,1212,65,2035,63,5,49,26,2613,2,65,70,665,24,4,906,0,28,7393,0,0,0,0,0
BS,The Bahamas,country,Latin America and the Caribbean,25.03428,-77.39628,US,USA,country,North America,37.09024,-95.712891,2195.73438188177,1987,7344,0,0,467,0,0,0,75,6230,0,0,0,0,81,0,491,0,0,0,0,0,0,0,0
BD,Bangladesh,country,South Asia,23.684994,90.356331,US,USA,country,North America,37.09024,-95.712891,13242.1548837342,1987,7904,0,0,0,0,37,0,15,0,6119,0,0,0,42,0,6,0,1678,7,0,0,0,0,0
BB,Barbados,country,Latin America and the Caribbean,13.193887,-59.543198,US,USA,country,North America,37.09024,-95.712891,4467.07536935911,1987,27688,0,0,27133,0,0,0,2,0,4,0,0,14,31,0,504,0,0,0,0,0,0,0,0
BE,Belgium,country,Europe and Central Asia,50.503887,4.469936,US,USA,country,North America,37.09024,-95.712891,7562.35939315518,1987,49069,2896,130,9234,25,89,57,12022,3436,1777,57,143,5800,5617,213,2620,0,4255,698,0,0,0,0,0
BZ,Belize,country,Latin America and the Caribbean,17.189877,-88.49765,US,USA,country,North America,37.09024,-95.712891,2325.7362559901,1987,46209,0,0,28646,1,0,0,1441,15822,0,2,0,69,197,0,0,0,31,0,0,0,0,0,0
BM,Bermuda,country,North America,32.321384,-64.75737,US,USA,country,North America,37.09024,-95.712891,2869.02299967506,1987,42,0,0,0,0,0,0,0,0,0,0,0,0,1,0,41,0,0,0,0,0,0,0,0
BT,Bhutan,country,South Asia,27.514162,90.433601,US,USA,country,North America,37.09024,-95.712891,12817.0954987764,1987,16,0,0,0,0,16,0,0,0,0,0,0,0,0,0,0,0,0,0,0,0,0,0,0
BO,Bolivia,country,Latin America and the Caribbean,-16.290154,-63.588653,US,USA,country,North America,37.09024,-95.712891,6830.7841558998,1987,8247,0,0,6126,0,962,0,14,49,0,0,0,843,253,0,0,0,0,0,0,0,0,0,0
BW,Botswana,country,Sub-Saharan Africa,-22.328474,24.684866,US,USA,country,North America,37.09024,-95.712891,14142.9070636178,1987,226,0,0,0,0,0,0,0,34,0,0,0,0,9,0,0,0,0,0,183,0,0,0,0
BR,Brazil,country,Latin America and the Caribbean,-14.235004,-51.92528,US,USA,country,North America,37.09024,-95.712891,7325.11541751429,1987,1619222,1329,73,249169,22,15487,4,3476,771361,13205,13899,4552,401252,68645,51039,728,0,24731,171,79,0,0,0,0
VG,British Virgin Islands,country,Latin America and the Caribbean,18.420695,-64.639968,US,USA,country,North America,37.09024,-95.712891,3672.19069093201,1987,12,0,0,0,0,0,0,0,0,0,0,0,0,0,0,12,0,0,0,0,0,0,0,0
BG,Bulgaria,country,Europe and Central Asia,42.733883,25.48583,US,USA,country,North America,37.09024,-95.712891,9343.10283213143,1987,8407,19,0,7,0,0,0,193,0,0,13,0,12,6054,0,1401,0,0,708,0,0,0,0,0
BF,Burkina Faso,country,Sub-Saharan Africa,12.238333,-1.561593,US,USA,country,North America,37.09024,-95.712891,9562.9300799837,1987,169,0,0,0,0,0,0,6,130,0,0,0,0,0,0,0,0,33,0,0,0,0,0,0
BI,Burundi,country,Sub-Saharan Africa,-3.373056,29.918886,US,USA,country,North America,37.09024,-95.712891,13353.8416271379,1987,2678,0,0,0,0,0,0,0,0,0,0,0,2678,0,0,0,0,0,0,0,0,0,0,0
CV,Cape Verde,country,Sub-Saharan Africa,16.002082,-24.013197,US,USA,country,North America,37.09024,-95.712891,7345.13199095978,1987,0,0,0,0,0,0,0,0,0,0,0,0,0,0,0,0,0,0,0,0,0,0,0,0
CM,Cameroon,country,Sub-Saharan Africa,7.369722,12.354722,US,USA,country,North America,37.09024,-95.712891,11095.3423663214,1987,7203,0,0,3,0,54,0,0,0,0,10,54,6117,965,0,0,0,0,0,0,0,0,0,0
CA,Canada,country,North America,56.130366,-106.346771,US,USA,country,North America,37.09024,-95.712891,2264.06901471138,1987,3746993,1110459,268477,319407,14674,131,130947,137811,72825,1116,338,656198,51883,176275,101652,355175,7986,323411,15833,10381,0,0,0,0
CF,Central African Rep.,country,Sub-Saharan Africa,6.611111,20.939444,US,USA,country,North America,37.09024,-95.712891,11868.8110045116,1987,953,0,0,0,0,0,0,0,0,0,0,0,868,85,0,0,0,0,0,0,0,0,0,0
CL,Chile,country,Latin America and the Caribbean,-35.675147,-71.542969,US,USA,country,North America,37.09024,-95.712891,8476.33334046106,1987,361674,653,0,2030,5339,25,103,22430,320677,279,136,1575,214,5931,0,2177,0,0,101,4,0,0,0,0
HK,Hong Kong,country,East Asia and Pacific,22.396428,114.109497,US,USA,country,North America,37.09024,-95.712891,12713.7159928997,1987,64125,5732,0,1900,319,1005,5831,16466,11149,776,1070,8,1164,13733,541,4146,0,163,89,33,0,0,0,0
MO,"Macao SAR, China",country,East Asia and Pacific,22.198745,113.543873,US,USA,country,North America,37.09024,-95.712891,12758.7240786185,1987,171,0,0,0,0,0,56,18,0,0,73,0,2,22,0,0,0,0,0,0,0,0,0,0
CN,China,country,East Asia and Pacific,35.86166,104.195397,US,USA,country,North America,37.09024,-95.712891,11660.3114893707,1987,163244,7120,28,9525,742,2301,4452,59713,9480,8475,6679,182,18367,21302,1347,11710,0,739,1001,23,58,0,0,0
TW,Taiwan,country,East Asia and Pacific,23.69781,120.960515,US,USA,country,North America,37.09024,-95.712891,12254.8953461346,1987,119501,7260,8,11035,485,149,1874,67195,10868,125,321,1379,1814,10523,524,5422,0,140,347,32,0,0,0,0
CO,Colombia,country,Latin America and the Caribbean,4.570868,-74.297333,US,USA,country,North America,37.09024,-95.712891,4227.03974725237,1987,1412584,3127,10,124279,17,0,1188,2390,546723,1828,53,0,164898,566846,5,1217,0,0,0,3,0,0,0,0
KM,Comoros,country,Sub-Saharan Africa,-11.875001,43.872219,US,USA,country,North America,37.09024,-95.712891,15131.152745492,1987,107,0,0,0,0,0,0,0,0,0,107,0,0,0,0,0,0,0,0,0,0,0,0,0
CG,"Congo, Rep.",country,Sub-Saharan Africa,-0.228021,15.827659,US,USA,country,North America,37.09024,-95.712891,11930.5653715462,1987,6808,0,0,6805,0,0,0,0,0,0,0,0,0,3,0,0,0,0,0,0,0,0,0,0
CK,Cook Islands,country,East Asia and Pacific,-21.236736,-159.777671,US,USA,country,North America,37.09024,-95.712891,9336.68731737874,1987,651,29,0,0,0,0,0,0,601,0,0,0,0,0,0,0,0,21,0,0,0,0,0,0
CR,Costa Rica,country,Latin America and the Caribbean,9.748917,-83.753428,US,USA,country,North America,37.09024,-95.712891,3272.68638611991,1987,767886,681,0,39332,0,381,59,15688,595679,0,227,0,35074,53217,19,6,0,27361,0,162,0,0,0,0
CI,Ivory Coast,country,Sub-Saharan Africa,7.539989,-5.54708,US,USA,country,North America,37.09024,-95.712891,9528.13940497655,1987,163704,0,0,6779,0,0,0,42,26,25,13,0,151739,4910,66,86,0,0,18,0,0,0,0,0
CY,Cyprus,country,Europe and Central Asia,35.126413,33.429859,US,USA,country,North America,37.09024,-95.712891,10432.6242658417,1987,426,23,0,2,0,0,0,10,48,0,0,0,15,187,0,41,0,0,100,0,0,0,0,0
CZ,Czech Republic,country,Europe and Central Asia,49.817492,15.472962,US,USA,country,North America,37.09024,-95.712891,8243.60931018466,1987,4397,0,0,0,0,0,0,2,6,0,0,0,145,1697,0,1298,0,1013,236,0,0,0,0,0
CD,"Congo, Dem. Rep.",country,Sub-Saharan Africa,-4.038333,21.758664,US,USA,country,North America,37.09024,-95.712891,12709.9827210254,1987,8322,0,0,0,0,0,0,10,0,0,0,5000,3250,0,0,62,0,0,0,0,0,0,0,0
DK,Denmark,country,Europe and Central Asia,56.26392,9.501785,US,USA,country,North America,37.09024,-95.712891,7496.29773354088,1987,186233,23569,0,934,0,31,0,31,2417,0,6,153,303,12777,1220,6841,0,127177,10766,8,0,0,0,0
DM,Dominica,country,Latin America and the Caribbean,15.414999,-61.370976,US,USA,country,North America,37.09024,-95.712891,4154.60750234614,1987,1320,16,0,0,0,0,0,0,1134,0,0,0,1,55,0,96,0,18,0,0,0,0,0,0
DO,Dominican Republic,country,Latin America and the Caribbean,18.735693,-70.162651,US,USA,country,North America,37.09024,-95.712891,3219.93825308174,1987,613159,850,8795,431686,0,1612,13024,33186,22479,0,62,11231,65276,12380,1525,860,0,9559,239,395,0,0,0,0
EC,Ecuador,country,Latin America and the Caribbean,-1.831239,-78.183406,US,USA,country,North America,37.09024,-95.712891,4695.98172079927,1987,912912,114,0,9313,0,298,26,456,748876,6370,11,0,136319,9807,1248,70,0,3,1,0,0,0,0,0
EG,Egypt,country,Middle East and North Africa,26.820553,30.802498,US,USA,country,North America,37.09024,-95.712891,10988.7012592759,1987,4506,0,0,3,0,0,16,450,104,508,1941,17,0,1430,0,35,0,0,0,2,0,0,0,0
SV,El Salvador,country,Latin America and the Caribbean,13.794185,-88.89653,US,USA,country,North America,37.09024,-95.712891,2680.24109181114,1987,111645,30,0,24296,0,0,3444,15028,10,0,31,0,67193,151,0,211,0,1246,5,0,0,0,0,0
ET,Ethiopia,country,Sub-Saharan Africa,9.145,40.489673,US,USA,country,North America,37.09024,-95.712891,13158.2946396878,1987,26808,0,0,0,0,0,53,0,0,0,108,0,25252,117,0,18,0,0,11,1249,0,0,0,0
FK,Falkland Islands,country,,-51.796253,-59.523613,US,USA,country,North America,37.09024,-95.712891,10502.3356306872,1987,18,0,0,0,0,0,0,0,0,0,0,0,0,0,0,0,0,18,0,0,0,0,0,0
FJ,Fiji,country,East Asia and Pacific,-16.578193,179.414413,US,USA,country,North America,37.09024,-95.712891,10681.6510289114,1987,24321,74,0,22667,0,0,34,1,29,0,1441,0,0,68,0,7,0,0,0,0,0,0,0,0
FI,Finland,country,Europe and Central Asia,61.92411,25.748151,US,USA,country,North America,37.09024,-95.712891,7832.06184142534,1987,49387,30771,0,419,0,0,1,0,0,0,0,2514,1244,83,0,1112,0,2767,10476,0,0,0,0,0
FR,France,country,Europe and Central Asia,46.227638,2.213749,US,USA,country,North America,37.09024,-95.712891,7674.17131253648,1987,323149,11762,29,39312,6,233,2396,4879,6382,528,521,1672,5055,11748,1230,227250,0,120,9564,462,0,0,0,0
GF,French Guiana,country,Latin America and the Caribbean,3.933889,-53.125782,US,USA,country,North America,37.09024,-95.712891,5693.9683946593,1987,11,0,0,0,0,0,0,0,0,0,0,0,0,0,0,11,0,0,0,0,0,0,0,0
PF,French Polynesia,country,East Asia and Pacific,-17.679742,-149.406843,US,USA,country,North America,37.09024,-95.712891,8295.8691929679,1987,398,0,0,0,0,0,0,0,0,0,5,0,0,383,0,10,0,0,0,0,0,0,0,0
GA,Gabon,country,Sub-Saharan Africa,-0.803689,11.609444,US,USA,country,North America,37.09024,-95.712891,11603.6829840653,1987,7032,0,0,7015,0,0,0,0,3,0,0,0,0,14,0,0,0,0,0,0,0,0,0,0
GH,Ghana,country,Sub-Saharan Africa,7.946527,-1.023194,US,USA,country,North America,37.09024,-95.712891,9898.95306641973,1987,25307,0,0,0,0,0,0,0,0,0,0,0,25250,5,38,14,0,0,0,0,0,0,0,0
GI,Gibraltar,country,Europe and Central Asia,36.137741,-5.345374,US,USA,country,North America,37.09024,-95.712891,7727.78742114297,1987,414,0,0,20,0,0,0,347,47,0,0,0,0,0,0,0,0,0,0,0,0,0,0,0
GR,Greece,country,Europe and Central Asia,39.074208,21.824312,US,USA,country,North America,37.09024,-95.712891,9419.41576295611,1987,58266,1029,0,88,16,0,5149,12010,11979,1150,5,237,340,20763,1255,2341,0,0,1904,0,0,0,0,0
GD,Grenada,country,Latin America and the Caribbean,12.262776,-61.604171,US,USA,country,North America,37.09024,-95.712891,4378.43015582348,1987,355,0,0,0,0,0,0,2,0,0,84,0,269,0,0,0,0,0,0,0,0,0,0,0
GT,Guatemala,country,Latin America and the Caribbean,15.783471,-90.230759,US,USA,country,North America,37.09024,-95.712891,2432.74402422745,1987,650975,41,0,216356,46,214,6097,47638,245064,399,436,0,88064,37602,0,292,0,8724,2,0,0,0,0,0
GN,Guinea,country,Sub-Saharan Africa,9.945587,-9.696645,US,USA,country,North America,37.09024,-95.712891,9001.9640041232,1987,384,7,0,0,0,0,0,0,0,0,0,0,359,18,0,0,0,0,0,0,0,0,0,0
GY,Guyana,country,Latin America and the Caribbean,4.860416,-58.93018,US,USA,country,North America,37.09024,-95.712891,5182.31178215859,1987,24431,0,0,24376,0,0,0,0,2,0,0,0,35,0,0,18,0,0,0,0,0,0,0,0
HT,Haiti,country,Latin America and the Caribbean,18.971187,-72.285215,US,USA,country,North America,37.09024,-95.712891,3044.47056674424,1987,29236,73,0,15554,0,0,0,253,9082,0,0,0,2072,1761,0,264,0,0,0,177,0,0,0,0
HN,Honduras,country,Latin America and the Caribbean,15.199999,-86.241905,US,USA,country,North America,37.09024,-95.712891,2610.4544004986,1987,785409,0,0,50163,0,13,9604,22194,654787,0,142,0,31771,7625,0,140,0,8970,0,0,0,0,0,0
HU,Hungary,country,Europe and Central Asia,47.162494,19.503304,US,USA,country,North America,37.09024,-95.712891,8661.74794658267,1987,25948,356,0,448,0,1,0,1550,4480,0,658,175,329,406,0,565,0,16267,713,0,0,0,0,0
IS,Iceland,country,Europe and Central Asia,64.963051,-19.020835,US,USA,country,North America,37.09024,-95.712891,5719.9336237285,1987,1133,0,0,0,0,0,0,60,0,0,4,3,3,356,0,74,0,69,522,42,0,0,0,0
IN,India,country,South Asia,20.593684,78.96288,US,USA,country,North America,37.09024,-95.712891,13591.878332668,1987,121959,9074,15,6712,1247,24268,10,468,856,4305,15305,0,17481,38148,3510,435,0,116,0,9,0,0,0,0
ID,Indonesia,country,East Asia and Pacific,-0.789275,113.921327,US,USA,country,North America,37.09024,-95.712891,14978.5673165406,1987,638172,232,0,19,0,371,110,1443,8653,28,24726,0,65670,482737,54096,2,0,85,0,0,0,0,0,0
IR,Iran,country,Middle East and North Africa,32.427908,53.688046,US,USA,country,North America,37.09024,-95.712891,11670.9538579968,1987,6271,1,0,15,0,83,0,15,1514,72,2040,0,18,2117,0,81,0,0,0,315,0,0,0,0
IQ,Iraq,country,Middle East and North Africa,33.223191,43.679291,US,USA,country,North America,37.09024,-95.712891,11148.3327753548,1987,836,0,0,103,0,8,0,0,443,0,0,0,0,282,0,0,0,0,0,0,0,0,0,0
IE,Ireland,country,Europe and Central Asia,53.41291,-8.24389,US,USA,country,North America,37.09024,-95.712891,6640.55458013614,1987,40854,641,0,1364,99,0,0,7,44,30,20,6870,4448,295,150,24591,0,758,1537,0,0,0,0,0
IL,Israel,country,Middle East and North Africa,31.046051,34.851612,US,USA,country,North America,37.09024,-95.712891,10872.2085041883,1987,74684,1938,0,1305,75,68,649,25584,16982,132,219,140,919,22918,47,922,0,1333,1453,0,0,0,0,0
IT,Italy,country,Europe and Central Asia,41.87194,12.56738,US,USA,country,North America,37.09024,-95.712891,8628.71032590973,1987,407972,64513,0,4094,10,3237,328,54311,2260,671,72,7056,4450,11837,45803,193519,0,101,15665,45,0,0,0,0
JM,Jamaica,country,Latin America and the Caribbean,18.109581,-77.297508,US,USA,country,North America,37.09024,-95.712891,2775.49878559896,1987,34625,329,41,10260,0,0,245,3214,5649,0,567,4098,326,4614,13,5251,0,8,10,0,0,0,0,0
JP,Japan,country,East Asia and Pacific,36.204824,138.252924,US,USA,country,North America,37.09024,-95.712891,10161.8071431089,1987,109845,8329,75,866,16,59,5775,2355,11895,219,200,1668,1658,40403,3219,32958,0,117,11,22,0,0,0,0
JO,Jordan,country,Middle East and North Africa,30.585164,36.238414,US,USA,country,North America,37.09024,-95.712891,10993.351572571,1987,9,0,0,0,0,0,0,0,7,0,2,0,0,0,0,0,0,0,0,0,0,0,0,0
KE,Kenya,country,Sub-Saharan Africa,-0.023559,37.906193,US,USA,country,North America,37.09024,-95.712891,13737.2826494317,1987,24083,14,16,0,881,205,12,194,34,0,15,0,20800,1683,0,229,0,0,0,0,0,0,0,0
KI,Kiribati,country,East Asia and Pacific,-3.370417,-168.734039,US,USA,country,North America,37.09024,-95.712891,8753.45952575571,1987,740,2,0,2,0,0,42,40,81,0,3,0,526,18,0,11,0,0,15,0,0,0,0,0
LA,Lao PDR,country,East Asia and Pacific,19.85627,102.495496,US,USA,country,North America,37.09024,-95.712891,13416.3306808657,1987,10,0,0,0,0,0,0,7,0,0,0,0,0,3,0,0,0,0,0,0,0,0,0,0
LB,Lebanon,country,Middle East and North Africa,33.854721,35.862285,US,USA,country,North America,37.09024,-95.712891,10680.9254392285,1987,3689,21,0,298,72,33,50,303,98,0,56,0,5,2318,87,347,0,0,1,0,0,0,0,0
LS,Lesotho,country,Sub-Saharan Africa,-29.609988,28.233608,US,USA,country,North America,37.09024,-95.712891,14833.8744197471,1987,79,0,0,0,0,0,0,0,0,41,0,0,0,38,0,0,0,0,0,0,0,0,0,0
LR,Liberia,country,Sub-Saharan Africa,6.428055,-9.429499,US,USA,country,North America,37.09024,-95.712891,9258.59871915808,1987,58408,0,0,0,0,0,0,0,0,0,0,0,408,57964,34,2,0,0,0,0,0,0,0,0
MG,Madagascar,country,Sub-Saharan Africa,-18.766947,46.869107,US,USA,country,North America,37.09024,-95.712891,15868.5436718364,1987,8529,0,0,6836,0,0,0,3,0,0,926,0,384,380,0,0,0,0,0,0,0,0,0,0
MW,Malawi,country,Sub-Saharan Africa,-13.254308,34.301525,US,USA,country,North America,37.09024,-95.712891,14427.6584598012,1987,8171,0,0,0,105,111,108,17,0,0,25,0,2022,5783,0,0,0,0,0,0,0,0,0,0
MY,Malaysia,country,East Asia and Pacific,4.210484,101.975766,US,USA,country,North America,37.09024,-95.712891,15087.3757402785,1987,495724,34,330,3,0,18,216,79,5462,0,1810,2,15962,139614,331731,463,0,0,0,0,0,0,0,0
MV,Maldives,country,South Asia,3.202778,73.22068,US,USA,country,North America,37.09024,-95.712891,15407.9575619402,1987,26,0,0,0,0,0,0,26,0,0,0,0,0,0,0,0,0,0,0,0,0,0,0,0
ML,Mali,country,Sub-Saharan Africa,17.570692,-3.996166,US,USA,country,North America,37.09024,-95.712891,8998.53409002115,1987,768,0,0,0,0,0,0,4,0,0,39,0,1,701,0,23,0,0,0,0,0,0,0,0
MT,Malta,country,Middle East and North Africa,35.937496,14.375416,US,USA,country,North America,37.09024,-95.712891,9173.63894024064,1987,15,0,0,0,0,0,0,0,0,0,0,0,15,0,0,0,0,0,0,0,0,0,0,0
MU,Mauritius,country,Sub-Saharan Africa,-20.348404,57.552152,US,USA,country,North America,37.09024,-95.712891,16849.4559877056,1987,35065,0,0,31277,0,159,0,51,0,0,0,0,166,106,3245,33,0,18,10,0,0,0,0,0
MX,Mexico,country,Latin America and the Caribbean,23.634501,-102.552784,US,USA,country,North America,37.09024,-95.712891,1634.35580586104,1987,2957831,13661,0,393626,10166,8020,33524,1502093,393428,3666,3238,7151,179666,73754,3378,332037,0,83,112,228,0,0,0,0
MN,Mongolia,country,East Asia and Pacific,46.862496,103.846656,US,USA,country,North America,37.09024,-95.712891,10490.3678831785,1987,336,73,0,0,0,0,0,0,0,165,0,0,86,6,0,6,0,0,0,0,0,0,0,0
MS,Montserrat,country,Latin America and the Caribbean,16.7425,-62.1874,US,USA,country,North America,37.09024,-95.712891,3991.14252824769,1987,130,0,0,0,0,0,0,45,30,0,4,0,16,35,0,0,0,0,0,0,0,0,0,0
MA,Morocco,country,Middle East and North Africa,31.791702,-7.09262,US,USA,country,North America,37.09024,-95.712891,7846.4225823721,1987,4173,0,0,0,0,0,929,1471,78,0,988,0,2,397,0,308,0,0,0,0,0,0,0,0
MZ,Mozambique,country,Sub-Saharan Africa,-18.665695,35.529562,US,USA,country,North America,37.09024,-95.712891,14886.4237045166,1987,22243,2,0,18989,0,2880,0,105,8,0,1,0,220,21,0,17,0,0,0,0,0,0,0,0
MM,Myanmar,country,East Asia and Pacific,21.913965,95.956223,US,USA,country,North America,37.09024,-95.712891,13355.9809098561,1987,33,0,0,0,0,0,0,9,0,0,24,0,0,0,0,0,0,0,0,0,0,0,0,0
NA,Namibia,country,Sub-Saharan Africa,-22.95764,18.49041,US,USA,country,North America,37.09024,-95.712891,13629.5158472508,1987,287,0,0,19,0,0,0,0,0,0,0,0,0,0,0,80,0,0,0,188,0,0,0,0
NR,Nauru,country,East Asia and Pacific,-0.522778,166.931503,US,USA,country,North America,37.09024,-95.712891,10706.5256536018,1987,10,9,0,0,0,0,0,0,0,0,0,0,1,0,0,0,0,0,0,0,0,0,0,0
NL,Netherlands,country,Europe and Central Asia,52.132633,5.291266,US,USA,country,North America,37.09024,-95.712891,7514.49450150191,1987,839663,2056,413,42809,16,482,1453,11279,3006,552,2668,1176,35515,406969,12203,304374,0,5263,8654,775,0,0,0,0
NC,New Caledonia,country,East Asia and Pacific,-20.904305,165.618042,US,USA,country,North America,37.09024,-95.712891,12146.8611395984,1987,361,0,0,0,0,0,0,4,0,0,0,0,18,339,0,0,0,0,0,0,0,0,0,0
NZ,New Zealand,country,East Asia and Pacific,-40.900557,174.885971,US,USA,country,North America,37.09024,-95.712891,12564.0565528273,1987,324212,2507,0,196,153,106,0,1930,57570,12718,4,2088,89,2574,429,3385,0,211375,24879,4209,0,0,0,0
NI,Nicaragua,country,Latin America and the Caribbean,12.865416,-85.207229,US,USA,country,North America,37.09024,-95.712891,2892.67151899733,1987,1009,0,0,0,0,0,0,15,0,0,0,0,3,991,0,0,0,0,0,0,0,0,0,0
NE,Niger,country,Sub-Saharan Africa,17.607789,8.081666,US,USA,country,North America,37.09024,-95.712891,10011.4917303107,1987,288,0,0,0,0,0,0,0,0,0,0,0,23,81,76,73,0,35,0,0,0,0,0,0
NG,Nigeria,country,Sub-Saharan Africa,9.081999,8.675277,US,USA,country,North America,37.09024,-95.712891,10661.0874959799,1987,7581,0,3,0,0,0,0,0,0,0,265,0,3022,1592,1628,523,0,0,17,531,0,0,0,0
NU,Niue,country,East Asia and Pacific,-19.054445,-169.867233,US,USA,country,North America,37.09024,-95.712891,9961.41893536537,1987,68,0,0,0,0,0,0,0,0,0,0,0,0,0,0,0,0,68,0,0,0,0,0,0
NF,Norfolk Island,country,East Asia and Pacific,-29.040835,167.954712,US,USA,country,North America,37.09024,-95.712891,12433.869106588,1987,7,0,0,0,0,0,0,0,0,0,0,0,0,7,0,0,0,0,0,0,0,0,0,0
NO,Norway,country,Europe and Central Asia,60.472024,8.468946,US,USA,country,North America,37.09024,-95.712891,7194.85324423004,1987,10406,587,0,7,0,0,22,3,9,0,0,202,20,842,5,1141,0,0,7565,3,0,0,0,0
OM,Oman,country,Middle East and North Africa,21.512583,55.923255,US,USA,country,North America,37.09024,-95.712891,12867.044315304,1987,25,0,0,0,0,0,0,0,4,0,0,0,0,21,0,0,0,0,0,0,0,0,0,0
PK,Pakistan,country,South Asia,30.375321,69.345116,US,USA,country,North America,37.09024,-95.712891,12367.4065672626,1987,10913,334,0,75,0,8,2,134,640,1,3190,0,0,6445,0,21,0,63,0,0,0,0,0,0
PA,Panama,country,Latin America and the Caribbean,8.537981,-80.782127,US,USA,country,North America,37.09024,-95.712891,3517.43456042857,1987,340734,25,0,53080,0,0,62,9403,269162,0,12,0,8158,646,0,113,0,10,17,46,0,0,0,0
PG,Papua New Guinea,country,East Asia and Pacific,-6.314993,143.95555,US,USA,country,North America,37.09024,-95.712891,13115.8723069308,1987,15322,0,0,6728,0,0,0,0,0,0,0,0,6978,54,1362,200,0,0,0,0,0,0,0,0
PY,Paraguay,country,Latin America and the Caribbean,-23.442503,-58.443832,US,USA,country,North America,37.09024,-95.712891,7789.21764432307,1987,9392,0,0,0,0,0,0,0,0,0,0,4995,3742,655,0,0,0,0,0,0,0,0,0,0
PE,Peru,country,Latin America and the Caribbean,-9.189967,-75.015152,US,USA,country,North America,37.09024,-95.712891,5586.58660342723,1987,83694,39,1,26966,1274,734,8,1767,1068,12,40,0,37986,13433,14,348,0,0,0,4,0,0,0,0
PH,Philippines,country,East Asia and Pacific,12.879721,121.774017,US,USA,country,North America,37.09024,-95.712891,13230.9559540651,1987,913254,1975,4,132847,26,475,42368,334,233054,7822,49,0,7892,11508,471689,3208,0,3,0,0,0,0,0,0
PL,Poland,country,Europe and Central Asia,51.919438,19.145136,US,USA,country,North America,37.09024,-95.712891,8289.00813883866,1987,47753,256,0,143,0,0,0,1016,3269,0,733,0,127,1031,1993,336,0,37695,1154,0,0,0,0,0
PT,Portugal,country,Europe and Central Asia,39.399872,-8.224454,US,USA,country,North America,37.09024,-95.712891,7325.69316074389,1987,36608,326,0,45,79,159,408,8856,138,172,35,0,244,1422,618,18497,0,0,5609,0,0,0,0,0
KR,"Korea, Rep.",country,East Asia and Pacific,35.907757,127.766922,US,USA,country,North America,37.09024,-95.712891,10754.6834489747,1987,41879,4652,1,1038,19,87,322,3187,10186,18,214,15,223,16508,727,4436,0,215,0,31,0,0,0,0
RE,Reunion,country,Sub-Saharan Africa,-21.115141,55.536384,US,USA,country,North America,37.09024,-95.712891,16744.3989522372,1987,5,0,0,0,0,0,0,0,0,0,1,0,0,4,0,0,0,0,0,0,0,0,0,0
RO,Romania,country,Europe and Central Asia,45.943161,24.96676,US,USA,country,North America,37.09024,-95.712891,9055.98983405594,1987,9458,0,0,0,0,15,45,145,19,0,437,270,0,95,0,1476,0,6714,242,0,0,0,0,0
RW,Rwanda,country,Sub-Saharan Africa,-1.940278,29.873888,US,USA,country,North America,37.09024,-95.712891,13243.7015699809,1987,4485,0,0,0,0,0,0,0,0,0,0,0,4221,264,0,0,0,0,0,0,0,0,0,0
KN,St. Kitts and Nevis,country,Latin America and the Caribbean,17.357822,-62.782998,US,USA,country,North America,37.09024,-95.712891,3898.35313229081,1987,6835,0,0,6804,0,0,0,0,0,0,0,0,0,0,0,31,0,0,0,0,0,0,0,0
LC,St. Lucia,country,Latin America and the Caribbean,13.909444,-60.978893,US,USA,country,North America,37.09024,-95.712891,4299.26244035927,1987,285,0,0,0,0,0,0,49,138,0,0,0,49,15,0,34,0,0,0,0,0,0,0,0
VC,St. Vincent & Grenadines,country,Latin America and the Caribbean,12.984305,-61.287228,US,USA,country,North America,37.09024,-95.712891,4346.40943315167,1987,806,0,150,0,0,0,0,18,0,0,0,636,0,0,0,2,0,0,0,0,0,0,0,0
WS,Samoa,country,East Asia and Pacific,-13.759029,-172.104629,US,USA,country,North America,37.09024,-95.712891,9770.82529671588,1987,2368,0,0,0,0,21,0,0,13,0,0,0,85,53,2141,55,0,0,0,0,0,0,0,0
SA,Saudi Arabia,country,Middle East and North Africa,23.885942,45.079162,US,USA,country,North America,37.09024,-95.712891,12102.7724748303,1987,108,0,0,0,0,0,0,0,31,0,0,0,0,77,0,0,0,0,0,0,0,0,0,0
SN,Senegal,country,Sub-Saharan Africa,14.497401,-14.452362,US,USA,country,North America,37.09024,-95.712891,8286.18527990894,1987,2358,0,0,0,0,0,6,8,0,13,0,1800,400,131,0,0,0,0,0,0,0,0,0,0
SC,Seychelles,country,Sub-Saharan Africa,-4.679574,55.491977,US,USA,country,North America,37.09024,-95.712891,15388.6144185058,1987,269,36,0,0,0,0,42,0,0,0,79,0,0,2,0,110,0,0,0,0,0,0,0,0
SL,Sierra Leone,country,Sub-Saharan Africa,8.460555,-11.779889,US,USA,country,North America,37.09024,-95.712891,8915.45421533275,1987,692,0,0,0,0,0,42,0,0,0,9,0,587,52,2,0,0,0,0,0,0,0,0,0
SG,Singapore,country,East Asia and Pacific,1.352083,103.819836,US,USA,country,North America,37.09024,-95.712891,15307.0297650791,1987,48777,460,54,15,10,35,112,349,8741,96,528,0,8072,21349,3327,5564,0,59,0,6,0,0,0,0
SB,Solomon Islands,country,East Asia and Pacific,-9.64571,160.156194,US,USA,country,North America,37.09024,-95.712891,11915.6472964443,1987,994,0,0,0,0,0,0,0,0,0,0,0,0,0,994,0,0,0,0,0,0,0,0,0
SO,Somalia,country,Sub-Saharan Africa,5.152149,46.199616,US,USA,country,North America,37.09024,-95.712891,13896.0009416821,1987,17,0,0,0,0,0,0,0,0,0,0,0,0,15,0,2,0,0,0,0,0,0,0,0
ZA,S. Africa,country,Sub-Saharan Africa,-30.559482,22.937506,US,USA,country,North America,37.09024,-95.712891,14414.8988246973,1987,1641,0,0,0,4,91,0,0,21,55,0,0,200,1221,8,0,0,0,0,41,0,0,0,0
ES,Spain,country,Europe and Central Asia,40.463667,-3.74922,US,USA,country,North America,37.09024,-95.712891,7597.41810045668,1987,257683,3020,0,5297,0,336,71989,62969,48633,0,5985,0,2924,11029,13419,32002,0,2,73,5,0,0,0,0
LK,Sri Lanka,country,South Asia,7.873054,80.771797,US,USA,country,North America,37.09024,-95.712891,15018.8123647166,1987,24845,14,0,0,0,183,2690,0,0,0,1124,0,4840,10852,5142,0,0,0,0,0,0,0,0,0
SD,Sudan,country,Sub-Saharan Africa,12.862807,30.217636,US,USA,country,North America,37.09024,-95.712891,12110.3441413662,1987,4703,0,0,0,0,0,15,0,0,0,14,0,0,4329,0,0,0,0,0,345,0,0,0,0
SR,Suriname,country,Latin America and the Caribbean,3.919305,-56.027783,US,USA,country,North America,37.09024,-95.712891,5474.92375121958,1987,139,0,0,0,0,0,0,0,0,0,30,0,87,0,18,4,0,0,0,0,0,0,0,0
SZ,Swaziland,country,Sub-Saharan Africa,-26.522503,31.465866,US,USA,country,North America,37.09024,-95.712891,14969.8457935729,1987,1570,0,0,0,0,16,0,0,16,0,0,0,37,1355,0,146,0,0,0,0,0,0,0,0
SE,Sweden,country,Europe and Central Asia,60.128161,18.643501,US,USA,country,North America,37.09024,-95.712891,7676.0483915986,1987,217030,185530,0,2173,3,0,30,52,233,0,30,1604,2192,1867,236,9691,0,11867,1404,118,0,0,0,0
CH,Switzerland,country,Europe and Central Asia,46.818188,8.227512,US,USA,country,North America,37.09024,-95.712891,8020.18062133206,1987,37055,1207,0,259,267,167,34,2123,1950,290,69,727,5891,7749,14,11826,0,53,4418,11,0,0,0,0
SY,Syrian Arab Rep.,country,Middle East and North Africa,34.802075,38.996815,US,USA,country,North America,37.09024,-95.712891,10764.1747503364,1987,791,0,0,0,2,0,0,0,86,342,16,0,345,0,0,0,0,0,0,0,0,0,0,0
TH,Thailand,country,East Asia and Pacific,15.870032,100.992541,US,USA,country,North America,37.09024,-95.712891,13887.0204065045,1987,460027,76279,71,12202,2215,800,850,18077,190972,4400,460,461,18139,127718,3127,3715,0,40,91,410,0,0,0,0
TG,Togo,country,Sub-Saharan Africa,8.619543,0.824782,US,USA,country,North America,37.09024,-95.712891,10015.0039164594,1987,105,0,0,0,0,0,0,21,84,0,0,0,0,0,0,0,0,0,0,0,0,0,0,0
TK,Tokelau,country,,-8.967363,-171.855881,US,USA,country,North America,37.09024,-95.712891,9413.78295393247,1987,258,0,0,2,0,100,2,4,136,0,0,0,0,12,0,0,0,0,2,0,0,0,0,0
TO,Tonga,country,East Asia and Pacific,-21.178986,-175.198242,US,USA,country,North America,37.09024,-95.712891,10543.2723750517,1987,10,0,0,0,0,0,0,0,0,0,10,0,0,0,0,0,0,0,0,0,0,0,0,0
TT,Trinidad and Tobago,country,Latin America and the Caribbean,10.691803,-61.222503,US,USA,country,North America,37.09024,-95.712891,4532.58682063172,1987,9410,32,0,6959,0,42,0,752,17,0,10,0,566,134,500,398,0,0,0,0,0,0,0,0
TN,Tunisia,country,Middle East and North Africa,33.886917,9.537499,US,USA,country,North America,37.09024,-95.712891,8980.5029084597,1987,3465,47,0,0,0,220,0,33,852,0,0,0,14,186,2111,2,0,0,0,0,0,0,0,0
TR,Turkey,country,Europe and Central Asia,38.963745,35.243322,US,USA,country,North America,37.09024,-95.712891,10193.0582278006,1987,113230,497,0,339,1820,1866,618,5118,8196,15729,3110,0,55,75441,83,88,0,0,270,0,0,0,0,0
TC,Turks and Caicos Islands,country,Latin America and the Caribbean,21.694025,-71.797928,US,USA,country,North America,37.09024,-95.712891,2869.67024994774,1987,0,0,0,0,0,0,0,0,0,0,0,0,0,0,0,0,0,0,0,0,0,0,0,0
UG,Uganda,country,Sub-Saharan Africa,1.373333,32.290275,US,USA,country,North America,37.09024,-95.712891,13186.904930472,1987,35502,0,0,0,0,0,0,0,0,0,0,0,35197,0,0,296,0,0,0,9,0,0,0,0
AE,United Arab Emirates,country,Middle East and North Africa,23.424076,53.847818,US,USA,country,North America,37.09024,-95.712891,12583.1774681464,1987,119,0,0,16,3,0,0,3,13,0,53,0,5,21,3,0,0,0,2,0,0,0,0,0
GB,United Kingdom,country,Europe and Central Asia,55.378051,-3.435973,US,USA,country,North America,37.09024,-95.712891,6838.05510555534,1987,207850,7584,237,14869,212,253,1162,1431,2771,4911,58,4063,14036,20580,2239,129142,4,428,3482,392,0,0,0,0
TZ,Tanzania,country,Sub-Saharan Africa,-6.369028,34.888822,US,USA,country,North America,37.09024,-95.712891,13987.2584916769,1987,2439,0,0,0,54,0,0,0,0,0,113,0,2119,104,0,0,0,0,49,0,0,0,0,0
UY,Uruguay,country,Latin America and the Caribbean,-32.522779,-55.765835,US,USA,country,North America,37.09024,-95.712891,8790.38789248341,1987,13395,6,0,6693,0,30,0,48,0,3912,0,54,17,162,53,0,0,1896,519,5,0,0,0,0
RU,Russian Federation,country,Europe and Central Asia,61.52401,105.318756,US,USA,country,North America,37.09024,-95.712891,8896.03927504428,1987,5970,24,0,213,0,0,21,65,14,138,0,0,112,0,0,5340,0,0,16,27,0,0,0,0
VE,Venezuela,country,Latin America and the Caribbean,6.42375,-66.58973,US,USA,country,North America,37.09024,-95.712891,4513.04520056102,1987,41891,440,0,12275,33,0,3,301,13372,4,0,0,11570,416,408,3069,0,0,0,0,0,0,0,0
EH,Western Sahara,country,,24.215527,-12.885834,US,USA,country,North America,37.09024,-95.712891,7818.26784972078,1987,3,0,0,0,0,0,0,0,0,0,0,0,0,3,0,0,0,0,0,0,0,0,0,0
BA,Bosnia & Herzegovina,country,Europe and Central Asia,43.915886,17.679076,US,USA,country,North America,37.09024,-95.712891,8798.48013527383,1987,32511,260,0,3520,0,0,0,869,4152,0,42,0,120,8923,0,4139,0,10397,89,0,0,0,0,0
ZM,Zambia,country,Sub-Saharan Africa,-13.133897,27.849332,US,USA,country,North America,37.09024,-95.712891,13859.9541895252,1987,691,0,0,0,0,0,0,0,0,0,0,0,0,683,0,0,0,0,8,0,0,0,0,0
ZW,Zimbabwe,country,Sub-Saharan Africa,-19.015438,29.154857,US,USA,country,North America,37.09024,-95.712891,14346.391001393,1987,14251,0,0,9907,158,48,0,0,0,0,0,0,1646,2492,0,0,0,0,0,0,0,0,0,0
AF,Afghanistan,country,South Asia,33.93911,67.709953,US,USA,country,North America,37.09024,-95.712891,11945.9354467417,1988,22,0,0,0,0,22,0,0,0,0,0,0,0,0,0,0,0,0,0,0,0,0,0,0
AL,Albania,country,Europe and Central Asia,41.153332,20.168331,US,USA,country,North America,37.09024,-95.712891,9157.04399623222,1988,3,0,0,0,0,0,0,0,0,0,3,0,0,0,0,0,0,0,0,0,0,0,0,0
DZ,Algeria,country,Middle East and North Africa,28.033886,1.659626,US,USA,country,North America,37.09024,-95.712891,8779.41026461201,1988,546,0,0,0,0,0,0,15,0,0,0,0,61,0,0,470,0,0,0,0,0,0,0,0
AG,Antigua & Barbuda,country,Latin America and the Caribbean,17.060816,-61.796428,US,USA,country,North America,37.09024,-95.712891,3999.38025584943,1988,289,7,0,0,0,0,0,74,178,0,0,0,0,0,0,9,0,14,7,0,0,0,0,0
AR,Argentina,country,Latin America and the Caribbean,-38.416097,-63.616672,US,USA,country,North America,37.09024,-95.712891,9027.78308395216,1988,608671,237179,0,35636,1141,0,1154,4332,64329,1620,297,1530,14482,7216,187910,1056,0,44770,5097,922,0,0,0,0
AU,Australia,country,East Asia and Pacific,-25.274398,133.775136,US,USA,country,North America,37.09024,-95.712891,15201.4934480637,1988,704808,1064,0,211063,2417,754,3956,51,5929,28361,77,1803,1140,191,1588,61994,0,378757,5153,510,0,0,0,0
AT,Austria,country,Europe and Central Asia,47.516231,14.550072,US,USA,country,North America,37.09024,-95.712891,8353.28397261787,1988,12603,1213,27,1171,0,3,33,4,2286,0,18,0,406,18,16,980,0,32,6365,31,0,0,0,0
BS,The Bahamas,country,Latin America and the Caribbean,25.03428,-77.39628,US,USA,country,North America,37.09024,-95.712891,2195.73438188177,1988,13932,0,0,1,0,0,0,2124,11384,0,0,0,0,0,0,423,0,0,0,0,0,0,0,0
BD,Bangladesh,country,South Asia,23.684994,90.356331,US,USA,country,North America,37.09024,-95.712891,13242.1548837342,1988,9573,0,0,0,0,0,0,0,0,7237,15,0,0,0,0,1,0,2320,0,0,0,0,0,0
BB,Barbados,country,Latin America and the Caribbean,13.193887,-59.543198,US,USA,country,North America,37.09024,-95.712891,4467.07536935911,1988,19903,0,0,19317,0,16,0,0,0,0,1,0,0,0,0,568,0,0,1,0,0,0,0,0
BE,Belgium,country,Europe and Central Asia,50.503887,4.469936,US,USA,country,North America,37.09024,-95.712891,7562.35939315518,1988,43220,2875,0,7242,43,27,63,14658,1881,2875,49,8,6215,1768,212,1509,0,3347,448,0,0,0,0,0
BZ,Belize,country,Latin America and the Caribbean,17.189877,-88.49765,US,USA,country,North America,37.09024,-95.712891,2325.7362559901,1988,50914,0,0,35904,0,0,0,1137,13669,0,0,0,66,99,0,5,0,34,0,0,0,0,0,0
BM,Bermuda,country,North America,32.321384,-64.75737,US,USA,country,North America,37.09024,-95.712891,2869.02299967506,1988,25,0,0,0,0,0,0,0,1,0,0,0,0,0,0,24,0,0,0,0,0,0,0,0
BT,Bhutan,country,South Asia,27.514162,90.433601,US,USA,country,North America,37.09024,-95.712891,12817.0954987764,1988,0,0,0,0,0,0,0,0,0,0,0,0,0,0,0,0,0,0,0,0,0,0,0,0
BO,Bolivia,country,Latin America and the Caribbean,-16.290154,-63.588653,US,USA,country,North America,37.09024,-95.712891,6830.7841558998,1988,15510,0,0,12883,0,938,0,0,0,0,0,0,1608,0,0,57,0,0,0,24,0,0,0,0
BW,Botswana,country,Sub-Saharan Africa,-22.328474,24.684866,US,USA,country,North America,37.09024,-95.712891,14142.9070636178,1988,48,0,0,0,0,0,0,0,0,0,0,0,10,0,0,0,0,0,0,38,0,0,0,0
BR,Brazil,country,Latin America and the Caribbean,-14.235004,-51.92528,US,USA,country,North America,37.09024,-95.712891,7325.11541751429,1988,1583602,1348,29,307818,18,21406,13,14277,599687,4107,8453,3052,383083,49430,159830,1586,0,29193,205,67,0,0,0,0
VG,British Virgin Islands,country,Latin America and the Caribbean,18.420695,-64.639968,US,USA,country,North America,37.09024,-95.712891,3672.19069093201,1988,72,0,0,0,0,0,0,0,0,0,0,0,0,0,0,72,0,0,0,0,0,0,0,0
BN,Brunei Darussalam,country,,4.535277,114.727669,US,USA,country,North America,37.09024,-95.712891,14430.8619318203,1988,2,0,0,0,0,0,0,0,0,0,0,0,0,0,0,2,0,0,0,0,0,0,0,0
BG,Bulgaria,country,Europe and Central Asia,42.733883,25.48583,US,USA,country,North America,37.09024,-95.712891,9343.10283213143,1988,5055,0,0,0,0,0,0,0,11,0,0,0,5,2607,0,1548,0,0,884,0,0,0,0,0
BF,Burkina Faso,country,Sub-Saharan Africa,12.238333,-1.561593,US,USA,country,North America,37.09024,-95.712891,9562.9300799837,1988,69,0,0,0,0,0,0,0,0,0,0,0,0,0,0,0,0,56,13,0,0,0,0,0
BI,Burundi,country,Sub-Saharan Africa,-3.373056,29.918886,US,USA,country,North America,37.09024,-95.712891,13353.8416271379,1988,886,0,0,0,0,0,0,0,0,0,0,0,886,0,0,0,0,0,0,0,0,0,0,0
KH,Cambodia,country,East Asia and Pacific,12.565679,104.990963,US,USA,country,North America,37.09024,-95.712891,14099.9700388159,1988,21,0,0,0,0,0,10,11,0,0,0,0,0,0,0,0,0,0,0,0,0,0,0,0
CM,Cameroon,country,Sub-Saharan Africa,7.369722,12.354722,US,USA,country,North America,37.09024,-95.712891,11095.3423663214,1988,8104,0,0,0,84,0,0,113,0,0,0,0,6739,1168,0,0,0,0,0,0,0,0,0,0
CA,Canada,country,North America,56.130366,-106.346771,US,USA,country,North America,37.09024,-95.712891,2264.06901471138,1988,3950503,1367067,265285,273530,16534,129,232217,146091,79856,767,470,678871,41512,13744,144289,362168,6680,298524,14922,14527,0,0,0,0
KY,Cayman Islands,country,Latin America and the Caribbean,19.513469,-80.566956,US,USA,country,North America,37.09024,-95.712891,2448.82499139281,1988,577,0,0,10,0,0,0,0,0,0,0,0,67,0,500,0,0,0,0,0,0,0,0,0
CF,Central African Rep.,country,Sub-Saharan Africa,6.611111,20.939444,US,USA,country,North America,37.09024,-95.712891,11868.8110045116,1988,677,0,0,0,0,0,0,0,0,0,0,0,562,115,0,0,0,0,0,0,0,0,0,0
TD,Chad,country,Sub-Saharan Africa,15.454166,18.732207,US,USA,country,North America,37.09024,-95.712891,11027.287545388,1988,20,0,0,0,0,0,0,0,0,0,20,0,0,0,0,0,0,0,0,0,0,0,0,0
CL,Chile,country,Latin America and the Caribbean,-35.675147,-71.542969,US,USA,country,North America,37.09024,-95.712891,8476.33334046106,1988,401103,4746,0,1905,2745,573,27,16251,367929,253,52,1875,88,1567,0,2986,0,0,106,0,0,0,0,0
HK,Hong Kong,country,East Asia and Pacific,22.396428,114.109497,US,USA,country,North America,37.09024,-95.712891,12713.7159928997,1988,40299,4908,5,1954,401,335,4407,13854,6471,612,401,93,437,282,737,5180,0,60,143,19,0,0,0,0
MO,"Macao SAR, China",country,East Asia and Pacific,22.198745,113.543873,US,USA,country,North America,37.09024,-95.712891,12758.7240786185,1988,201,0,0,0,0,0,46,21,43,0,67,0,0,0,15,9,0,0,0,0,0,0,0,0
CN,China,country,East Asia and Pacific,35.86166,104.195397,US,USA,country,North America,37.09024,-95.712891,11660.3114893707,1988,163292,5751,70,10124,2060,1786,5369,59754,11968,3340,4710,11024,26841,2834,3855,12525,0,194,736,351,0,0,0,0
TW,Taiwan,country,East Asia and Pacific,23.69781,120.960515,US,USA,country,North America,37.09024,-95.712891,12254.8953461346,1988,84385,11630,17,12605,484,61,2300,36267,7265,24,391,2412,1444,3202,532,5352,0,40,354,5,0,0,0,0
CO,Colombia,country,Latin America and the Caribbean,4.570868,-74.297333,US,USA,country,North America,37.09024,-95.712891,4227.03974725237,1988,786211,4316,154,116074,0,56,45,1618,506244,2049,2,0,153655,768,4,1012,0,0,0,214,0,0,0,0
KM,Comoros,country,Sub-Saharan Africa,-11.875001,43.872219,US,USA,country,North America,37.09024,-95.712891,15131.152745492,1988,195,0,0,0,0,0,0,0,0,0,192,0,0,3,0,0,0,0,0,0,0,0,0,0
CG,"Congo, Rep.",country,Sub-Saharan Africa,-0.228021,15.827659,US,USA,country,North America,37.09024,-95.712891,11930.5653715462,1988,7502,0,0,7502,0,0,0,0,0,0,0,0,0,0,0,0,0,0,0,0,0,0,0,0
CK,Cook Islands,country,East Asia and Pacific,-21.236736,-159.777671,US,USA,country,North America,37.09024,-95.712891,9336.68731737874,1988,34,0,0,5,0,0,0,0,0,0,0,0,0,0,0,29,0,0,0,0,0,0,0,0
CR,Costa Rica,country,Latin America and the Caribbean,9.748917,-83.753428,US,USA,country,North America,37.09024,-95.712891,3272.68638611991,1988,763325,667,19,47780,0,325,143,21932,649770,0,616,0,17984,28,7,9,0,23750,0,295,0,0,0,0
CI,Ivory Coast,country,Sub-Saharan Africa,7.539989,-5.54708,US,USA,country,North America,37.09024,-95.712891,9528.13940497655,1988,133223,34,0,7464,0,0,0,23,15,0,0,1465,115216,8658,15,333,0,0,0,0,0,0,0,0
CY,Cyprus,country,Europe and Central Asia,35.126413,33.429859,US,USA,country,North America,37.09024,-95.712891,10432.6242658417,1988,286,69,0,12,0,0,0,2,2,0,0,0,13,0,0,56,0,3,129,0,0,0,0,0
CZ,Czech Republic,country,Europe and Central Asia,49.817492,15.472962,US,USA,country,North America,37.09024,-95.712891,8243.60931018466,1988,4294,82,20,0,0,0,0,0,31,0,0,0,496,491,0,1944,0,1077,153,0,0,0,0,0
CD,"Congo, Dem. Rep.",country,Sub-Saharan Africa,-4.038333,21.758664,US,USA,country,North America,37.09024,-95.712891,12709.9827210254,1988,901,0,0,20,0,0,0,0,0,0,0,0,790,91,0,0,0,0,0,0,0,0,0,0
DK,Denmark,country,Europe and Central Asia,56.26392,9.501785,US,USA,country,North America,37.09024,-95.712891,7496.29773354088,1988,167123,19492,0,894,0,7,0,373,2463,0,30,194,184,713,3789,7538,0,121603,9840,3,0,0,0,0
DJ,Djibouti,country,Middle East and North Africa,11.825138,42.590275,US,USA,country,North America,37.09024,-95.712891,13063.0736911695,1988,6,0,0,0,0,0,0,0,0,0,0,0,0,0,0,0,0,6,0,0,0,0,0,0
DM,Dominica,country,Latin America and the Caribbean,15.414999,-61.370976,US,USA,country,North America,37.09024,-95.712891,4154.60750234614,1988,105,0,0,0,0,0,0,31,0,0,0,0,0,56,18,0,0,0,0,0,0,0,0,0
DO,Dominican Republic,country,Latin America and the Caribbean,18.735693,-70.162651,US,USA,country,North America,37.09024,-95.712891,3219.93825308174,1988,517434,848,8301,327754,22,1295,15471,40745,26072,0,41,4581,70056,2928,3307,1468,0,14394,151,0,0,0,0,0
EC,Ecuador,country,Latin America and the Caribbean,-1.831239,-78.183406,US,USA,country,North America,37.09024,-95.712891,4695.98172079927,1988,922769,28,0,18962,0,0,16,2775,794771,4907,7,0,100675,172,402,54,0,0,0,0,0,0,0,0
EG,Egypt,country,Middle East and North Africa,26.820553,30.802498,US,USA,country,North America,37.09024,-95.712891,10988.7012592759,1988,2723,0,0,0,4,0,2,509,25,79,2006,0,38,29,0,31,0,0,0,0,0,0,0,0
SV,El Salvador,country,Latin America and the Caribbean,13.794185,-88.89653,US,USA,country,North America,37.09024,-95.712891,2680.24109181114,1988,102263,108,0,39012,0,0,3686,8229,9,0,34,0,49896,12,0,216,0,1055,6,0,0,0,0,0
ET,Ethiopia,country,Sub-Saharan Africa,9.145,40.489673,US,USA,country,North America,37.09024,-95.712891,13158.2946396878,1988,15504,0,0,0,0,0,0,0,0,1560,127,196,13078,6,0,95,0,0,10,432,0,0,0,0
FK,Falkland Islands,country,,-51.796253,-59.523613,US,USA,country,North America,37.09024,-95.712891,10502.3356306872,1988,11,0,0,0,0,0,0,0,0,11,0,0,0,0,0,0,0,0,0,0,0,0,0,0
FO,Faroe Islands,country,Europe and Central Asia,61.892635,-6.911806,US,USA,country,North America,37.09024,-95.712891,6381.84618123423,1988,66,0,0,0,0,0,0,0,0,0,0,0,0,0,0,66,0,0,0,0,0,0,0,0
FJ,Fiji,country,East Asia and Pacific,-16.578193,179.414413,US,USA,country,North America,37.09024,-95.712891,10681.6510289114,1988,10160,88,0,8523,0,2,0,2,105,0,1440,0,0,0,0,0,0,0,0,0,0,0,0,0
FI,Finland,country,Europe and Central Asia,61.92411,25.748151,US,USA,country,North America,37.09024,-95.712891,7832.06184142534,1988,16272,1228,0,310,0,0,0,0,16,0,7,398,1724,0,0,1540,0,1487,9530,32,0,0,0,0
FR,France,country,Europe and Central Asia,46.227638,2.213749,US,USA,country,North America,37.09024,-95.712891,7674.17131253648,1988,336020,4589,212,22725,49,129,2973,6012,5241,601,562,6994,3539,4125,3021,266300,0,93,8518,337,0,0,0,0
PF,French Polynesia,country,East Asia and Pacific,-17.679742,-149.406843,US,USA,country,North America,37.09024,-95.712891,8295.8691929679,1988,19,0,0,0,0,0,16,0,0,0,3,0,0,0,0,0,0,0,0,0,0,0,0,0
GA,Gabon,country,Sub-Saharan Africa,-0.803689,11.609444,US,USA,country,North America,37.09024,-95.712891,11603.6829840653,1988,7525,0,0,7503,0,0,0,0,0,0,0,0,16,0,0,6,0,0,0,0,0,0,0,0
GH,Ghana,country,Sub-Saharan Africa,7.946527,-1.023194,US,USA,country,North America,37.09024,-95.712891,9898.95306641973,1988,13998,0,0,0,0,0,0,2,0,0,0,0,13930,0,29,37,0,0,0,0,0,0,0,0
GI,Gibraltar,country,Europe and Central Asia,36.137741,-5.345374,US,USA,country,North America,37.09024,-95.712891,7727.78742114297,1988,82,0,0,0,0,0,0,67,0,0,0,0,0,0,0,15,0,0,0,0,0,0,0,0
GR,Greece,country,Europe and Central Asia,39.074208,21.824312,US,USA,country,North America,37.09024,-95.712891,9419.41576295611,1988,63656,1420,0,27,14,0,5363,11787,27979,793,340,61,195,10906,751,2532,0,0,1488,0,0,0,0,0
GL,Greenland,country,Europe and Central Asia,71.706936,-42.604303,US,USA,country,North America,37.09024,-95.712891,4865.32129217747,1988,2,0,0,0,0,0,0,2,0,0,0,0,0,0,0,0,0,0,0,0,0,0,0,0
GD,Grenada,country,Latin America and the Caribbean,12.262776,-61.604171,US,USA,country,North America,37.09024,-95.712891,4378.43015582348,1988,718,0,0,0,0,0,0,0,9,0,106,0,603,0,0,0,0,0,0,0,0,0,0,0
GP,Guadeloupe,country,Latin America and the Caribbean,16.995971,-62.067641,US,USA,country,North America,37.09024,-95.712891,3982.23269396315,1988,94,0,0,0,0,0,0,0,0,0,0,0,0,0,0,94,0,0,0,0,0,0,0,0
GT,Guatemala,country,Latin America and the Caribbean,15.783471,-90.230759,US,USA,country,North America,37.09024,-95.712891,2432.74402422745,1988,513441,31,0,192916,14,297,4850,44469,215794,0,258,0,37714,6490,0,192,0,10374,0,42,0,0,0,0
GN,Guinea,country,Sub-Saharan Africa,9.945587,-9.696645,US,USA,country,North America,37.09024,-95.712891,9001.9640041232,1988,1569,0,0,0,0,0,0,2,0,0,0,0,1567,0,0,0,0,0,0,0,0,0,0,0
GY,Guyana,country,Latin America and the Caribbean,4.860416,-58.93018,US,USA,country,North America,37.09024,-95.712891,5182.31178215859,1988,12491,0,0,12462,0,0,0,0,0,0,0,0,0,0,0,29,0,0,0,0,0,0,0,0
HT,Haiti,country,Latin America and the Caribbean,18.971187,-72.285215,US,USA,country,North America,37.09024,-95.712891,3044.47056674424,1988,27216,0,0,17372,0,0,0,230,7667,0,0,0,1582,160,0,109,0,0,6,90,0,0,0,0
VA,Vatican City,country,Europe and Central Asia,41.902916,12.453389,US,USA,country,North America,37.09024,-95.712891,8619.20388829099,1988,10,0,0,0,0,0,0,0,0,0,0,10,0,0,0,0,0,0,0,0,0,0,0,0
HN,Honduras,country,Latin America and the Caribbean,15.199999,-86.241905,US,USA,country,North America,37.09024,-95.712891,2610.4544004986,1988,724912,8,0,29177,0,37,530,22962,651356,0,378,0,9496,1226,0,77,0,9659,6,0,0,0,0,0
HU,Hungary,country,Europe and Central Asia,47.162494,19.503304,US,USA,country,North America,37.09024,-95.712891,8661.74794658267,1988,32019,1395,0,2638,20,13,84,7111,2123,0,792,156,209,148,0,1443,0,14537,1350,0,0,0,0,0
IS,Iceland,country,Europe and Central Asia,64.963051,-19.020835,US,USA,country,North America,37.09024,-95.712891,5719.9336237285,1988,330,0,0,8,0,0,0,18,15,0,0,0,15,0,0,60,0,25,189,0,0,0,0,0
IN,India,country,South Asia,20.593684,78.96288,US,USA,country,North America,37.09024,-95.712891,13591.878332668,1988,66732,10191,5,7163,1430,11820,10,706,738,3212,11164,2003,11225,2685,4017,356,0,6,0,1,0,0,0,0
ID,Indonesia,country,East Asia and Pacific,-0.789275,113.921327,US,USA,country,North America,37.09024,-95.712891,14978.5673165406,1988,712860,448,0,10417,0,447,77,3988,5939,625,26997,0,60668,531076,72021,61,8,95,0,1,0,0,0,0
IR,Iran,country,Middle East and North Africa,32.427908,53.688046,US,USA,country,North America,37.09024,-95.712891,11670.9538579968,1988,367,0,0,0,0,40,0,0,259,0,0,0,0,0,0,0,0,0,0,68,0,0,0,0
IQ,Iraq,country,Middle East and North Africa,33.223191,43.679291,US,USA,country,North America,37.09024,-95.712891,11148.3327753548,1988,332,0,0,0,0,0,0,0,322,0,0,0,0,0,0,10,0,0,0,0,0,0,0,0
IE,Ireland,country,Europe and Central Asia,53.41291,-8.24389,US,USA,country,North America,37.09024,-95.712891,6640.55458013614,1988,42092,594,0,1244,122,0,0,665,171,37,0,4916,4169,61,60,27805,0,292,1903,53,0,0,0,0
IL,Israel,country,Middle East and North Africa,31.046051,34.851612,US,USA,country,North America,37.09024,-95.712891,10872.2085041883,1988,36683,1759,0,1280,32,29,398,14782,12278,45,302,1213,657,189,61,1936,0,756,966,0,0,0,0,0
IT,Italy,country,Europe and Central Asia,41.87194,12.56738,US,USA,country,North America,37.09024,-95.712891,8628.71032590973,1988,366975,62920,0,11190,8,3642,312,54649,3218,296,50,267,3174,5996,59017,147151,0,44,14871,170,0,0,0,0
JM,Jamaica,country,Latin America and the Caribbean,18.109581,-77.297508,US,USA,country,North America,37.09024,-95.712891,2775.49878559896,1988,26487,392,0,11534,0,0,170,1768,4234,0,397,1530,334,243,9,5764,0,0,112,0,0,0,0,0
JP,Japan,country,East Asia and Pacific,36.204824,138.252924,US,USA,country,North America,37.09024,-95.712891,10161.8071431089,1988,71200,9281,66,723,73,29,6021,2623,8872,50,249,5032,1338,5055,3986,27718,0,72,12,0,0,0,0,0
JO,Jordan,country,Middle East and North Africa,30.585164,36.238414,US,USA,country,North America,37.09024,-95.712891,10993.351572571,1988,30,0,0,2,0,0,0,0,4,0,4,0,0,0,2,0,0,0,18,0,0,0,0,0
KE,Kenya,country,Sub-Saharan Africa,-0.023559,37.906193,US,USA,country,North America,37.09024,-95.712891,13737.2826494317,1988,17151,3,0,0,418,1156,0,158,0,0,14,0,14793,124,0,461,0,0,14,10,0,0,0,0
KI,Kiribati,country,East Asia and Pacific,-3.370417,-168.734039,US,USA,country,North America,37.09024,-95.712891,8753.45952575571,1988,349,0,0,38,0,8,0,73,19,0,0,0,208,0,0,0,0,0,0,3,0,0,0,0
LA,Lao PDR,country,East Asia and Pacific,19.85627,102.495496,US,USA,country,North America,37.09024,-95.712891,13416.3306808657,1988,181,0,0,0,0,0,0,0,0,0,0,0,173,0,0,0,0,8,0,0,0,0,0,0
LB,Lebanon,country,Middle East and North Africa,33.854721,35.862285,US,USA,country,North America,37.09024,-95.712891,10680.9254392285,1988,3795,54,0,260,81,35,37,249,80,0,91,0,16,2406,225,261,0,0,0,0,0,0,0,0
LS,Lesotho,country,Sub-Saharan Africa,-29.609988,28.233608,US,USA,country,North America,37.09024,-95.712891,14833.8744197471,1988,104,0,0,0,0,0,0,0,0,104,0,0,0,0,0,0,0,0,0,0,0,0,0,0
LR,Liberia,country,Sub-Saharan Africa,6.428055,-9.429499,US,USA,country,North America,37.09024,-95.712891,9258.59871915808,1988,61205,0,0,29,0,0,0,0,0,0,0,0,204,60808,164,0,0,0,0,0,0,0,0,0
LI,Liechtenstein,country,Europe and Central Asia,47.166,9.555373,US,USA,country,North America,37.09024,-95.712891,8079.17543337852,1988,35,0,0,0,0,0,0,17,0,0,0,0,0,0,18,0,0,0,0,0,0,0,0,0
MG,Madagascar,country,Sub-Saharan Africa,-18.766947,46.869107,US,USA,country,North America,37.09024,-95.712891,15868.5436718364,1988,6331,0,0,5278,0,0,0,0,0,0,800,0,214,39,0,0,0,0,0,0,0,0,0,0
MW,Malawi,country,Sub-Saharan Africa,-13.254308,34.301525,US,USA,country,North America,37.09024,-95.712891,14427.6584598012,1988,16923,0,0,9113,244,119,0,31,0,0,76,0,1645,5695,0,0,0,0,0,0,0,0,0,0
MY,Malaysia,country,East Asia and Pacific,4.210484,101.975766,US,USA,country,North America,37.09024,-95.712891,15087.3757402785,1988,513407,57,295,32,9,16,1335,131,5002,0,1514,0,40082,139380,325383,171,0,0,0,0,0,0,0,0
MV,Maldives,country,South Asia,3.202778,73.22068,US,USA,country,North America,37.09024,-95.712891,15407.9575619402,1988,132,0,0,0,0,0,0,0,0,29,0,0,13,90,0,0,0,0,0,0,0,0,0,0
ML,Mali,country,Sub-Saharan Africa,17.570692,-3.996166,US,USA,country,North America,37.09024,-95.712891,8998.53409002115,1988,75,0,0,0,0,0,22,0,0,0,0,0,53,0,0,0,0,0,0,0,0,0,0,0
MT,Malta,country,Middle East and North Africa,35.937496,14.375416,US,USA,country,North America,37.09024,-95.712891,9173.63894024064,1988,505,0,0,0,0,0,0,0,0,0,0,0,0,0,505,0,0,0,0,0,0,0,0,0
MR,Mauritania,country,Sub-Saharan Africa,21.00789,-10.940835,US,USA,country,North America,37.09024,-95.712891,8181.73964042956,1988,20,0,0,0,0,0,20,0,0,0,0,0,0,0,0,0,0,0,0,0,0,0,0,0
MU,Mauritius,country,Sub-Saharan Africa,-20.348404,57.552152,US,USA,country,North America,37.09024,-95.712891,16849.4559877056,1988,53319,0,0,53149,0,32,0,106,0,0,0,0,23,0,0,5,0,4,0,0,0,0,0,0
MX,Mexico,country,Latin America and the Caribbean,23.634501,-102.552784,US,USA,country,North America,37.09024,-95.712891,1634.35580586104,1988,2646945,19706,28,265261,10982,7134,28084,1460565,397856,5473,8122,3975,116696,8200,8379,305734,0,12,30,630,78,0,0,0
MN,Mongolia,country,East Asia and Pacific,46.862496,103.846656,US,USA,country,North America,37.09024,-95.712891,10490.3678831785,1988,184,17,0,0,0,0,13,0,12,127,7,0,8,0,0,0,0,0,0,0,0,0,0,0
MS,Montserrat,country,Latin America and the Caribbean,16.7425,-62.1874,US,USA,country,North America,37.09024,-95.712891,3991.14252824769,1988,19,0,0,2,0,0,0,0,0,0,0,0,17,0,0,0,0,0,0,0,0,0,0,0
MA,Morocco,country,Middle East and North Africa,31.791702,-7.09262,US,USA,country,North America,37.09024,-95.712891,7846.4225823721,1988,4899,0,0,19,0,2,1155,1475,140,0,1253,0,0,7,774,74,0,0,0,0,0,0,0,0
MZ,Mozambique,country,Sub-Saharan Africa,-18.665695,35.529562,US,USA,country,North America,37.09024,-95.712891,14886.4237045166,1988,15321,0,0,11626,0,3429,0,168,16,13,0,0,67,0,0,2,0,0,0,0,0,0,0,0
MM,Myanmar,country,East Asia and Pacific,21.913965,95.956223,US,USA,country,North America,37.09024,-95.712891,13355.9809098561,1988,0,0,0,0,0,0,0,0,0,0,0,0,0,0,0,0,0,0,0,0,0,0,0,0
NA,Namibia,country,Sub-Saharan Africa,-22.95764,18.49041,US,USA,country,North America,37.09024,-95.712891,13629.5158472508,1988,24,0,0,0,0,0,0,0,0,0,0,0,17,0,0,7,0,0,0,0,0,0,0,0
NR,Nauru,country,East Asia and Pacific,-0.522778,166.931503,US,USA,country,North America,37.09024,-95.712891,10706.5256536018,1988,16,16,0,0,0,0,0,0,0,0,0,0,0,0,0,0,0,0,0,0,0,0,0,0
NP,Nepal,country,South Asia,28.394857,84.124008,US,USA,country,North America,37.09024,-95.712891,12747.7207595067,1988,0,0,0,0,0,0,0,0,0,0,0,0,0,0,0,0,0,0,0,0,0,0,0,0
NL,Netherlands,country,Europe and Central Asia,52.132633,5.291266,US,USA,country,North America,37.09024,-95.712891,7514.49450150191,1988,489334,3708,124,61862,103,316,1720,9975,7086,238,2113,2432,40455,1269,29567,312785,31,6807,8209,565,0,0,0,0
NC,New Caledonia,country,East Asia and Pacific,-20.904305,165.618042,US,USA,country,North America,37.09024,-95.712891,12146.8611395984,1988,18,0,0,0,0,0,0,0,0,0,0,0,18,0,0,0,0,0,0,0,0,0,0,0
NZ,New Zealand,country,East Asia and Pacific,-40.900557,174.885971,US,USA,country,North America,37.09024,-95.712891,12564.0565528273,1988,317979,1849,0,48,837,0,0,1868,46954,10634,24,2387,24,14,106,4115,0,223612,23141,2366,0,0,0,0
NI,Nicaragua,country,Latin America and the Caribbean,12.865416,-85.207229,US,USA,country,North America,37.09024,-95.712891,2892.67151899733,1988,651,0,0,0,0,0,20,0,0,0,0,0,1,630,0,0,0,0,0,0,0,0,0,0
NE,Niger,country,Sub-Saharan Africa,17.607789,8.081666,US,USA,country,North America,37.09024,-95.712891,10011.4917303107,1988,193,0,0,0,0,0,0,3,0,0,12,0,0,0,0,3,0,175,0,0,0,0,0,0
NG,Nigeria,country,Sub-Saharan Africa,9.081999,8.675277,US,USA,country,North America,37.09024,-95.712891,10661.0874959799,1988,25243,0,0,0,0,0,136,4,0,0,215,0,20942,3762,0,0,0,0,0,184,0,0,0,0
NU,Niue,country,East Asia and Pacific,-19.054445,-169.867233,US,USA,country,North America,37.09024,-95.712891,9961.41893536537,1988,103,0,0,0,0,0,0,0,0,0,0,0,0,0,0,0,0,103,0,0,0,0,0,0
NF,Norfolk Island,country,East Asia and Pacific,-29.040835,167.954712,US,USA,country,North America,37.09024,-95.712891,12433.869106588,1988,60,0,0,0,0,0,0,0,0,0,0,0,0,0,0,60,0,0,0,0,0,0,0,0
NO,Norway,country,Europe and Central Asia,60.472024,8.468946,US,USA,country,North America,37.09024,-95.712891,7194.85324423004,1988,10580,2058,0,1,0,0,0,0,0,0,17,92,35,0,362,958,0,0,7037,20,0,0,0,0
PK,Pakistan,country,South Asia,30.375321,69.345116,US,USA,country,North America,37.09024,-95.712891,12367.4065672626,1988,29081,918,0,21284,0,15,0,168,3000,29,3646,0,0,0,0,2,0,0,19,0,0,0,0,0
PA,Panama,country,Latin America and the Caribbean,8.537981,-80.782127,US,USA,country,North America,37.09024,-95.712891,3517.43456042857,1988,195277,32,0,4799,0,0,213,9283,176446,0,2,0,3821,656,0,25,0,0,0,0,0,0,0,0
PG,Papua New Guinea,country,East Asia and Pacific,-6.314993,143.95555,US,USA,country,North America,37.09024,-95.712891,13115.8723069308,1988,18549,3,0,7512,0,0,2,0,2,0,1,0,8847,47,2129,6,0,0,0,0,0,0,0,0
PY,Paraguay,country,Latin America and the Caribbean,-23.442503,-58.443832,US,USA,country,North America,37.09024,-95.712891,7789.21764432307,1988,29376,0,0,12778,0,0,0,0,18,0,0,12365,2758,457,1000,0,0,0,0,0,0,0,0,0
PE,Peru,country,Latin America and the Caribbean,-9.189967,-75.015152,US,USA,country,North America,37.09024,-95.712891,5586.58660342723,1988,80190,116,2,43705,893,500,4,1455,1135,17,87,0,31599,169,0,502,0,0,0,6,0,0,0,0
PH,Philippines,country,East Asia and Pacific,12.879721,121.774017,US,USA,country,North America,37.09024,-95.712891,13230.9559540651,1988,845780,2766,1,135729,9,503,41927,309,235372,5749,3,0,20578,5745,393460,3520,0,109,0,0,0,0,0,0
PL,Poland,country,Europe and Central Asia,51.919438,19.145136,US,USA,country,North America,37.09024,-95.712891,8289.00813883866,1988,69365,18717,0,295,0,0,0,1304,6607,0,363,0,144,1009,661,274,0,38630,1361,0,0,0,0,0
PT,Portugal,country,Europe and Central Asia,39.399872,-8.224454,US,USA,country,North America,37.09024,-95.712891,7325.69316074389,1988,29428,374,0,12,91,183,435,5773,1093,0,0,0,32,12,639,17068,0,0,3716,0,0,0,0,0
QA,Qatar,country,Middle East and North Africa,25.354826,51.183884,US,USA,country,North America,37.09024,-95.712891,12269.4355771819,1988,63,0,0,63,0,0,0,0,0,0,0,0,0,0,0,0,0,0,0,0,0,0,0,0
KR,"Korea, Rep.",country,East Asia and Pacific,35.907757,127.766922,US,USA,country,North America,37.09024,-95.712891,10754.6834489747,1988,32806,5234,0,881,137,159,454,2878,11839,40,269,142,141,2920,30,7666,0,15,0,1,0,0,0,0
RE,Reunion,country,Sub-Saharan Africa,-21.115141,55.536384,US,USA,country,North America,37.09024,-95.712891,16744.3989522372,1988,2,0,0,0,0,0,0,0,0,0,0,0,0,2,0,0,0,0,0,0,0,0,0,0
RO,Romania,country,Europe and Central Asia,45.943161,24.96676,US,USA,country,North America,37.09024,-95.712891,9055.98983405594,1988,7269,0,0,0,0,34,0,102,18,0,650,0,0,0,0,1824,0,4391,250,0,0,0,0,0
RW,Rwanda,country,Sub-Saharan Africa,-1.940278,29.873888,US,USA,country,North America,37.09024,-95.712891,13243.7015699809,1988,4306,0,0,0,0,0,0,0,0,0,0,0,4176,130,0,0,0,0,0,0,0,0,0,0
KN,St. Kitts and Nevis,country,Latin America and the Caribbean,17.357822,-62.782998,US,USA,country,North America,37.09024,-95.712891,3898.35313229081,1988,8587,0,0,8586,0,0,0,0,0,0,0,0,0,0,0,1,0,0,0,0,0,0,0,0
LC,St. Lucia,country,Latin America and the Caribbean,13.909444,-60.978893,US,USA,country,North America,37.09024,-95.712891,4299.26244035927,1988,255,0,0,0,0,0,0,9,217,0,0,0,29,0,0,0,0,0,0,0,0,0,0,0
VC,St. Vincent & Grenadines,country,Latin America and the Caribbean,12.984305,-61.287228,US,USA,country,North America,37.09024,-95.712891,4346.40943315167,1988,1300,0,82,0,0,0,0,2,0,0,2,1214,0,0,0,0,0,0,0,0,0,0,0,0
WS,Samoa,country,East Asia and Pacific,-13.759029,-172.104629,US,USA,country,North America,37.09024,-95.712891,9770.82529671588,1988,1702,0,0,0,0,0,0,1,13,0,0,0,187,0,1501,0,0,0,0,0,0,0,0,0
ST,Sao Tome and Principe,country,Sub-Saharan Africa,0.18636,6.613081,US,USA,country,North America,37.09024,-95.712891,11097.4722895413,1988,162,0,0,0,0,0,0,0,0,0,0,0,0,162,0,0,0,0,0,0,0,0,0,0
SA,Saudi Arabia,country,Middle East and North Africa,23.885942,45.079162,US,USA,country,North America,37.09024,-95.712891,12102.7724748303,1988,30,0,0,3,0,0,0,0,27,0,0,0,0,0,0,0,0,0,0,0,0,0,0,0
SN,Senegal,country,Sub-Saharan Africa,14.497401,-14.452362,US,USA,country,North America,37.09024,-95.712891,8286.18527990894,1988,6619,0,0,0,0,0,8,1,16,0,0,6579,15,0,0,0,0,0,0,0,0,0,0,0
SC,Seychelles,country,Sub-Saharan Africa,-4.679574,55.491977,US,USA,country,North America,37.09024,-95.712891,15388.6144185058,1988,9,0,0,0,0,0,0,0,0,0,0,0,0,0,0,9,0,0,0,0,0,0,0,0
SL,Sierra Leone,country,Sub-Saharan Africa,8.460555,-11.779889,US,USA,country,North America,37.09024,-95.712891,8915.45421533275,1988,62,0,0,0,0,0,0,8,0,0,11,0,0,0,43,0,0,0,0,0,0,0,0,0
SG,Singapore,country,East Asia and Pacific,1.352083,103.819836,US,USA,country,North America,37.09024,-95.712891,15307.0297650791,1988,38851,778,78,20,0,68,234,163,4866,0,315,13,10348,8426,4835,8692,0,0,15,0,0,0,0,0
SB,Solomon Islands,country,East Asia and Pacific,-9.64571,160.156194,US,USA,country,North America,37.09024,-95.712891,11915.6472964443,1988,0,0,0,0,0,0,0,0,0,0,0,0,0,0,0,0,0,0,0,0,0,0,0,0
SO,Somalia,country,Sub-Saharan Africa,5.152149,46.199616,US,USA,country,North America,37.09024,-95.712891,13896.0009416821,1988,12,0,0,0,0,0,0,0,0,0,0,0,0,0,0,12,0,0,0,0,0,0,0,0
ZA,S. Africa,country,Sub-Saharan Africa,-30.559482,22.937506,US,USA,country,North America,37.09024,-95.712891,14414.8988246973,1988,2444,0,0,0,0,0,0,0,0,0,0,0,1064,1380,0,0,0,0,0,0,0,0,0,0
ES,Spain,country,Europe and Central Asia,40.463667,-3.74922,US,USA,country,North America,37.09024,-95.712891,7597.41810045668,1988,239763,2155,0,4959,1,126,72284,51295,43238,71,4959,40,4420,284,24090,31602,0,0,148,91,0,0,0,0
LK,Sri Lanka,country,South Asia,7.873054,80.771797,US,USA,country,North America,37.09024,-95.712891,15018.8123647166,1988,20398,0,0,0,0,53,283,0,0,0,1055,0,6556,12451,0,0,0,0,0,0,0,0,0,0
SD,Sudan,country,Sub-Saharan Africa,12.862807,30.217636,US,USA,country,North America,37.09024,-95.712891,12110.3441413662,1988,579,0,0,0,0,0,0,0,0,0,0,0,0,0,0,0,0,5,0,574,0,0,0,0
SR,Suriname,country,Latin America and the Caribbean,3.919305,-56.027783,US,USA,country,North America,37.09024,-95.712891,5474.92375121958,1988,243,0,0,0,0,0,0,0,180,0,63,0,0,0,0,0,0,0,0,0,0,0,0,0
SZ,Swaziland,country,Sub-Saharan Africa,-26.522503,31.465866,US,USA,country,North America,37.09024,-95.712891,14969.8457935729,1988,30753,4,0,29799,0,0,0,0,947,0,0,0,0,3,0,0,0,0,0,0,0,0,0,0
SE,Sweden,country,Europe and Central Asia,60.128161,18.643501,US,USA,country,North America,37.09024,-95.712891,7676.0483915986,1988,206944,174710,0,2105,6,0,15,314,378,0,35,1357,1962,549,428,12080,0,11596,1361,48,0,0,0,0
CH,Switzerland,country,Europe and Central Asia,46.818188,8.227512,US,USA,country,North America,37.09024,-95.712891,8020.18062133206,1988,33300,1440,0,402,72,54,415,1620,2004,13,74,437,5650,110,9988,6561,0,100,4357,3,0,0,0,0
SY,Syrian Arab Rep.,country,Middle East and North Africa,34.802075,38.996815,US,USA,country,North America,37.09024,-95.712891,10764.1747503364,1988,3470,0,0,0,0,0,0,0,3,3081,3,0,345,0,0,0,0,0,0,38,0,0,0,0
TH,Thailand,country,East Asia and Pacific,15.870032,100.992541,US,USA,country,North America,37.09024,-95.712891,13887.0204065045,1988,497598,106197,159,13060,2096,429,1535,22159,236243,532,474,7806,17819,83171,1755,3642,0,14,93,414,0,0,0,0
TG,Togo,country,Sub-Saharan Africa,8.619543,0.824782,US,USA,country,North America,37.09024,-95.712891,10015.0039164594,1988,0,0,0,0,0,0,0,0,0,0,0,0,0,0,0,0,0,0,0,0,0,0,0,0
TK,Tokelau,country,,-8.967363,-171.855881,US,USA,country,North America,37.09024,-95.712891,9413.78295393247,1988,1184,0,0,0,0,0,53,0,1114,0,0,0,0,0,0,0,0,17,0,0,0,0,0,0
TO,Tonga,country,East Asia and Pacific,-21.178986,-175.198242,US,USA,country,North America,37.09024,-95.712891,10543.2723750517,1988,8,0,0,0,0,0,0,0,0,0,8,0,0,0,0,0,0,0,0,0,0,0,0,0
TT,Trinidad and Tobago,country,Latin America and the Caribbean,10.691803,-61.222503,US,USA,country,North America,37.09024,-95.712891,4532.58682063172,1988,17679,12,0,7814,0,0,0,447,13,0,7,4100,880,0,13,4393,0,0,0,0,0,0,0,0
TN,Tunisia,country,Middle East and North Africa,33.886917,9.537499,US,USA,country,North America,37.09024,-95.712891,8980.5029084597,1988,2335,40,0,0,2,31,0,42,0,0,30,0,0,1,2174,0,0,15,0,0,0,0,0,0
TR,Turkey,country,Europe and Central Asia,38.963745,35.243322,US,USA,country,North America,37.09024,-95.712891,10193.0582278006,1988,71420,5231,0,1462,1644,3593,380,4011,5704,9448,5664,0,45,32924,728,251,0,6,329,0,0,0,0,0
UG,Uganda,country,Sub-Saharan Africa,1.373333,32.290275,US,USA,country,North America,37.09024,-95.712891,13186.904930472,1988,28924,0,0,0,0,0,0,0,0,0,0,0,28924,0,0,0,0,0,0,0,0,0,0,0
AE,United Arab Emirates,country,Middle East and North Africa,23.424076,53.847818,US,USA,country,North America,37.09024,-95.712891,12583.1774681464,1988,270,4,0,20,78,0,0,0,6,0,92,0,44,2,17,0,0,0,7,0,0,0,0,0
GB,United Kingdom,country,Europe and Central Asia,55.378051,-3.435973,US,USA,country,North America,37.09024,-95.712891,6838.05510555534,1988,203893,11972,156,19128,191,376,701,5014,2586,3505,103,3599,10673,1038,8336,132014,0,84,3852,565,0,0,0,0
TZ,Tanzania,country,Sub-Saharan Africa,-6.369028,34.888822,US,USA,country,North America,37.09024,-95.712891,13987.2584916769,1988,3259,0,0,0,0,996,0,0,0,0,80,0,1421,663,0,0,0,0,99,0,0,0,0,0
UY,Uruguay,country,Latin America and the Caribbean,-32.522779,-55.765835,US,USA,country,North America,37.09024,-95.712891,8790.38789248341,1988,10073,423,0,5114,0,0,0,18,7,1959,0,18,0,115,0,0,0,1878,541,0,0,0,0,0
RU,Russian Federation,country,Europe and Central Asia,61.52401,105.318756,US,USA,country,North America,37.09024,-95.712891,8896.03927504428,1988,8552,18,0,366,0,5,0,61,134,95,1,0,21,0,16,7753,0,0,0,82,0,0,0,0
VU,Vanuatu,country,East Asia and Pacific,-15.376706,166.959158,US,USA,country,North America,37.09024,-95.712891,11683.2360921439,1988,0,0,0,0,0,0,0,0,0,0,0,0,0,0,0,0,0,0,0,0,0,0,0,0
VE,Venezuela,country,Latin America and the Caribbean,6.42375,-66.58973,US,USA,country,North America,37.09024,-95.712891,4513.04520056102,1988,85887,293,0,65858,0,3,0,451,11538,0,0,0,5099,7,381,2257,0,0,0,0,0,0,0,0
BA,Bosnia & Herzegovina,country,Europe and Central Asia,43.915886,17.679076,US,USA,country,North America,37.09024,-95.712891,8798.48013527383,1988,17402,218,0,2918,0,0,0,4587,5159,0,0,136,1,0,4,4379,0,0,0,0,0,0,0,0
ZW,Zimbabwe,country,Sub-Saharan Africa,-19.015438,29.154857,US,USA,country,North America,37.09024,-95.712891,14346.391001393,1988,17297,0,0,10991,0,93,0,0,0,0,0,0,608,5591,0,0,0,0,0,14,0,0,0,0
AF,Afghanistan,country,South Asia,33.93911,67.709953,US,USA,country,North America,37.09024,-95.712891,11945.9354467417,1989,39,0,0,0,0,37,0,0,0,2,0,0,0,0,0,0,0,0,0,0,0,0,0,0
AL,Albania,country,Europe and Central Asia,41.153332,20.168331,US,USA,country,North America,37.09024,-95.712891,9157.04399623222,1989,10,0,0,0,0,0,0,0,0,0,10,0,0,0,0,0,0,0,0,0,0,0,0,0
DZ,Algeria,country,Middle East and North Africa,28.033886,1.659626,US,USA,country,North America,37.09024,-95.712891,8779.41026461201,1989,71,0,0,0,0,0,0,0,0,0,0,0,17,0,0,54,0,0,0,0,0,0,0,0
AG,Antigua & Barbuda,country,Latin America and the Caribbean,17.060816,-61.796428,US,USA,country,North America,37.09024,-95.712891,3999.38025584943,1989,125,0,0,0,0,0,0,125,0,0,0,0,0,0,0,0,0,0,0,0,0,0,0,0
AR,Argentina,country,Latin America and the Caribbean,-38.416097,-63.616672,US,USA,country,North America,37.09024,-95.712891,9027.78308395216,1989,475328,72206,0,124995,1366,112,12997,23808,123090,697,268,19550,17703,6939,18856,1353,0,46122,4848,418,0,0,0,0
AW,Aruba,country,Latin America and the Caribbean,12.52111,-69.968338,US,USA,country,North America,37.09024,-95.712891,3749.04564461343,1989,11,0,0,0,0,0,0,0,0,0,0,0,10,0,0,1,0,0,0,0,0,0,0,0
AU,Australia,country,East Asia and Pacific,-25.274398,133.775136,US,USA,country,North America,37.09024,-95.712891,15201.4934480637,1989,698524,11809,0,303355,4761,1221,2801,1153,3527,31749,120,26,4563,1512,1213,30690,0,291625,7545,854,0,0,0,0
AT,Austria,country,Europe and Central Asia,47.516231,14.550072,US,USA,country,North America,37.09024,-95.712891,8353.28397261787,1989,19849,1677,0,181,42,0,0,264,8672,0,0,0,714,53,5,775,0,17,7449,0,0,0,0,0
