sourceCode,sourceName,sourceGrouping,sourceRegion,sourceLat,sourceLong,destCode,destName,destGrouping,destRegion,destLat,destLong,year,totalTons,cereals,roots,sugarCrops,pulses,nuts,oilCrops,vegetables,fruits,fibers,spices,fodderCrops,coffeeTea,tobaccoRubber,oilsFats,beverages,livestock,animalMeats,animalProducts,animalHides,nimalOther,pesticides,fertilizers,machinery
AR,Argentina,country,Latin America and the Caribbean,-38.416097,-63.616672,GB,United Kingdom,country,Europe and Central Asia,55.378051,-3.435973,1986,5226,6,0,12,434,0,0,57,0,48,0,0,996,718,0,6,0,2949,0,0,0,0,0,0
AU,Australia,country,East Asia and Pacific,-25.274398,133.775136,GB,United Kingdom,country,Europe and Central Asia,55.378051,-3.435973,1986,983089,234206,0,3777,7889,75,1297,3623,21196,25862,12,600,50,650281,956,13027,0,16855,2514,869,0,0,0,0
AT,Austria,country,Europe and Central Asia,47.516231,14.550072,GB,United Kingdom,country,Europe and Central Asia,55.378051,-3.435973,1986,12220,5,0,0,265,0,0,117,39,9,20,15,1701,8604,0,45,0,7,1371,22,0,0,0,0
BS,The Bahamas,country,Latin America and the Caribbean,25.03428,-77.39628,GB,United Kingdom,country,Europe and Central Asia,55.378051,-3.435973,1986,650,0,0,0,0,0,0,0,0,0,0,0,0,54,0,596,0,0,0,0,0,0,0,0
BD,Bangladesh,country,South Asia,23.684994,90.356331,GB,United Kingdom,country,Europe and Central Asia,55.378051,-3.435973,1986,8361,0,0,0,0,0,0,1818,1025,0,3,0,5349,133,0,0,0,32,1,0,0,0,0,0
BB,Barbados,country,Latin America and the Caribbean,13.193887,-59.543198,GB,United Kingdom,country,Europe and Central Asia,55.378051,-3.435973,1986,50291,0,47,49650,0,0,0,27,36,0,0,0,0,35,0,496,0,0,0,0,0,0,0,0
BE,Belgium,country,Europe and Central Asia,50.503887,4.469936,GB,United Kingdom,country,Europe and Central Asia,55.378051,-3.435973,1986,712754,134993,63900,4327,2676,104,72,60798,44837,10426,0,138041,8014,45750,146864,17422,0,14822,19018,690,0,0,0,0
BZ,Belize,country,Latin America and the Caribbean,17.189877,-88.49765,GB,United Kingdom,country,Europe and Central Asia,55.378051,-3.435973,1986,57109,0,0,42128,0,0,0,0,14937,0,0,0,0,44,0,0,0,0,0,0,0,0,0,0
BR,Brazil,country,Latin America and the Caribbean,-14.235004,-51.92528,GB,United Kingdom,country,Europe and Central Asia,55.378051,-3.435973,1986,115028,0,0,40943,0,4237,430,2636,8433,3108,1238,24000,15177,12137,2111,0,0,568,10,0,0,0,0,0
BG,Bulgaria,country,Europe and Central Asia,42.733883,25.48583,GB,United Kingdom,country,Europe and Central Asia,55.378051,-3.435973,1986,6328,0,0,476,0,0,0,3980,1871,0,0,0,0,0,0,1,0,0,0,0,0,0,0,0
CM,Cameroon,country,Sub-Saharan Africa,7.369722,12.354722,GB,United Kingdom,country,Europe and Central Asia,55.378051,-3.435973,1986,1570,0,0,0,0,10,0,0,260,837,0,0,444,19,0,0,0,0,0,0,0,0,0,0
CA,Canada,country,North America,56.130366,-106.346771,GB,United Kingdom,country,Europe and Central Asia,55.378051,-3.435973,1986,648983,496106,4016,833,33931,29,17155,5001,17555,98,1099,18234,27,24480,3066,2414,17,21335,3053,551,0,0,0,0
CL,Chile,country,Latin America and the Caribbean,-35.675147,-71.542969,GB,United Kingdom,country,Europe and Central Asia,55.378051,-3.435973,1986,41532,0,211,6234,2280,0,5,7122,21457,1517,7,0,0,2576,0,123,0,0,0,0,0,0,0,0
HK,Hong Kong,country,East Asia and Pacific,22.396428,114.109497,GB,United Kingdom,country,Europe and Central Asia,55.378051,-3.435973,1986,19085,1343,27,163,108,1891,5035,2420,1471,3517,522,66,68,1957,164,333,0,0,0,0,0,0,0,0
TW,Taiwan,country,East Asia and Pacific,23.69781,120.960515,GB,United Kingdom,country,Europe and Central Asia,55.378051,-3.435973,1986,7968,139,0,16,0,0,5,5943,601,60,410,3,138,506,60,83,0,4,0,0,0,0,0,0
CO,Colombia,country,Latin America and the Caribbean,4.570868,-74.297333,GB,United Kingdom,country,Europe and Central Asia,55.378051,-3.435973,1986,32106,0,0,0,0,0,0,85,1834,4044,0,0,23718,2425,0,0,0,0,0,0,0,0,0,0
CR,Costa Rica,country,Latin America and the Caribbean,9.748917,-83.753428,GB,United Kingdom,country,Europe and Central Asia,55.378051,-3.435973,1986,13175,0,673,29,0,0,549,423,1793,0,151,0,9371,186,0,0,0,0,0,0,0,0,0,0
CU,Cuba,country,Latin America and the Caribbean,21.521757,-77.781167,GB,United Kingdom,country,Europe and Central Asia,55.378051,-3.435973,1986,30,0,0,0,0,0,0,0,0,0,0,0,0,30,0,0,0,0,0,0,0,0,0,0
CY,Cyprus,country,Europe and Central Asia,35.126413,33.429859,GB,United Kingdom,country,Europe and Central Asia,55.378051,-3.435973,1986,185780,21,98497,1,13,0,14,8067,70347,481,0,471,103,223,634,6781,0,0,127,0,0,0,0,0
DK,Denmark,country,Europe and Central Asia,56.26392,9.501785,GB,United Kingdom,country,Europe and Central Asia,55.378051,-3.435973,1986,730287,152323,0,45379,258,0,39899,1619,4032,15,37,70198,608,61267,58576,6156,828,240665,45502,3689,64,0,0,0
EG,Egypt,country,Middle East and North Africa,26.820553,30.802498,GB,United Kingdom,country,Europe and Central Asia,55.378051,-3.435973,1986,86262,3,61874,17402,0,0,10,3903,280,2032,19,0,0,667,72,0,0,0,0,0,0,0,0,0
FO,Faroe Islands,country,Europe and Central Asia,61.892635,-6.911806,GB,United Kingdom,country,Europe and Central Asia,55.378051,-3.435973,1986,74,0,0,0,0,0,0,0,0,0,0,0,0,74,0,0,0,0,0,0,0,0,0,0
FJ,Fiji,country,East Asia and Pacific,-16.578193,179.414413,GB,United Kingdom,country,Europe and Central Asia,55.378051,-3.435973,1986,227144,0,0,224198,0,0,495,0,16,0,39,299,240,0,1857,0,0,0,0,0,0,0,0,0
FI,Finland,country,Europe and Central Asia,61.92411,25.748151,GB,United Kingdom,country,Europe and Central Asia,55.378051,-3.435973,1986,21685,11878,0,393,0,0,0,4,0,132,0,89,1758,723,3736,214,0,702,2005,51,0,0,0,0
FR,France,country,Europe and Central Asia,46.227638,2.213749,GB,United Kingdom,country,Europe and Central Asia,55.378051,-3.435973,1986,2741436,1785199,23570,18087,1413,760,91676,128520,299477,4727,83,90636,10945,56183,27104,130194,19,53065,18375,1240,182,0,0,0
GR,Greece,country,Europe and Central Asia,39.074208,21.824312,GB,United Kingdom,country,Europe and Central Asia,55.378051,-3.435973,1986,339171,91889,13477,363,0,214,22763,46634,141008,656,0,16258,0,1093,1758,1082,0,0,1974,2,0,0,0,0
GT,Guatemala,country,Latin America and the Caribbean,15.783471,-90.230759,GB,United Kingdom,country,Europe and Central Asia,55.378051,-3.435973,1986,3206,0,0,282,0,0,578,345,243,44,149,0,1542,23,0,0,0,0,0,0,0,0,0,0
HN,Honduras,country,Latin America and the Caribbean,15.199999,-86.241905,GB,United Kingdom,country,Europe and Central Asia,55.378051,-3.435973,1986,1308,0,0,2,0,0,0,99,474,0,31,0,678,24,0,0,0,0,0,0,0,0,0,0
HU,Hungary,country,Europe and Central Asia,47.162494,19.503304,GB,United Kingdom,country,Europe and Central Asia,55.378051,-3.435973,1986,30585,2,0,261,1893,20,73,9603,7324,0,142,5731,1,0,0,2961,0,2574,0,0,0,0,0,0
IS,Iceland,country,Europe and Central Asia,64.963051,-19.020835,GB,United Kingdom,country,Europe and Central Asia,55.378051,-3.435973,1986,2113,0,0,0,0,0,0,0,0,1028,0,569,0,281,0,8,0,8,100,119,0,0,0,0
IN,India,country,South Asia,20.593684,78.96288,GB,United Kingdom,country,Europe and Central Asia,55.378051,-3.435973,1986,198988,15906,6,69,786,2878,307,3093,1451,4333,4714,106827,33709,24666,129,114,0,0,0,0,0,0,0,0
ID,Indonesia,country,East Asia and Pacific,-0.789275,113.921327,GB,United Kingdom,country,Europe and Central Asia,55.378051,-3.435973,1986,139523,8,0,20200,0,0,0,0,17,0,254,22499,13580,7910,74971,0,0,0,0,84,0,0,0,0
IE,Ireland,country,Europe and Central Asia,53.41291,-8.24389,GB,United Kingdom,country,Europe and Central Asia,55.378051,-3.435973,1986,1171553,263237,12356,71070,180,93,5336,13382,21895,7721,60,69462,50764,104178,44167,186930,3438,162384,122210,36107,21,0,0,0
IL,Israel,country,Middle East and North Africa,31.046051,34.851612,GB,United Kingdom,country,Europe and Central Asia,55.378051,-3.435973,1986,252270,619,800,294,0,41,44,33029,212460,3030,144,0,902,246,142,169,0,308,42,0,0,0,0,0
IT,Italy,country,Europe and Central Asia,41.87194,12.56738,GB,United Kingdom,country,Europe and Central Asia,55.378051,-3.435973,1986,895512,148475,5859,466,44,2132,9,302584,187115,5829,85,59190,1454,21372,10568,143712,0,3546,2879,172,21,0,0,0
JM,Jamaica,country,Latin America and the Caribbean,18.109581,-77.297508,GB,United Kingdom,country,Europe and Central Asia,55.378051,-3.435973,1986,162495,70,1255,126243,0,5,11,1464,27096,0,759,0,2104,63,0,3425,0,0,0,0,0,0,0,0
JP,Japan,country,East Asia and Pacific,36.204824,138.252924,GB,United Kingdom,country,Europe and Central Asia,55.378051,-3.435973,1986,170823,215,2,4,0,0,300,30,351,3308,0,64,19,166010,26,494,0,0,0,0,0,0,0,0
JO,Jordan,country,Middle East and North Africa,30.585164,36.238414,GB,United Kingdom,country,Europe and Central Asia,55.378051,-3.435973,1986,8420,0,0,0,0,0,0,131,8286,0,0,0,0,3,0,0,0,0,0,0,0,0,0,0
KE,Kenya,country,Sub-Saharan Africa,-0.023559,37.906193,GB,United Kingdom,country,Europe and Central Asia,55.378051,-3.435973,1986,116358,25,4,15582,16,17,0,12574,15486,86,21,3796,65618,292,0,143,0,527,34,2137,0,0,0,0
KW,Kuwait,country,Middle East and North Africa,29.31166,47.481766,GB,United Kingdom,country,Europe and Central Asia,55.378051,-3.435973,1986,956,0,0,4,18,0,0,31,16,218,0,0,0,4,0,0,0,0,665,0,0,0,0,0
MW,Malawi,country,Sub-Saharan Africa,-13.254308,34.301525,GB,United Kingdom,country,Europe and Central Asia,55.378051,-3.435973,1986,65872,90,0,11533,0,29,17240,0,1,15,88,0,31674,5202,0,0,0,0,0,0,0,0,0,0
MY,Malaysia,country,East Asia and Pacific,4.210484,101.975766,GB,United Kingdom,country,Europe and Central Asia,55.378051,-3.435973,1986,264115,34,99,12139,0,0,2323,1,7109,0,249,4231,3858,76905,157128,24,0,0,15,0,0,0,0,0
MX,Mexico,country,Latin America and the Caribbean,23.634501,-102.552784,GB,United Kingdom,country,Europe and Central Asia,55.378051,-3.435973,1986,107316,15,0,99826,0,4,214,2736,2043,0,10,32,1431,317,0,528,0,160,0,0,0,0,0,0
MA,Morocco,country,Middle East and North Africa,31.791702,-7.09262,GB,United Kingdom,country,Europe and Central Asia,55.378051,-3.435973,1986,54522,53,3653,3000,165,248,204,2544,40371,0,2013,1100,0,1137,0,34,0,0,0,0,0,0,0,0
NL,Netherlands,country,Europe and Central Asia,52.132633,5.291266,GB,United Kingdom,country,Europe and Central Asia,55.378051,-3.435973,1986,2082715,121727,261875,26420,4164,585,9625,354340,104063,1653,788,584012,28012,114222,177082,63764,5,169073,59358,1879,73,0,0,0
NZ,New Zealand,country,East Asia and Pacific,-40.900557,174.885971,GB,United Kingdom,country,Europe and Central Asia,55.378051,-3.435973,1986,298777,68,0,110,4726,0,0,790,30571,33396,0,6150,9,5,2714,391,0,140171,79107,569,0,0,0,0
NG,Nigeria,country,Sub-Saharan Africa,9.081999,8.675277,GB,United Kingdom,country,Europe and Central Asia,55.378051,-3.435973,1986,93911,0,505,0,0,135,4503,0,35,0,203,0,68150,20317,11,33,0,0,0,19,0,0,0,0
NO,Norway,country,Europe and Central Asia,60.472024,8.468946,GB,United Kingdom,country,Europe and Central Asia,55.378051,-3.435973,1986,10058,375,0,0,0,0,3,0,62,2956,0,1242,5,1524,1331,69,0,1,621,1793,76,0,0,0
OM,Oman,country,Middle East and North Africa,21.512583,55.923255,GB,United Kingdom,country,Europe and Central Asia,55.378051,-3.435973,1986,228,64,0,0,0,0,0,0,116,0,0,14,0,13,0,21,0,0,0,0,0,0,0,0
PA,Panama,country,Latin America and the Caribbean,8.537981,-80.782127,GB,United Kingdom,country,Europe and Central Asia,55.378051,-3.435973,1986,1050,0,5,0,0,0,0,41,986,0,18,0,0,0,0,0,0,0,0,0,0,0,0,0
PG,Papua New Guinea,country,East Asia and Pacific,-6.314993,143.95555,GB,United Kingdom,country,Europe and Central Asia,55.378051,-3.435973,1986,144253,0,0,0,0,0,23629,0,0,0,28,0,4160,60,116374,2,0,0,0,0,0,0,0,0
PY,Paraguay,country,Latin America and the Caribbean,-23.442503,-58.443832,GB,United Kingdom,country,Europe and Central Asia,55.378051,-3.435973,1986,352,0,0,0,0,0,0,0,0,0,0,0,0,11,0,0,0,341,0,0,0,0,0,0
PE,Peru,country,Latin America and the Caribbean,-9.189967,-75.015152,GB,United Kingdom,country,Europe and Central Asia,55.378051,-3.435973,1986,1348,0,0,0,28,0,0,67,772,388,27,0,0,66,0,0,0,0,0,0,0,0,0,0
PH,Philippines,country,East Asia and Pacific,12.879721,121.774017,GB,United Kingdom,country,Europe and Central Asia,55.378051,-3.435973,1986,39397,6,0,0,0,0,6579,3,13996,6252,0,4750,45,2808,3824,3,0,0,1131,0,0,0,0,0
PL,Poland,country,Europe and Central Asia,51.919438,19.145136,GB,United Kingdom,country,Europe and Central Asia,55.378051,-3.435973,1986,62286,0,0,12572,0,0,2226,21109,11937,135,0,0,0,15,0,460,0,6632,7200,0,0,0,0,0
PT,Portugal,country,Europe and Central Asia,39.399872,-8.224454,GB,United Kingdom,country,Europe and Central Asia,55.378051,-3.435973,1986,55867,18,22,0,0,644,16,9988,450,100,0,27986,1,92,436,16111,0,0,2,1,0,0,0,0
KR,"Korea, Rep.",country,East Asia and Pacific,35.907757,127.766922,GB,United Kingdom,country,Europe and Central Asia,55.378051,-3.435973,1986,6179,2,0,18,0,0,0,2,216,16,0,0,0,5908,15,2,0,0,0,0,0,0,0,0
RE,Reunion,country,Sub-Saharan Africa,-21.115141,55.536384,GB,United Kingdom,country,Europe and Central Asia,55.378051,-3.435973,1986,36300,0,0,36300,0,0,0,0,0,0,0,0,0,0,0,0,0,0,0,0,0,0,0,0
SG,Singapore,country,East Asia and Pacific,1.352083,103.819836,GB,United Kingdom,country,Europe and Central Asia,55.378051,-3.435973,1986,15523,582,0,1,0,102,3735,43,6290,0,1121,0,973,1752,250,670,0,2,2,0,0,0,0,0
SB,Solomon Islands,country,East Asia and Pacific,-9.64571,160.156194,GB,United Kingdom,country,Europe and Central Asia,55.378051,-3.435973,1986,18255,0,0,0,0,0,5451,0,0,0,0,0,81,0,12723,0,0,0,0,0,0,0,0,0
ES,Spain,country,Europe and Central Asia,40.463667,-3.74922,GB,United Kingdom,country,Europe and Central Asia,55.378051,-3.435973,1986,1172472,41830,39318,1005,33,2676,1626,493338,435575,2021,1060,24433,232,8983,44342,75553,0,376,14,57,0,0,0,0
LK,Sri Lanka,country,South Asia,7.873054,80.771797,GB,United Kingdom,country,Europe and Central Asia,55.378051,-3.435973,1986,37885,6,0,0,0,20,12342,10,17,41,804,850,15714,7826,250,0,0,0,0,5,0,0,0,0
SE,Sweden,country,Europe and Central Asia,60.128161,18.643501,GB,United Kingdom,country,Europe and Central Asia,55.378051,-3.435973,1986,28496,16803,0,451,0,0,83,1388,362,222,17,758,1442,1631,621,664,0,2921,46,1087,0,0,0,0
CH,Switzerland,country,Europe and Central Asia,46.818188,8.227512,GB,United Kingdom,country,Europe and Central Asia,55.378051,-3.435973,1986,8938,98,0,871,86,0,0,20,388,1690,0,147,2699,1261,8,302,0,36,1301,31,0,0,0,0
SY,Syrian Arab Rep.,country,Middle East and North Africa,34.802075,38.996815,GB,United Kingdom,country,Europe and Central Asia,55.378051,-3.435973,1986,4662,0,0,0,0,0,0,0,13,4649,0,0,0,0,0,0,0,0,0,0,0,0,0,0
TH,Thailand,country,East Asia and Pacific,15.870032,100.992541,GB,United Kingdom,country,Europe and Central Asia,55.378051,-3.435973,1986,388966,10111,2572,353283,4267,2,80,1836,8943,1970,44,0,0,5403,217,61,0,2,0,175,0,0,0,0
TO,Tonga,country,East Asia and Pacific,-21.178986,-175.198242,GB,United Kingdom,country,Europe and Central Asia,55.378051,-3.435973,1986,1000,0,0,0,0,0,1000,0,0,0,0,0,0,0,0,0,0,0,0,0,0,0,0,0
TT,Trinidad and Tobago,country,Latin America and the Caribbean,10.691803,-61.222503,GB,United Kingdom,country,Europe and Central Asia,55.378051,-3.435973,1986,56919,0,1,51130,0,2,0,91,10,0,60,0,558,3,0,5064,0,0,0,0,0,0,0,0
TR,Turkey,country,Europe and Central Asia,38.963745,35.243322,GB,United Kingdom,country,Europe and Central Asia,55.378051,-3.435973,1986,140297,625,333,87,10689,8427,142,9618,29716,19250,1023,0,1,60015,23,314,0,0,34,0,0,0,0,0
US,USA,country,North America,37.09024,-95.712891,GB,United Kingdom,country,Europe and Central Asia,55.378051,-3.435973,1986,1266637,166753,819,90192,75169,10984,530281,26589,45453,16260,346,206479,520,40031,17158,7572,47,30180,420,1431,0,0,0,0
UY,Uruguay,country,Latin America and the Caribbean,-32.522779,-55.765835,GB,United Kingdom,country,Europe and Central Asia,55.378051,-3.435973,1986,36309,0,0,0,0,0,0,0,11129,7765,0,0,0,0,0,0,0,17415,0,0,0,0,0,0
RU,Russian Federation,country,Europe and Central Asia,61.52401,105.318756,GB,United Kingdom,country,Europe and Central Asia,55.378051,-3.435973,1986,26418,0,0,0,0,0,0,0,0,26418,0,0,0,0,0,0,0,0,0,0,0,0,0,0
VE,Venezuela,country,Latin America and the Caribbean,6.42375,-66.58973,GB,United Kingdom,country,Europe and Central Asia,55.378051,-3.435973,1986,2803,0,0,0,0,0,0,37,2687,0,0,0,0,79,0,0,0,0,0,0,0,0,0,0
BA,Bosnia & Herzegovina,country,Europe and Central Asia,43.915886,17.679076,GB,United Kingdom,country,Europe and Central Asia,55.378051,-3.435973,1986,39821,11645,0,707,0,0,0,1041,4512,207,10,25,862,1845,0,18930,0,37,0,0,0,0,0,0
ZW,Zimbabwe,country,Sub-Saharan Africa,-19.015438,29.154857,GB,United Kingdom,country,Europe and Central Asia,55.378051,-3.435973,1986,62476,36,1,28228,56,0,435,6,160,28,9,0,9062,15996,0,0,0,8459,0,0,0,0,0,0
DZ,Algeria,country,Middle East and North Africa,28.033886,1.659626,GB,United Kingdom,country,Europe and Central Asia,55.378051,-3.435973,1987,57,0,23,0,0,0,0,0,17,0,0,0,0,0,0,17,0,0,0,0,0,0,0,0
AR,Argentina,country,Latin America and the Caribbean,-38.416097,-63.616672,GB,United Kingdom,country,Europe and Central Asia,55.378051,-3.435973,1987,32064,0,0,1249,272,0,8538,405,117,41,0,0,2097,1620,0,0,0,17667,0,58,0,0,0,0
AU,Australia,country,East Asia and Pacific,-25.274398,133.775136,GB,United Kingdom,country,Europe and Central Asia,55.378051,-3.435973,1987,202525,17907,0,58674,15479,18,1508,5748,31298,28765,0,86,10,106,1050,18232,0,16944,1655,5045,0,0,0,0
AT,Austria,country,Europe and Central Asia,47.516231,14.550072,GB,United Kingdom,country,Europe and Central Asia,55.378051,-3.435973,1987,10162,257,0,95,267,34,0,165,44,88,21,520,1624,5613,1,176,0,0,1257,0,0,0,0,0
BB,Barbados,country,Latin America and the Caribbean,13.193887,-59.543198,GB,United Kingdom,country,Europe and Central Asia,55.378051,-3.435973,1987,52718,0,478,51358,0,0,0,53,47,0,11,0,0,37,0,734,0,0,0,0,0,0,0,0
BE,Belgium,country,Europe and Central Asia,50.503887,4.469936,GB,United Kingdom,country,Europe and Central Asia,55.378051,-3.435973,1987,901786,86490,167136,54838,927,122,144,65024,57251,11165,26,186660,7491,59613,142946,19732,0,17854,23932,435,0,0,0,0
BR,Brazil,country,Latin America and the Caribbean,-14.235004,-51.92528,GB,United Kingdom,country,Europe and Central Asia,55.378051,-3.435973,1987,266177,0,100,119348,0,3717,15287,4165,10965,1381,1565,5000,22636,36676,3904,14,0,41419,0,0,0,0,0,0
BG,Bulgaria,country,Europe and Central Asia,42.733883,25.48583,GB,United Kingdom,country,Europe and Central Asia,55.378051,-3.435973,1987,12886,0,0,688,0,0,0,2732,599,0,0,0,0,0,0,8867,0,0,0,0,0,0,0,0
CM,Cameroon,country,Sub-Saharan Africa,7.369722,12.354722,GB,United Kingdom,country,Europe and Central Asia,55.378051,-3.435973,1987,13522,0,0,0,0,0,0,0,0,846,0,0,202,224,12250,0,0,0,0,0,0,0,0,0
CA,Canada,country,North America,56.130366,-106.346771,GB,United Kingdom,country,Europe and Central Asia,55.378051,-3.435973,1987,583912,462294,20,1120,39802,97,14883,2178,14103,310,1098,10130,35,22067,266,1724,17,9693,3915,177,0,0,0,0
CL,Chile,country,Latin America and the Caribbean,-35.675147,-71.542969,GB,United Kingdom,country,Europe and Central Asia,55.378051,-3.435973,1987,65619,0,0,5758,2496,0,6,11678,40412,1900,38,0,17,3016,0,212,0,86,0,0,0,0,0,0
HK,Hong Kong,country,East Asia and Pacific,22.396428,114.109497,GB,United Kingdom,country,Europe and Central Asia,55.378051,-3.435973,1987,18525,1642,55,192,267,1679,2711,2334,2065,3276,380,347,48,2714,198,525,0,70,0,22,0,0,0,0
CN,China,country,East Asia and Pacific,35.86166,104.195397,GB,United Kingdom,country,Europe and Central Asia,55.378051,-3.435973,1987,373484,2278,28684,8305,6057,2487,25621,2828,2544,15479,653,245757,9339,11060,5616,445,0,6331,0,0,0,0,0,0
TW,Taiwan,country,East Asia and Pacific,23.69781,120.960515,GB,United Kingdom,country,Europe and Central Asia,55.378051,-3.435973,1987,4239,138,17,23,0,0,19,2730,291,46,346,0,101,445,17,62,0,4,0,0,0,0,0,0
CO,Colombia,country,Latin America and the Caribbean,4.570868,-74.297333,GB,United Kingdom,country,Europe and Central Asia,55.378051,-3.435973,1987,44608,0,0,10500,0,0,0,3,9696,1216,0,0,20984,2209,0,0,0,0,0,0,0,0,0,0
CR,Costa Rica,country,Latin America and the Caribbean,9.748917,-83.753428,GB,United Kingdom,country,Europe and Central Asia,55.378051,-3.435973,1987,11058,0,789,0,0,0,600,366,283,0,107,0,8861,52,0,0,0,0,0,0,0,0,0,0
CU,Cuba,country,Latin America and the Caribbean,21.521757,-77.781167,GB,United Kingdom,country,Europe and Central Asia,55.378051,-3.435973,1987,41,0,0,0,0,0,0,0,0,0,0,0,0,41,0,0,0,0,0,0,0,0,0,0
CY,Cyprus,country,Europe and Central Asia,35.126413,33.429859,GB,United Kingdom,country,Europe and Central Asia,55.378051,-3.435973,1987,306783,19,57641,41,61,0,44,10413,68146,296,0,2386,93,159023,522,7923,0,0,171,4,0,0,0,0
DK,Denmark,country,Europe and Central Asia,56.26392,9.501785,GB,United Kingdom,country,Europe and Central Asia,55.378051,-3.435973,1987,659731,104418,67,35799,60,7,45069,2281,6650,88,25,54747,1732,64777,47776,8453,539,240988,42629,4165,0,0,0,0
EG,Egypt,country,Middle East and North Africa,26.820553,30.802498,GB,United Kingdom,country,Europe and Central Asia,55.378051,-3.435973,1987,95101,0,65371,22114,0,0,10,3794,224,2626,162,0,0,800,0,0,0,0,0,0,0,0,0,0
ET,Ethiopia,country,Sub-Saharan Africa,9.145,40.489673,GB,United Kingdom,country,Europe and Central Asia,55.378051,-3.435973,1987,4606,0,0,0,3632,0,268,56,0,30,0,0,75,33,0,0,0,0,0,512,0,0,0,0
FJ,Fiji,country,East Asia and Pacific,-16.578193,179.414413,GB,United Kingdom,country,Europe and Central Asia,55.378051,-3.435973,1987,169609,0,0,169261,0,0,0,0,24,0,32,0,292,0,0,0,0,0,0,0,0,0,0,0
FI,Finland,country,Europe and Central Asia,61.92411,25.748151,GB,United Kingdom,country,Europe and Central Asia,55.378051,-3.435973,1987,22990,10701,0,393,0,0,0,0,18,264,0,131,1710,601,5173,323,0,1099,2312,265,0,0,0,0
FR,France,country,Europe and Central Asia,46.227638,2.213749,GB,United Kingdom,country,Europe and Central Asia,55.378051,-3.435973,1987,3130246,1712773,48040,17615,2245,844,135048,92759,336910,7800,54,158414,12845,69870,58268,400792,31,54023,20039,1825,82,0,0,0
GR,Greece,country,Europe and Central Asia,39.074208,21.824312,GB,United Kingdom,country,Europe and Central Asia,55.378051,-3.435973,1987,439438,203377,10123,603,0,62,1717,56406,147687,1838,0,12219,123,779,876,976,0,2,2640,10,0,0,0,0
GT,Guatemala,country,Latin America and the Caribbean,15.783471,-90.230759,GB,United Kingdom,country,Europe and Central Asia,55.378051,-3.435973,1987,4372,0,0,129,0,0,1584,512,147,0,122,0,1867,11,0,0,0,0,0,0,0,0,0,0
HN,Honduras,country,Latin America and the Caribbean,15.199999,-86.241905,GB,United Kingdom,country,Europe and Central Asia,55.378051,-3.435973,1987,2976,0,0,0,0,0,0,69,1872,99,10,0,905,21,0,0,0,0,0,0,0,0,0,0
HU,Hungary,country,Europe and Central Asia,47.162494,19.503304,GB,United Kingdom,country,Europe and Central Asia,55.378051,-3.435973,1987,37755,125,0,442,2774,10,186,10568,11833,0,58,6958,0,246,0,2649,0,1906,0,0,0,0,0,0
IS,Iceland,country,Europe and Central Asia,64.963051,-19.020835,GB,United Kingdom,country,Europe and Central Asia,55.378051,-3.435973,1987,3389,0,0,0,0,0,0,0,792,1437,0,680,0,0,0,1,0,362,0,117,0,0,0,0
IN,India,country,South Asia,20.593684,78.96288,GB,United Kingdom,country,Europe and Central Asia,55.378051,-3.435973,1987,91877,19515,42,38,688,3460,144,3665,1338,613,4063,11304,24106,21271,1603,24,0,3,0,0,0,0,0,0
ID,Indonesia,country,East Asia and Pacific,-0.789275,113.921327,GB,United Kingdom,country,Europe and Central Asia,55.378051,-3.435973,1987,145431,5,18875,12600,0,0,3097,0,380,0,210,17518,10035,10854,71838,2,0,0,0,17,0,0,0,0
IE,Ireland,country,Europe and Central Asia,53.41291,-8.24389,GB,United Kingdom,country,Europe and Central Asia,55.378051,-3.435973,1987,1321145,318049,13414,68188,143,77,7594,14754,22525,10727,109,109488,59136,100446,43071,223616,3385,178766,112801,38241,0,0,0,0
IL,Israel,country,Middle East and North Africa,31.046051,34.851612,GB,United Kingdom,country,Europe and Central Asia,55.378051,-3.435973,1987,113897,745,360,152,0,0,57,12454,97065,1569,221,0,886,322,53,0,0,0,13,0,0,0,0,0
IT,Italy,country,Europe and Central Asia,41.87194,12.56738,GB,United Kingdom,country,Europe and Central Asia,55.378051,-3.435973,1987,814155,94191,6838,738,12,1662,3,297734,186560,8162,108,34244,2345,20364,11191,142571,0,3877,3424,131,0,0,0,0
JP,Japan,country,East Asia and Pacific,36.204824,138.252924,GB,United Kingdom,country,Europe and Central Asia,55.378051,-3.435973,1987,110633,248,3,12,0,0,239,26,386,6308,0,108,14,102615,12,662,0,0,0,0,0,0,0,0
JO,Jordan,country,Middle East and North Africa,30.585164,36.238414,GB,United Kingdom,country,Europe and Central Asia,55.378051,-3.435973,1987,431,0,0,0,0,0,0,431,0,0,0,0,0,0,0,0,0,0,0,0,0,0,0,0
KE,Kenya,country,Sub-Saharan Africa,-0.023559,37.906193,GB,United Kingdom,country,Europe and Central Asia,55.378051,-3.435973,1987,126645,80,0,16792,0,0,0,13360,15085,68,26,1108,77812,782,0,74,0,0,0,1458,0,0,0,0
MW,Malawi,country,Sub-Saharan Africa,-13.254308,34.301525,GB,United Kingdom,country,Europe and Central Asia,55.378051,-3.435973,1987,65214,18,0,23311,0,29,12056,5,31,0,89,0,23602,6073,0,0,0,0,0,0,0,0,0,0
MY,Malaysia,country,East Asia and Pacific,4.210484,101.975766,GB,United Kingdom,country,Europe and Central Asia,55.378051,-3.435973,1987,219714,72,198,0,0,0,1408,10,7742,0,167,98,4555,82869,122583,5,0,0,6,1,0,0,0,0
MT,Malta,country,Middle East and North Africa,35.937496,14.375416,GB,United Kingdom,country,Europe and Central Asia,55.378051,-3.435973,1987,625,0,0,0,0,0,0,0,505,26,0,0,0,94,0,0,0,0,0,0,0,0,0,0
MX,Mexico,country,Latin America and the Caribbean,23.634501,-102.552784,GB,United Kingdom,country,Europe and Central Asia,55.378051,-3.435973,1987,104306,0,0,98751,0,0,34,850,2080,2,20,87,1273,539,0,519,0,151,0,0,0,0,0,0
MA,Morocco,country,Middle East and North Africa,31.791702,-7.09262,GB,United Kingdom,country,Europe and Central Asia,55.378051,-3.435973,1987,46643,66,894,5000,71,166,227,1172,36624,0,1771,0,0,587,0,31,0,0,34,0,0,0,0,0
NL,Netherlands,country,Europe and Central Asia,52.132633,5.291266,GB,United Kingdom,country,Europe and Central Asia,55.378051,-3.435973,1987,2354855,71722,333502,54575,6281,1262,14818,355526,114041,2045,743,675240,31218,123745,234314,107192,5,186734,41127,770,0,0,0,0
NZ,New Zealand,country,East Asia and Pacific,-40.900557,174.885971,GB,United Kingdom,country,Europe and Central Asia,55.378051,-3.435973,1987,331307,83,0,445,5759,0,0,4047,39715,29527,0,5900,6,44,640,852,0,155426,88305,558,0,0,0,0
NO,Norway,country,Europe and Central Asia,60.472024,8.468946,GB,United Kingdom,country,Europe and Central Asia,55.378051,-3.435973,1987,10485,379,0,0,18,0,5,0,17,2619,0,1073,18,840,2240,145,0,936,922,1223,50,0,0,0
OM,Oman,country,Middle East and North Africa,21.512583,55.923255,GB,United Kingdom,country,Europe and Central Asia,55.378051,-3.435973,1987,353,0,0,0,0,0,0,0,312,0,0,0,1,3,0,16,0,0,21,0,0,0,0,0
PA,Panama,country,Latin America and the Caribbean,8.537981,-80.782127,GB,United Kingdom,country,Europe and Central Asia,55.378051,-3.435973,1987,81,0,0,0,0,0,0,0,81,0,0,0,0,0,0,0,0,0,0,0,0,0,0,0
PG,Papua New Guinea,country,East Asia and Pacific,-6.314993,143.95555,GB,United Kingdom,country,Europe and Central Asia,55.378051,-3.435973,1987,130643,0,0,0,0,0,19838,0,0,0,18,0,8322,167,102181,0,0,0,0,117,0,0,0,0
PY,Paraguay,country,Latin America and the Caribbean,-23.442503,-58.443832,GB,United Kingdom,country,Europe and Central Asia,55.378051,-3.435973,1987,1420,0,0,0,0,0,0,0,0,663,0,0,0,33,0,0,0,724,0,0,0,0,0,0
PE,Peru,country,Latin America and the Caribbean,-9.189967,-75.015152,GB,United Kingdom,country,Europe and Central Asia,55.378051,-3.435973,1987,1114,0,0,0,163,1,0,104,605,167,0,0,0,74,0,0,0,0,0,0,0,0,0,0
PH,Philippines,country,East Asia and Pacific,12.879721,121.774017,GB,United Kingdom,country,Europe and Central Asia,55.378051,-3.435973,1987,31249,15,1,1,0,0,7187,1,10363,6791,0,500,0,2981,3006,13,0,0,390,0,0,0,0,0
PL,Poland,country,Europe and Central Asia,51.919438,19.145136,GB,United Kingdom,country,Europe and Central Asia,55.378051,-3.435973,1987,93247,0,0,41630,0,0,10313,20820,10011,175,0,0,0,25,2807,500,0,6314,496,156,0,0,0,0
PT,Portugal,country,Europe and Central Asia,39.399872,-8.224454,GB,United Kingdom,country,Europe and Central Asia,55.378051,-3.435973,1987,45326,4,136,2,1,348,24,13724,731,301,6,8774,6,178,2853,18234,0,2,2,0,0,0,0,0
KR,"Korea, Rep.",country,East Asia and Pacific,35.907757,127.766922,GB,United Kingdom,country,Europe and Central Asia,55.378051,-3.435973,1987,2987,4,0,14,0,0,0,1,104,34,0,0,0,2715,93,22,0,0,0,0,0,0,0,0
RE,Reunion,country,Sub-Saharan Africa,-21.115141,55.536384,GB,United Kingdom,country,Europe and Central Asia,55.378051,-3.435973,1987,7439,0,0,7439,0,0,0,0,0,0,0,0,0,0,0,0,0,0,0,0,0,0,0,0
SG,Singapore,country,East Asia and Pacific,1.352083,103.819836,GB,United Kingdom,country,Europe and Central Asia,55.378051,-3.435973,1987,28071,630,0,3,16,10,2017,4,6014,0,1740,0,809,15828,176,802,0,4,18,0,0,0,0,0
SB,Solomon Islands,country,East Asia and Pacific,-9.64571,160.156194,GB,United Kingdom,country,Europe and Central Asia,55.378051,-3.435973,1987,20075,0,0,0,0,0,9216,0,0,0,0,0,14,0,10845,0,0,0,0,0,0,0,0,0
ES,Spain,country,Europe and Central Asia,40.463667,-3.74922,GB,United Kingdom,country,Europe and Central Asia,55.378051,-3.435973,1987,1577567,460442,26112,1867,28,2340,1607,513084,344528,10122,1280,32300,417,9718,95046,77922,0,721,11,22,0,0,0,0
LK,Sri Lanka,country,South Asia,7.873054,80.771797,GB,United Kingdom,country,Europe and Central Asia,55.378051,-3.435973,1987,29429,37,0,0,0,68,10723,15,36,0,854,0,10813,6827,29,0,0,0,0,27,0,0,0,0
SE,Sweden,country,Europe and Central Asia,60.128161,18.643501,GB,United Kingdom,country,Europe and Central Asia,55.378051,-3.435973,1987,27927,16564,0,519,0,0,68,75,38,565,21,842,1537,2473,463,759,0,1905,73,2025,0,0,0,0
CH,Switzerland,country,Europe and Central Asia,46.818188,8.227512,GB,United Kingdom,country,Europe and Central Asia,55.378051,-3.435973,1987,8969,124,0,924,0,25,0,135,566,1612,1,157,2400,1344,27,255,0,27,1328,44,0,0,0,0
SY,Syrian Arab Rep.,country,Middle East and North Africa,34.802075,38.996815,GB,United Kingdom,country,Europe and Central Asia,55.378051,-3.435973,1987,3214,0,0,0,0,0,0,170,18,3026,0,0,0,0,0,0,0,0,0,0,0,0,0,0
TH,Thailand,country,East Asia and Pacific,15.870032,100.992541,GB,United Kingdom,country,Europe and Central Asia,55.378051,-3.435973,1987,180359,2785,2852,137447,4235,5,4,5270,11181,2686,89,0,0,10447,3062,113,0,0,0,183,0,0,0,0
TT,Trinidad and Tobago,country,Latin America and the Caribbean,10.691803,-61.222503,GB,United Kingdom,country,Europe and Central Asia,55.378051,-3.435973,1987,53179,0,0,46503,0,0,35,193,437,0,132,0,506,306,0,5067,0,0,0,0,0,0,0,0
TN,Tunisia,country,Middle East and North Africa,33.886917,9.537499,GB,United Kingdom,country,Europe and Central Asia,55.378051,-3.435973,1987,9403,0,0,10,0,0,0,0,908,0,0,8477,0,8,0,0,0,0,0,0,0,0,0,0
TR,Turkey,country,Europe and Central Asia,38.963745,35.243322,GB,United Kingdom,country,Europe and Central Asia,55.378051,-3.435973,1987,4968866,2688,80,129,13511,5688,233,8222,28456,9535,1423,0,0,4898559,17,315,0,6,4,0,0,0,0,0
US,USA,country,North America,37.09024,-95.712891,GB,United Kingdom,country,Europe and Central Asia,55.378051,-3.435973,1987,1133501,126484,1210,25531,80349,9674,395751,23087,66046,18994,390,294322,884,44800,3764,10531,80,30248,795,641,0,0,0,0
UY,Uruguay,country,Latin America and the Caribbean,-32.522779,-55.765835,GB,United Kingdom,country,Europe and Central Asia,55.378051,-3.435973,1987,22693,0,0,0,0,0,0,0,4546,8591,0,0,0,1,0,0,0,9551,0,4,0,0,0,0
RU,Russian Federation,country,Europe and Central Asia,61.52401,105.318756,GB,United Kingdom,country,Europe and Central Asia,55.378051,-3.435973,1987,26840,0,0,0,0,0,0,0,0,26840,0,0,0,0,0,0,0,0,0,0,0,0,0,0
VE,Venezuela,country,Latin America and the Caribbean,6.42375,-66.58973,GB,United Kingdom,country,Europe and Central Asia,55.378051,-3.435973,1987,10688,0,0,8500,0,0,0,499,1624,0,0,0,0,65,0,0,0,0,0,0,0,0,0,0
BA,Bosnia & Herzegovina,country,Europe and Central Asia,43.915886,17.679076,GB,United Kingdom,country,Europe and Central Asia,55.378051,-3.435973,1987,25478,39,0,389,0,0,0,1259,3119,95,5,1,703,1229,0,18194,0,445,0,0,0,0,0,0
ZW,Zimbabwe,country,Sub-Saharan Africa,-19.015438,29.154857,GB,United Kingdom,country,Europe and Central Asia,55.378051,-3.435973,1987,110522,108,1,77695,648,0,351,494,154,13,0,0,7510,12946,0,2,0,10600,0,0,0,0,0,0
DZ,Algeria,country,Middle East and North Africa,28.033886,1.659626,GB,United Kingdom,country,Europe and Central Asia,55.378051,-3.435973,1988,20,0,0,0,0,0,0,0,3,0,0,0,0,0,0,17,0,0,0,0,0,0,0,0
AR,Argentina,country,Latin America and the Caribbean,-38.416097,-63.616672,GB,United Kingdom,country,Europe and Central Asia,55.378051,-3.435973,1988,104283,61398,0,1550,375,0,8918,406,4399,268,20,39,2828,3016,0,54,0,21012,0,0,0,0,0,0
AU,Australia,country,East Asia and Pacific,-25.274398,133.775136,GB,United Kingdom,country,Europe and Central Asia,55.378051,-3.435973,1988,218027,5025,0,98703,9490,50,1825,9158,34866,21037,126,19,5,294,3662,10521,0,19079,2252,1915,0,0,0,0
AT,Austria,country,Europe and Central Asia,47.516231,14.550072,GB,United Kingdom,country,Europe and Central Asia,55.378051,-3.435973,1988,10421,274,0,58,313,0,0,132,21,87,15,854,1599,5335,0,154,0,0,1579,0,0,0,0,0
BE,Belgium,country,Europe and Central Asia,50.503887,4.469936,GB,United Kingdom,country,Europe and Central Asia,55.378051,-3.435973,1988,764167,92853,110190,18076,1137,97,96,66576,45164,11931,47,178444,6864,56239,96168,28605,0,17271,34059,350,0,0,0,0
BO,Bolivia,country,Latin America and the Caribbean,-16.290154,-63.588653,GB,United Kingdom,country,Europe and Central Asia,55.378051,-3.435973,1988,587,0,0,0,0,167,338,0,0,14,0,0,35,0,0,0,0,0,0,33,0,0,0,0
BR,Brazil,country,Latin America and the Caribbean,-14.235004,-51.92528,GB,United Kingdom,country,Europe and Central Asia,55.378051,-3.435973,1988,273544,0,0,74809,0,4530,12034,5703,7219,3521,957,21100,26211,48529,971,385,0,67575,0,0,0,0,0,0
BG,Bulgaria,country,Europe and Central Asia,42.733883,25.48583,GB,United Kingdom,country,Europe and Central Asia,55.378051,-3.435973,1988,19760,0,0,906,0,0,0,2849,497,0,0,0,0,0,0,15508,0,0,0,0,0,0,0,0
CM,Cameroon,country,Sub-Saharan Africa,7.369722,12.354722,GB,United Kingdom,country,Europe and Central Asia,55.378051,-3.435973,1988,10241,0,0,0,0,0,0,0,0,1076,0,0,413,752,8000,0,0,0,0,0,0,0,0,0
CA,Canada,country,North America,56.130366,-106.346771,GB,United Kingdom,country,Europe and Central Asia,55.378051,-3.435973,1988,656461,533508,362,1565,48150,9,5815,14249,14141,356,50,17955,156,7906,1601,801,0,5236,4492,109,0,0,0,0
CL,Chile,country,Latin America and the Caribbean,-35.675147,-71.542969,GB,United Kingdom,country,Europe and Central Asia,55.378051,-3.435973,1988,81052,0,0,59,3427,168,0,21120,48911,2292,16,0,14,3717,19,736,0,559,14,0,0,0,0,0
HK,Hong Kong,country,East Asia and Pacific,22.396428,114.109497,GB,United Kingdom,country,Europe and Central Asia,55.378051,-3.435973,1988,17416,1442,76,261,263,1279,2249,2043,1676,2140,301,697,148,3990,234,592,0,11,0,14,0,0,0,0
CN,China,country,East Asia and Pacific,35.86166,104.195397,GB,United Kingdom,country,Europe and Central Asia,55.378051,-3.435973,1988,418029,2724,363,22778,6462,1537,15162,3928,3742,13250,614,316995,7430,10860,4677,206,0,7296,5,0,0,0,0,0
TW,Taiwan,country,East Asia and Pacific,23.69781,120.960515,GB,United Kingdom,country,Europe and Central Asia,55.378051,-3.435973,1988,4189,134,17,19,0,0,20,1848,635,115,207,1,125,904,19,142,0,3,0,0,0,0,0,0
CO,Colombia,country,Latin America and the Caribbean,4.570868,-74.297333,GB,United Kingdom,country,Europe and Central Asia,55.378051,-3.435973,1988,30226,0,0,8600,0,0,0,53,336,1318,0,0,15737,4182,0,0,0,0,0,0,0,0,0,0
CR,Costa Rica,country,Latin America and the Caribbean,9.748917,-83.753428,GB,United Kingdom,country,Europe and Central Asia,55.378051,-3.435973,1988,11532,0,759,0,0,1,504,555,1060,0,758,0,7829,66,0,0,0,0,0,0,0,0,0,0
DK,Denmark,country,Europe and Central Asia,56.26392,9.501785,GB,United Kingdom,country,Europe and Central Asia,55.378051,-3.435973,1988,772281,231860,270,58102,100,0,19539,4058,7584,17,23,53772,836,68304,41953,12523,474,224861,45809,2670,0,0,0,0
EC,Ecuador,country,Latin America and the Caribbean,-1.831239,-78.183406,GB,United Kingdom,country,Europe and Central Asia,55.378051,-3.435973,1988,5379,0,0,0,12,0,0,38,238,4668,0,0,403,20,0,0,0,0,0,0,0,0,0,0
EG,Egypt,country,Middle East and North Africa,26.820553,30.802498,GB,United Kingdom,country,Europe and Central Asia,55.378051,-3.435973,1988,135005,2291,84169,36573,0,0,50,3091,5396,1210,182,0,0,1917,126,0,0,0,0,0,0,0,0,0
ET,Ethiopia,country,Sub-Saharan Africa,9.145,40.489673,GB,United Kingdom,country,Europe and Central Asia,55.378051,-3.435973,1988,2562,0,0,0,2000,0,0,56,0,10,0,0,320,0,0,0,0,14,0,162,0,0,0,0
FJ,Fiji,country,East Asia and Pacific,-16.578193,179.414413,GB,United Kingdom,country,Europe and Central Asia,55.378051,-3.435973,1988,186284,0,0,186085,0,0,0,0,48,0,19,0,132,0,0,0,0,0,0,0,0,0,0,0
FI,Finland,country,Europe and Central Asia,61.92411,25.748151,GB,United Kingdom,country,Europe and Central Asia,55.378051,-3.435973,1988,18626,4342,40,386,0,0,0,1658,76,103,0,65,2025,209,6397,343,0,16,2380,586,0,0,0,0
FR,France,country,Europe and Central Asia,46.227638,2.213749,GB,United Kingdom,country,Europe and Central Asia,55.378051,-3.435973,1988,3076521,1611505,32394,86304,1250,694,117265,125107,324512,8959,45,74098,15955,49521,78148,432868,7,69008,47439,1427,22,0,0,0
GR,Greece,country,Europe and Central Asia,39.074208,21.824312,GB,United Kingdom,country,Europe and Central Asia,55.378051,-3.435973,1988,165906,30107,194,462,0,20,440,37629,83831,2335,0,3915,50,782,316,1536,0,135,4154,0,0,0,0,0
GL,Greenland,country,Europe and Central Asia,71.706936,-42.604303,GB,United Kingdom,country,Europe and Central Asia,55.378051,-3.435973,1988,19,0,0,0,0,0,0,0,0,19,0,0,0,0,0,0,0,0,0,0,0,0,0,0
GP,Guadeloupe,country,Latin America and the Caribbean,16.995971,-62.067641,GB,United Kingdom,country,Europe and Central Asia,55.378051,-3.435973,1988,985,0,0,975,0,0,0,0,0,0,0,0,10,0,0,0,0,0,0,0,0,0,0,0
GT,Guatemala,country,Latin America and the Caribbean,15.783471,-90.230759,GB,United Kingdom,country,Europe and Central Asia,55.378051,-3.435973,1988,20671,0,0,12998,0,0,2291,1304,492,0,171,0,3404,11,0,0,0,0,0,0,0,0,0,0
HN,Honduras,country,Latin America and the Caribbean,15.199999,-86.241905,GB,United Kingdom,country,Europe and Central Asia,55.378051,-3.435973,1988,1498,0,0,0,0,0,0,0,59,0,9,0,1417,13,0,0,0,0,0,0,0,0,0,0
HU,Hungary,country,Europe and Central Asia,47.162494,19.503304,GB,United Kingdom,country,Europe and Central Asia,55.378051,-3.435973,1988,59853,403,0,29441,1157,0,220,12403,8211,0,89,3029,0,0,0,1632,0,3268,0,0,0,0,0,0
IS,Iceland,country,Europe and Central Asia,64.963051,-19.020835,GB,United Kingdom,country,Europe and Central Asia,55.378051,-3.435973,1988,10643,0,0,0,0,0,0,0,0,1763,0,616,0,7395,0,812,0,0,0,57,0,0,0,0
IN,India,country,South Asia,20.593684,78.96288,GB,United Kingdom,country,Europe and Central Asia,55.378051,-3.435973,1988,128119,26201,29,32569,616,2837,418,4282,1479,37,4125,14197,23390,17855,10,69,0,2,3,0,0,0,0,0
ID,Indonesia,country,East Asia and Pacific,-0.789275,113.921327,GB,United Kingdom,country,Europe and Central Asia,55.378051,-3.435973,1988,210090,35,10900,70961,0,13,0,0,1230,0,302,3000,6644,16975,100025,0,0,0,5,0,0,0,0,0
IE,Ireland,country,Europe and Central Asia,53.41291,-8.24389,GB,United Kingdom,country,Europe and Central Asia,55.378051,-3.435973,1988,1299841,293380,20387,90096,280,54,12526,19666,17655,9909,46,109644,56525,84559,35109,234297,1955,152398,134217,29061,32,0,0,0
IT,Italy,country,Europe and Central Asia,41.87194,12.56738,GB,United Kingdom,country,Europe and Central Asia,55.378051,-3.435973,1988,772842,93966,8790,7554,122,1263,127,266863,171816,8843,107,40676,2959,20617,12366,125743,0,7253,3642,135,0,0,0,0
JM,Jamaica,country,Latin America and the Caribbean,18.109581,-77.297508,GB,United Kingdom,country,Europe and Central Asia,55.378051,-3.435973,1988,204613,63,1386,160073,8,0,12,1371,35501,0,948,0,1707,125,0,3418,0,0,1,0,0,0,0,0
JP,Japan,country,East Asia and Pacific,36.204824,138.252924,GB,United Kingdom,country,Europe and Central Asia,55.378051,-3.435973,1988,7015,275,2,48,0,0,310,57,189,5152,0,111,6,10,26,829,0,0,0,0,0,0,0,0
JO,Jordan,country,Middle East and North Africa,30.585164,36.238414,GB,United Kingdom,country,Europe and Central Asia,55.378051,-3.435973,1988,567,0,0,0,0,0,0,446,0,116,0,0,0,0,0,2,0,0,3,0,0,0,0,0
KE,Kenya,country,Sub-Saharan Africa,-0.023559,37.906193,GB,United Kingdom,country,Europe and Central Asia,55.378051,-3.435973,1988,165114,80,0,35094,0,16,8,13456,16069,176,37,1590,94921,934,0,116,0,0,0,2617,0,0,0,0
MW,Malawi,country,Sub-Saharan Africa,-13.254308,34.301525,GB,United Kingdom,country,Europe and Central Asia,55.378051,-3.435973,1988,55134,0,0,13555,0,60,17494,4,0,0,136,0,19991,3876,0,0,0,0,0,18,0,0,0,0
MY,Malaysia,country,East Asia and Pacific,4.210484,101.975766,GB,United Kingdom,country,Europe and Central Asia,55.378051,-3.435973,1988,212543,79,19,6,0,0,2178,25,7443,8,247,662,6285,75840,119747,4,0,0,0,0,0,0,0,0
MT,Malta,country,Middle East and North Africa,35.937496,14.375416,GB,United Kingdom,country,Europe and Central Asia,55.378051,-3.435973,1988,627,0,0,0,0,0,0,0,424,0,0,0,0,127,76,0,0,0,0,0,0,0,0,0
MX,Mexico,country,Latin America and the Caribbean,23.634501,-102.552784,GB,United Kingdom,country,Europe and Central Asia,55.378051,-3.435973,1988,123389,1278,0,114709,0,0,156,1393,2693,36,31,0,1125,455,6,1507,0,0,0,0,0,0,0,0
MA,Morocco,country,Middle East and North Africa,31.791702,-7.09262,GB,United Kingdom,country,Europe and Central Asia,55.378051,-3.435973,1988,73272,7,212,9000,115,199,211,1220,57176,15,2529,1650,0,892,0,0,0,0,46,0,0,0,0,0
NL,Netherlands,country,Europe and Central Asia,52.132633,5.291266,GB,United Kingdom,country,Europe and Central Asia,55.378051,-3.435973,1988,2340344,77538,260102,86666,3090,1215,30035,353181,137003,2952,905,639885,31783,125776,236929,96508,38,207626,48668,436,46,0,0,0
NZ,New Zealand,country,East Asia and Pacific,-40.900557,174.885971,GB,United Kingdom,country,Europe and Central Asia,55.378051,-3.435973,1988,311041,2,0,267,4860,0,160,11226,58877,25361,0,3397,0,3625,2024,1836,0,132860,65548,998,0,0,0,0
NO,Norway,country,Europe and Central Asia,60.472024,8.468946,GB,United Kingdom,country,Europe and Central Asia,55.378051,-3.435973,1988,13994,281,0,0,0,0,11,0,13,2849,0,1787,45,1967,2862,390,0,1237,829,1688,35,0,0,0
OM,Oman,country,Middle East and North Africa,21.512583,55.923255,GB,United Kingdom,country,Europe and Central Asia,55.378051,-3.435973,1988,358,5,0,0,0,0,0,0,351,0,0,0,0,0,0,0,0,0,2,0,0,0,0,0
PA,Panama,country,Latin America and the Caribbean,8.537981,-80.782127,GB,United Kingdom,country,Europe and Central Asia,55.378051,-3.435973,1988,350,0,0,0,0,0,0,17,297,0,0,0,36,0,0,0,0,0,0,0,0,0,0,0
PG,Papua New Guinea,country,East Asia and Pacific,-6.314993,143.95555,GB,United Kingdom,country,Europe and Central Asia,55.378051,-3.435973,1988,136126,0,0,0,0,0,10038,0,0,63,16,0,8187,774,116868,0,0,0,0,180,0,0,0,0
PE,Peru,country,Latin America and the Caribbean,-9.189967,-75.015152,GB,United Kingdom,country,Europe and Central Asia,55.378051,-3.435973,1988,2381,0,0,0,441,18,0,125,1035,298,38,0,335,84,0,0,0,0,0,7,0,0,0,0
PH,Philippines,country,East Asia and Pacific,12.879721,121.774017,GB,United Kingdom,country,Europe and Central Asia,55.378051,-3.435973,1988,40116,13,2,0,0,0,7638,40,14104,8266,1,750,0,3707,4576,34,0,0,0,0,985,0,0,0
PT,Portugal,country,Europe and Central Asia,39.399872,-8.224454,GB,United Kingdom,country,Europe and Central Asia,55.378051,-3.435973,1988,30181,23,592,1,0,236,7,9054,427,873,7,6,2,615,580,17757,0,0,1,0,0,0,0,0
KR,"Korea, Rep.",country,East Asia and Pacific,35.907757,127.766922,GB,United Kingdom,country,Europe and Central Asia,55.378051,-3.435973,1988,6032,4,0,0,0,0,1,1,55,0,0,0,0,5858,93,20,0,0,0,0,0,0,0,0
RE,Reunion,country,Sub-Saharan Africa,-21.115141,55.536384,GB,United Kingdom,country,Europe and Central Asia,55.378051,-3.435973,1988,2700,0,0,2700,0,0,0,0,0,0,0,0,0,0,0,0,0,0,0,0,0,0,0,0
SN,Senegal,country,Sub-Saharan Africa,14.497401,-14.452362,GB,United Kingdom,country,Europe and Central Asia,55.378051,-3.435973,1988,12491,0,0,11532,0,0,0,17,0,127,0,804,0,0,0,0,0,0,0,11,0,0,0,0
SG,Singapore,country,East Asia and Pacific,1.352083,103.819836,GB,United Kingdom,country,Europe and Central Asia,55.378051,-3.435973,1988,28327,917,0,19,0,14,2100,15,6366,191,967,0,582,15688,617,845,0,6,0,0,0,0,0,0
ES,Spain,country,Europe and Central Asia,40.463667,-3.74922,GB,United Kingdom,country,Europe and Central Asia,55.378051,-3.435973,1988,1198906,202135,19690,2705,58,1744,1898,505763,336511,5068,1226,37457,484,11358,3035,65671,0,2965,994,144,0,0,0,0
LK,Sri Lanka,country,South Asia,7.873054,80.771797,GB,United Kingdom,country,Europe and Central Asia,55.378051,-3.435973,1988,24571,47,0,0,0,5,4628,20,36,0,643,3,12996,6136,0,0,0,0,0,57,0,0,0,0
SE,Sweden,country,Europe and Central Asia,60.128161,18.643501,GB,United Kingdom,country,Europe and Central Asia,55.378051,-3.435973,1988,27555,11424,39,444,18,0,14,567,35,429,82,2913,1597,4782,1091,1102,0,1185,113,1720,0,0,0,0
CH,Switzerland,country,Europe and Central Asia,46.818188,8.227512,GB,United Kingdom,country,Europe and Central Asia,55.378051,-3.435973,1988,11650,361,0,980,0,12,15,123,285,1749,1,1235,2519,2644,24,316,0,1,1354,31,0,0,0,0
SY,Syrian Arab Rep.,country,Middle East and North Africa,34.802075,38.996815,GB,United Kingdom,country,Europe and Central Asia,55.378051,-3.435973,1988,1560,0,0,0,0,0,0,125,13,1420,0,0,0,0,0,0,0,0,2,0,0,0,0,0
TH,Thailand,country,East Asia and Pacific,15.870032,100.992541,GB,United Kingdom,country,Europe and Central Asia,55.378051,-3.435973,1988,163310,8788,8150,105430,3626,0,11,6515,14367,1499,75,5680,847,7277,350,194,0,3,348,150,0,0,0,0
TT,Trinidad and Tobago,country,Latin America and the Caribbean,10.691803,-61.222503,GB,United Kingdom,country,Europe and Central Asia,55.378051,-3.435973,1988,61893,0,2,56868,0,0,0,314,95,0,78,0,182,21,0,4333,0,0,0,0,0,0,0,0
TN,Tunisia,country,Middle East and North Africa,33.886917,9.537499,GB,United Kingdom,country,Europe and Central Asia,55.378051,-3.435973,1988,1067,0,0,76,0,0,0,0,974,8,3,0,0,6,0,0,0,0,0,0,0,0,0,0
TR,Turkey,country,Europe and Central Asia,38.963745,35.243322,GB,United Kingdom,country,Europe and Central Asia,55.378051,-3.435973,1988,19114270,914,142,87,13342,8459,95,10518,55595,4089,1414,0,2,19019333,2,243,0,0,35,0,0,0,0,0
US,USA,country,North America,37.09024,-95.712891,GB,United Kingdom,country,Europe and Central Asia,55.378051,-3.435973,1988,1311776,61963,3180,41306,91285,14724,549979,33129,85812,20427,453,328577,846,21055,6455,17262,41,33597,920,806,0,0,0,0
UY,Uruguay,country,Latin America and the Caribbean,-32.522779,-55.765835,GB,United Kingdom,country,Europe and Central Asia,55.378051,-3.435973,1988,20745,0,0,0,0,0,0,51,6531,4367,0,1,0,21,0,0,0,9762,8,4,0,0,0,0
RU,Russian Federation,country,Europe and Central Asia,61.52401,105.318756,GB,United Kingdom,country,Europe and Central Asia,55.378051,-3.435973,1988,19021,0,0,0,0,0,0,0,0,19021,0,0,0,0,0,0,0,0,0,0,0,0,0,0
VE,Venezuela,country,Latin America and the Caribbean,6.42375,-66.58973,GB,United Kingdom,country,Europe and Central Asia,55.378051,-3.435973,1988,43004,0,0,40000,0,0,0,839,2126,0,0,0,0,39,0,0,0,0,0,0,0,0,0,0
BA,Bosnia & Herzegovina,country,Europe and Central Asia,43.915886,17.679076,GB,United Kingdom,country,Europe and Central Asia,55.378051,-3.435973,1988,23188,1325,0,337,0,0,0,1722,3531,299,4,41,274,1129,0,13453,0,1071,2,0,0,0,0,0
AR,Argentina,country,Latin America and the Caribbean,-38.416097,-63.616672,GB,United Kingdom,country,Europe and Central Asia,55.378051,-3.435973,1989,85505,25636,0,2260,56,0,3240,1446,7849,925,113,6553,3629,5224,760,123,0,27691,0,0,0,0,0,0
AU,Australia,country,East Asia and Pacific,-25.274398,133.775136,GB,United Kingdom,country,Europe and Central Asia,55.378051,-3.435973,1989,298652,2637,0,97941,8765,51,1765,211,124835,17892,52,4173,5,174,3298,14098,0,20267,1673,815,0,0,0,0
AT,Austria,country,Europe and Central Asia,47.516231,14.550072,GB,United Kingdom,country,Europe and Central Asia,55.378051,-3.435973,1989,8945,668,0,121,297,0,0,161,52,18,7,1024,1578,864,0,2229,0,12,1896,18,0,0,0,0
BB,Barbados,country,Latin America and the Caribbean,13.193887,-59.543198,GB,United Kingdom,country,Europe and Central Asia,55.378051,-3.435973,1989,41771,1,302,40581,0,2,0,55,200,0,46,0,0,30,0,554,0,0,0,0,0,0,0,0
BE,Belgium,country,Europe and Central Asia,50.503887,4.469936,GB,United Kingdom,country,Europe and Central Asia,55.378051,-3.435973,1989,881986,78251,90242,15263,1029,27,515,77844,60535,11891,22,281390,9899,52657,109096,37594,0,19436,36042,253,0,0,0,0
BO,Bolivia,country,Latin America and the Caribbean,-16.290154,-63.588653,GB,United Kingdom,country,Europe and Central Asia,55.378051,-3.435973,1989,438,0,0,0,0,331,0,0,0,107,0,0,0,0,0,0,0,0,0,0,0,0,0,0
BR,Brazil,country,Latin America and the Caribbean,-14.235004,-51.92528,GB,United Kingdom,country,Europe and Central Asia,55.378051,-3.435973,1989,246920,0,53,39256,0,3050,36688,7777,8463,6196,1539,29658,6750,48222,554,267,0,58447,0,0,0,0,0,0
CM,Cameroon,country,Sub-Saharan Africa,7.369722,12.354722,GB,United Kingdom,country,Europe and Central Asia,55.378051,-3.435973,1989,15746,0,0,0,0,0,0,0,0,1587,0,0,1874,1272,11000,13,0,0,0,0,0,0,0,0
CA,Canada,country,North America,56.130366,-106.346771,GB,United Kingdom,country,Europe and Central Asia,55.378051,-3.435973,1989,348918,257444,0,979,42235,226,8550,11616,8220,604,41,2012,342,9106,413,1617,0,1102,4287,124,0,0,0,0
CL,Chile,country,Latin America and the Caribbean,-35.675147,-71.542969,GB,United Kingdom,country,Europe and Central Asia,55.378051,-3.435973,1989,84278,12,31,20,3077,22,3,22409,48805,1845,37,37,0,5840,0,1835,0,285,5,15,0,0,0,0
HK,Hong Kong,country,East Asia and Pacific,22.396428,114.109497,GB,United Kingdom,country,Europe and Central Asia,55.378051,-3.435973,1989,21271,2018,55,378,300,1788,2558,2112,2158,2039,283,119,414,5902,334,812,0,0,1,0,0,0,0,0
CN,China,country,East Asia and Pacific,35.86166,104.195397,GB,United Kingdom,country,Europe and Central Asia,55.378051,-3.435973,1989,314837,5052,49,5321,3359,2544,19422,3895,3441,8152,922,229417,9713,15700,1787,488,0,5565,10,0,0,0,0,0
TW,Taiwan,country,East Asia and Pacific,23.69781,120.960515,GB,United Kingdom,country,Europe and Central Asia,55.378051,-3.435973,1989,2561,146,15,7,0,11,11,1188,365,1,207,0,97,227,30,255,0,1,0,0,0,0,0,0
CO,Colombia,country,Latin America and the Caribbean,4.570868,-74.297333,GB,United Kingdom,country,Europe and Central Asia,55.378051,-3.435973,1989,24902,130,0,0,0,0,36,47,216,3358,0,0,16316,4789,0,10,0,0,0,0,0,0,0,0
CR,Costa Rica,country,Latin America and the Caribbean,9.748917,-83.753428,GB,United Kingdom,country,Europe and Central Asia,55.378051,-3.435973,1989,15571,8,1332,0,0,0,588,737,2076,0,800,0,10006,24,0,0,0,0,0,0,0,0,0,0
CY,Cyprus,country,Europe and Central Asia,35.126413,33.429859,GB,United Kingdom,country,Europe and Central Asia,55.378051,-3.435973,1989,159998,121,81137,15,4,9,45,8572,61694,378,2,2398,108,42,18,4403,0,690,362,0,0,0,0,0
DK,Denmark,country,Europe and Central Asia,56.26392,9.501785,GB,United Kingdom,country,Europe and Central Asia,55.378051,-3.435973,1989,716446,145256,610,60724,1146,3,13174,2952,9509,53,111,76936,1022,71636,37588,10137,706,240119,42014,3454,2,0,0,0
EC,Ecuador,country,Latin America and the Caribbean,-1.831239,-78.183406,GB,United Kingdom,country,Europe and Central Asia,55.378051,-3.435973,1989,7863,0,0,0,0,0,0,46,1238,5862,30,0,685,2,0,0,0,0,0,0,0,0,0,0
EG,Egypt,country,Middle East and North Africa,26.820553,30.802498,GB,United Kingdom,country,Europe and Central Asia,55.378051,-3.435973,1989,96037,5677,70346,1038,20,0,451,2963,8520,810,419,0,7,5739,47,0,15,0,0,0,0,0,0,0
ET,Ethiopia,country,Sub-Saharan Africa,9.145,40.489673,GB,United Kingdom,country,Europe and Central Asia,55.378051,-3.435973,1989,996,0,0,0,0,0,0,169,104,0,0,0,508,0,0,0,0,0,0,215,0,0,0,0
FO,Faroe Islands,country,Europe and Central Asia,61.892635,-6.911806,GB,United Kingdom,country,Europe and Central Asia,55.378051,-3.435973,1989,0,0,0,0,0,0,0,0,0,0,0,0,0,0,0,0,0,0,0,0,0,0,0,0
FJ,Fiji,country,East Asia and Pacific,-16.578193,179.414413,GB,United Kingdom,country,Europe and Central Asia,55.378051,-3.435973,1989,202113,0,0,201770,0,0,0,0,0,0,34,0,309,0,0,0,0,0,0,0,0,0,0,0
FI,Finland,country,Europe and Central Asia,61.92411,25.748151,GB,United Kingdom,country,Europe and Central Asia,55.378051,-3.435973,1989,24044,12014,0,415,0,0,0,1148,0,76,0,118,1913,9,4662,277,0,834,2059,519,0,0,0,0
FR,France,country,Europe and Central Asia,46.227638,2.213749,GB,United Kingdom,country,Europe and Central Asia,55.378051,-3.435973,1989,2892565,1325239,40067,29656,777,1016,99697,136907,337210,8110,52,150676,17982,51377,49067,499917,22,85526,58235,1054,0,0,0,0
GR,Greece,country,Europe and Central Asia,39.074208,21.824312,GB,United Kingdom,country,Europe and Central Asia,55.378051,-3.435973,1989,299399,97024,9994,367,42,340,638,57108,112270,2704,0,7776,96,724,2708,3147,0,138,4313,10,0,0,0,0
GL,Greenland,country,Europe and Central Asia,71.706936,-42.604303,GB,United Kingdom,country,Europe and Central Asia,55.378051,-3.435973,1989,14,0,0,0,0,0,0,0,0,14,0,0,0,0,0,0,0,0,0,0,0,0,0,0
GP,Guadeloupe,country,Latin America and the Caribbean,16.995971,-62.067641,GB,United Kingdom,country,Europe and Central Asia,55.378051,-3.435973,1989,1943,0,0,1943,0,0,0,0,0,0,0,0,0,0,0,0,0,0,0,0,0,0,0,0
HN,Honduras,country,Latin America and the Caribbean,15.199999,-86.241905,GB,United Kingdom,country,Europe and Central Asia,55.378051,-3.435973,1989,4347,0,0,0,0,0,0,32,3249,0,6,0,1060,0,0,0,0,0,0,0,0,0,0,0
IS,Iceland,country,Europe and Central Asia,64.963051,-19.020835,GB,United Kingdom,country,Europe and Central Asia,55.378051,-3.435973,1989,13934,0,0,0,0,0,0,0,0,1319,0,1279,0,10567,0,705,0,0,0,64,0,0,0,0
IN,India,country,South Asia,20.593684,78.96288,GB,United Kingdom,country,Europe and Central Asia,55.378051,-3.435973,1989,105114,21433,15,27972,354,1381,2615,4592,4922,425,4986,32,23674,8554,4028,129,3,2,0,0,0,0,0,0
ID,Indonesia,country,East Asia and Pacific,-0.789275,113.921327,GB,United Kingdom,country,Europe and Central Asia,55.378051,-3.435973,1989,216801,72,3500,62750,26,0,0,28,2185,13,379,8400,19872,22246,97303,27,0,0,0,0,0,0,0,0
IE,Ireland,country,Europe and Central Asia,53.41291,-8.24389,GB,United Kingdom,country,Europe and Central Asia,55.378051,-3.435973,1989,1324523,306978,13111,75602,633,16,3444,26230,35210,9524,50,115535,67863,92278,39412,254429,1732,137998,114092,32073,45,0,0,0
IL,Israel,country,Middle East and North Africa,31.046051,34.851612,GB,United Kingdom,country,Europe and Central Asia,55.378051,-3.435973,1989,180514,570,611,50,86,49,143,40943,111854,2745,8,0,395,20933,116,1015,0,324,628,44,0,0,0,0
IT,Italy,country,Europe and Central Asia,41.87194,12.56738,GB,United Kingdom,country,Europe and Central Asia,55.378051,-3.435973,1989,884420,128996,16018,11615,104,1788,117,303447,179632,7359,80,25940,2705,22635,12640,162430,0,4735,4061,118,0,0,0,0
JP,Japan,country,East Asia and Pacific,36.204824,138.252924,GB,United Kingdom,country,Europe and Central Asia,55.378051,-3.435973,1989,7339,274,2,82,0,0,295,64,138,4453,0,143,8,423,21,1436,0,0,0,0,0,0,0,0
JO,Jordan,country,Middle East and North Africa,30.585164,36.238414,GB,United Kingdom,country,Europe and Central Asia,55.378051,-3.435973,1989,1708,0,0,0,399,0,0,1185,123,0,0,0,0,0,0,0,0,0,1,0,0,0,0,0
MW,Malawi,country,Sub-Saharan Africa,-13.254308,34.301525,GB,United Kingdom,country,Europe and Central Asia,55.378051,-3.435973,1989,48258,0,8,13139,0,42,1781,0,0,4417,141,0,24410,4320,0,0,0,0,0,0,0,0,0,0
MY,Malaysia,country,East Asia and Pacific,4.210484,101.975766,GB,United Kingdom,country,Europe and Central Asia,55.378051,-3.435973,1989,255383,157,13,24,57,0,1001,3,8875,0,475,4158,11515,70893,158191,21,0,0,0,0,0,0,0,0
MX,Mexico,country,Latin America and the Caribbean,23.634501,-102.552784,GB,United Kingdom,country,Europe and Central Asia,55.378051,-3.435973,1989,171381,0,0,147616,0,0,373,532,1805,16,57,17510,215,356,0,2901,0,0,0,0,0,0,0,0
MA,Morocco,country,Middle East and North Africa,31.791702,-7.09262,GB,United Kingdom,country,Europe and Central Asia,55.378051,-3.435973,1989,88249,0,820,12909,213,251,275,1369,68200,0,1960,1000,0,1252,0,0,0,0,0,0,0,0,0,0
NL,Netherlands,country,Europe and Central Asia,52.132633,5.291266,GB,United Kingdom,country,Europe and Central Asia,55.378051,-3.435973,1989,2638126,90927,280473,53817,2637,1206,28270,395840,175170,2602,1744,825418,31491,141740,216390,123478,29,211195,55290,438,0,0,0,0
NZ,New Zealand,country,East Asia and Pacific,-40.900557,174.885971,GB,United Kingdom,country,Europe and Central Asia,55.378051,-3.435973,1989,311041,2,0,267,4860,0,160,11226,58877,25361,0,3397,0,3625,2024,1836,0,132860,65548,998,0,0,0,0
NO,Norway,country,Europe and Central Asia,60.472024,8.468946,GB,United Kingdom,country,Europe and Central Asia,55.378051,-3.435973,1989,12889,719,0,0,0,0,22,0,3,2375,2,605,52,2664,2752,487,0,0,1010,2152,46,0,0,0
OM,Oman,country,Middle East and North Africa,21.512583,55.923255,GB,United Kingdom,country,Europe and Central Asia,55.378051,-3.435973,1989,432,12,0,0,0,0,0,0,420,0,0,0,0,0,0,0,0,0,0,0,0,0,0,0
PK,Pakistan,country,South Asia,30.375321,69.345116,GB,United Kingdom,country,Europe and Central Asia,55.378051,-3.435973,1989,17733,2529,0,8849,0,0,7,224,1796,3969,254,0,0,103,0,0,0,2,0,0,0,0,0,0
PA,Panama,country,Latin America and the Caribbean,8.537981,-80.782127,GB,United Kingdom,country,Europe and Central Asia,55.378051,-3.435973,1989,69,0,0,0,0,0,0,10,58,0,0,0,0,1,0,0,0,0,0,0,0,0,0,0
PG,Papua New Guinea,country,East Asia and Pacific,-6.314993,143.95555,GB,United Kingdom,country,Europe and Central Asia,55.378051,-3.435973,1989,146300,0,0,0,0,0,4777,0,0,0,11,1483,7763,1134,131132,0,0,0,0,0,0,0,0,0
PY,Paraguay,country,Latin America and the Caribbean,-23.442503,-58.443832,GB,United Kingdom,country,Europe and Central Asia,55.378051,-3.435973,1989,8907,0,0,0,0,0,7175,0,0,1358,0,0,141,53,0,0,0,180,0,0,0,0,0,0
PE,Peru,country,Latin America and the Caribbean,-9.189967,-75.015152,GB,United Kingdom,country,Europe and Central Asia,55.378051,-3.435973,1989,3230,7,0,0,151,9,0,151,1280,1350,40,0,157,60,0,25,0,0,0,0,0,0,0,0
PH,Philippines,country,East Asia and Pacific,12.879721,121.774017,GB,United Kingdom,country,Europe and Central Asia,55.378051,-3.435973,1989,38686,17,2,5000,0,0,6755,2,15226,6494,7,500,51,95,4535,2,0,0,0,0,0,0,0,0
PT,Portugal,country,Europe and Central Asia,39.399872,-8.224454,GB,United Kingdom,country,Europe and Central Asia,55.378051,-3.435973,1989,33610,1590,859,61,80,191,11,11368,915,755,0,1378,3,253,1928,14116,0,0,102,0,0,0,0,0
KR,"Korea, Rep.",country,East Asia and Pacific,35.907757,127.766922,GB,United Kingdom,country,Europe and Central Asia,55.378051,-3.435973,1989,4987,2,0,16,0,0,0,0,12,0,0,0,1,4857,62,37,0,0,0,0,0,0,0,0
RE,Reunion,country,Sub-Saharan Africa,-21.115141,55.536384,GB,United Kingdom,country,Europe and Central Asia,55.378051,-3.435973,1989,12400,0,0,12400,0,0,0,0,0,0,0,0,0,0,0,0,0,0,0,0,0,0,0,0
SN,Senegal,country,Sub-Saharan Africa,14.497401,-14.452362,GB,United Kingdom,country,Europe and Central Asia,55.378051,-3.435973,1989,3837,0,0,0,0,0,0,2,0,107,0,1675,0,0,2053,0,0,0,0,0,0,0,0,0
SG,Singapore,country,East Asia and Pacific,1.352083,103.819836,GB,United Kingdom,country,Europe and Central Asia,55.378051,-3.435973,1989,24343,1018,42,1,0,0,2948,42,5963,384,1178,0,1184,10304,138,1137,0,4,0,0,0,0,0,0
ES,Spain,country,Europe and Central Asia,40.463667,-3.74922,GB,United Kingdom,country,Europe and Central Asia,55.378051,-3.435973,1989,1075484,219199,25447,2426,54,2120,1944,391559,334506,5027,1176,19684,1242,3398,6267,56213,0,4880,233,109,0,0,0,0
LK,Sri Lanka,country,South Asia,7.873054,80.771797,GB,United Kingdom,country,Europe and Central Asia,55.378051,-3.435973,1989,30960,54,2,0,0,0,8345,172,31,0,878,250,12323,8863,4,13,0,0,0,25,0,0,0,0
SE,Sweden,country,Europe and Central Asia,60.128161,18.643501,GB,United Kingdom,country,Europe and Central Asia,55.378051,-3.435973,1989,27621,8902,490,415,1,0,3180,390,78,373,6,2800,1569,3175,373,1748,0,1953,358,1810,0,0,0,0
CH,Switzerland,country,Europe and Central Asia,46.818188,8.227512,GB,United Kingdom,country,Europe and Central Asia,55.378051,-3.435973,1989,15667,596,0,950,0,5,11,63,630,2327,0,2782,3864,2462,33,352,0,2,1541,49,0,0,0,0
SY,Syrian Arab Rep.,country,Middle East and North Africa,34.802075,38.996815,GB,United Kingdom,country,Europe and Central Asia,55.378051,-3.435973,1989,1044,0,0,0,28,1,0,37,12,933,0,0,0,0,0,33,0,0,0,0,0,0,0,0
TH,Thailand,country,East Asia and Pacific,15.870032,100.992541,GB,United Kingdom,country,Europe and Central Asia,55.378051,-3.435973,1989,233250,10274,2216,171231,5082,20,48,9931,14155,1629,209,5677,13,12056,198,306,0,69,46,90,0,0,0,0
TT,Trinidad and Tobago,country,Latin America and the Caribbean,10.691803,-61.222503,GB,United Kingdom,country,Europe and Central Asia,55.378051,-3.435973,1989,55697,272,1,51226,0,0,0,432,146,0,88,0,184,47,0,3300,0,0,1,0,0,0,0,0
TN,Tunisia,country,Middle East and North Africa,33.886917,9.537499,GB,United Kingdom,country,Europe and Central Asia,55.378051,-3.435973,1989,4090,4,0,10,0,0,0,0,759,4,1,3305,0,7,0,0,0,0,0,0,0,0,0,0
TR,Turkey,country,Europe and Central Asia,38.963745,35.243322,GB,United Kingdom,country,Europe and Central Asia,55.378051,-3.435973,1989,102724,919,281,18958,9387,6882,76,9139,47677,6160,882,0,1275,611,6,428,0,0,43,0,0,0,0,0
US,USA,country,North America,37.09024,-95.712891,GB,United Kingdom,country,Europe and Central Asia,55.378051,-3.435973,1989,1105941,118576,649,81213,73745,14209,355728,28828,85697,16607,474,275549,791,13700,3630,24464,75,9584,973,1102,422,0,0,0
UY,Uruguay,country,Latin America and the Caribbean,-32.522779,-55.765835,GB,United Kingdom,country,Europe and Central Asia,55.378051,-3.435973,1989,20490,0,0,0,0,0,0,59,4535,3048,0,0,0,0,0,0,0,12846,0,2,0,0,0,0
RU,Russian Federation,country,Europe and Central Asia,61.52401,105.318756,GB,United Kingdom,country,Europe and Central Asia,55.378051,-3.435973,1989,14633,0,0,0,0,0,0,0,0,14633,0,0,0,0,0,0,0,0,0,0,0,0,0,0
VE,Venezuela,country,Latin America and the Caribbean,6.42375,-66.58973,GB,United Kingdom,country,Europe and Central Asia,55.378051,-3.435973,1989,18860,0,0,15221,0,0,0,854,2554,198,0,0,0,33,0,0,0,0,0,0,0,0,0,0
BA,Bosnia & Herzegovina,country,Europe and Central Asia,43.915886,17.679076,GB,United Kingdom,country,Europe and Central Asia,55.378051,-3.435973,1989,48041,0,0,25929,0,0,0,924,4155,426,2,54,168,1727,0,13448,0,1184,24,0,0,0,0,0
AR,Argentina,country,Latin America and the Caribbean,-38.416097,-63.616672,GB,United Kingdom,country,Europe and Central Asia,55.378051,-3.435973,1990,202961,90477,0,2169,308,0,5847,2522,15937,1521,0,36788,2491,10248,256,1086,0,33297,14,0,0,0,0,0
AU,Australia,country,East Asia and Pacific,-25.274398,133.775136,GB,United Kingdom,country,Europe and Central Asia,55.378051,-3.435973,1990,114472,1915,0,4378,7589,26,273,19678,24937,14095,63,107,8,508,795,13033,0,23353,2367,1347,0,0,0,0
AT,Austria,country,Europe and Central Asia,47.516231,14.550072,GB,United Kingdom,country,Europe and Central Asia,55.378051,-3.435973,1990,6952,454,0,104,268,0,0,64,35,7,4,580,1170,191,2,2165,0,19,1889,0,0,0,0,0
BB,Barbados,country,Latin America and the Caribbean,13.193887,-59.543198,GB,United Kingdom,country,Europe and Central Asia,55.378051,-3.435973,1990,54874,0,791,52968,0,0,4,72,188,0,47,0,0,37,0,767,0,0,0,0,0,0,0,0
BE,Belgium,country,Europe and Central Asia,50.503887,4.469936,GB,United Kingdom,country,Europe and Central Asia,55.378051,-3.435973,1990,745818,58364,54835,13167,529,29,832,73217,50057,9746,34,218708,9281,47716,99571,43785,0,21772,44047,128,0,0,0,0
BO,Bolivia,country,Latin America and the Caribbean,-16.290154,-63.588653,GB,United Kingdom,country,Europe and Central Asia,55.378051,-3.435973,1990,1076,0,0,0,0,822,63,0,0,114,0,0,75,0,0,2,0,0,0,0,0,0,0,0
BW,Botswana,country,Sub-Saharan Africa,-22.328474,24.684866,GB,United Kingdom,country,Europe and Central Asia,55.378051,-3.435973,1990,5115,1220,0,0,0,0,0,0,0,0,0,0,0,0,0,0,2,3878,0,17,0,0,0,0
BR,Brazil,country,Latin America and the Caribbean,-14.235004,-51.92528,GB,United Kingdom,country,Europe and Central Asia,55.378051,-3.435973,1990,258827,0,2,57,0,4753,39404,11686,9941,1995,1637,87601,23487,37713,633,1974,0,37944,0,0,0,0,0,0
CM,Cameroon,country,Sub-Saharan Africa,7.369722,12.354722,GB,United Kingdom,country,Europe and Central Asia,55.378051,-3.435973,1990,4988,0,0,0,0,0,0,0,10,677,0,1000,2878,423,0,0,3,0,0,0,0,0,0,0
CA,Canada,country,North America,56.130366,-106.346771,GB,United Kingdom,country,Europe and Central Asia,55.378051,-3.435973,1990,406491,312260,20,1239,48189,6,2760,11013,12134,484,2,631,36,9393,1049,2247,10,691,4310,27,0,0,0,0
CL,Chile,country,Latin America and the Caribbean,-35.675147,-71.542969,GB,United Kingdom,country,Europe and Central Asia,55.378051,-3.435973,1990,77027,22,17,0,1735,0,3,21126,42523,1169,6,95,0,7589,1,2431,0,301,8,1,0,0,0,0
HK,Hong Kong,country,East Asia and Pacific,22.396428,114.109497,GB,United Kingdom,country,Europe and Central Asia,55.378051,-3.435973,1990,26420,2491,62,248,208,1392,6420,2469,3335,1906,217,16,221,6294,223,907,0,11,0,0,0,0,0,0
CN,China,country,East Asia and Pacific,35.86166,104.195397,GB,United Kingdom,country,Europe and Central Asia,55.378051,-3.435973,1990,233571,4318,10277,6607,3671,1662,27402,4457,4015,5560,787,135237,6816,12416,6001,498,0,3689,156,2,0,0,0,0
TW,Taiwan,country,East Asia and Pacific,23.69781,120.960515,GB,United Kingdom,country,Europe and Central Asia,55.378051,-3.435973,1990,2846,183,13,206,0,44,8,694,225,0,83,2,102,1014,0,272,0,0,0,0,0,0,0,0
CO,Colombia,country,Latin America and the Caribbean,4.570868,-74.297333,GB,United Kingdom,country,Europe and Central Asia,55.378051,-3.435973,1990,34462,15,0,0,0,0,0,92,5072,2010,0,0,21735,5509,18,11,0,0,0,0,0,0,0,0
CY,Cyprus,country,Europe and Central Asia,35.126413,33.429859,GB,United Kingdom,country,Europe and Central Asia,55.378051,-3.435973,1990,145400,554,68230,14,19,5,18,7175,62239,101,0,2229,52,51,2,4176,0,156,363,16,0,0,0,0
DK,Denmark,country,Europe and Central Asia,56.26392,9.501785,GB,United Kingdom,country,Europe and Central Asia,55.378051,-3.435973,1990,706986,86934,551,61729,48,0,48503,2955,9642,22,33,104257,959,68767,37990,9844,730,232518,38761,3473,0,0,0,0
EC,Ecuador,country,Latin America and the Caribbean,-1.831239,-78.183406,GB,United Kingdom,country,Europe and Central Asia,55.378051,-3.435973,1990,15714,0,0,0,0,0,0,0,9105,6004,0,0,591,0,14,0,0,0,0,0,0,0,0,0
EG,Egypt,country,Middle East and North Africa,26.820553,30.802498,GB,United Kingdom,country,Europe and Central Asia,55.378051,-3.435973,1990,123893,4595,87130,17622,897,0,281,3852,8588,234,325,0,8,287,72,0,0,0,2,0,0,0,0,0
ET,Ethiopia,country,Sub-Saharan Africa,9.145,40.489673,GB,United Kingdom,country,Europe and Central Asia,55.378051,-3.435973,1990,577,0,0,0,0,0,0,27,0,50,0,0,168,0,0,0,0,54,0,278,0,0,0,0
FJ,Fiji,country,East Asia and Pacific,-16.578193,179.414413,GB,United Kingdom,country,Europe and Central Asia,55.378051,-3.435973,1990,180717,0,0,180313,0,0,0,0,0,0,38,0,366,0,0,0,0,0,0,0,0,0,0,0
FI,Finland,country,Europe and Central Asia,61.92411,25.748151,GB,United Kingdom,country,Europe and Central Asia,55.378051,-3.435973,1990,15072,6859,0,402,0,0,0,356,21,32,0,415,1579,9,3433,366,0,98,1173,329,0,0,0,0
FR,France,country,Europe and Central Asia,46.227638,2.213749,GB,United Kingdom,country,Europe and Central Asia,55.378051,-3.435973,1990,3202020,1647898,23273,46241,4888,750,49357,126466,309165,6851,69,211876,17138,49612,60780,471300,22,101342,73744,1270,0,0,0,0
GR,Greece,country,Europe and Central Asia,39.074208,21.824312,GB,United Kingdom,country,Europe and Central Asia,55.378051,-3.435973,1990,234627,36031,11575,237,5,197,688,57559,116589,1342,0,2432,27,1246,1202,912,0,127,4458,0,0,0,0,0
GT,Guatemala,country,Latin America and the Caribbean,15.783471,-90.230759,GB,United Kingdom,country,Europe and Central Asia,55.378051,-3.435973,1990,24398,0,21,16912,0,0,3505,1382,114,0,165,0,2299,0,0,0,0,0,0,0,0,0,0,0
IS,Iceland,country,Europe and Central Asia,64.963051,-19.020835,GB,United Kingdom,country,Europe and Central Asia,55.378051,-3.435973,1990,3942,0,0,0,0,0,0,0,0,1060,0,1269,0,59,0,1529,0,0,0,25,0,0,0,0
IN,India,country,South Asia,20.593684,78.96288,GB,United Kingdom,country,Europe and Central Asia,55.378051,-3.435973,1990,135314,32034,28,757,306,2057,22707,4456,4579,2778,4590,17825,22301,18201,2416,279,0,0,0,0,0,0,0,0
ID,Indonesia,country,East Asia and Pacific,-0.789275,113.921327,GB,United Kingdom,country,Europe and Central Asia,55.378051,-3.435973,1990,279131,102,60220,9800,0,0,29,87,1651,106,901,1150,23570,17416,164080,19,0,0,0,0,0,0,0,0
IE,Ireland,country,Europe and Central Asia,53.41291,-8.24389,GB,United Kingdom,country,Europe and Central Asia,55.378051,-3.435973,1990,1409677,340795,13678,57842,315,22,14621,32566,27709,11488,40,117402,81923,90711,49462,272007,2414,147197,119937,31962,0,0,0,0
IT,Italy,country,Europe and Central Asia,41.87194,12.56738,GB,United Kingdom,country,Europe and Central Asia,55.378051,-3.435973,1990,806132,101145,12391,1183,48,1366,305,271828,167433,3105,136,20249,2680,26028,19801,170322,0,3328,4576,184,24,0,0,0
JP,Japan,country,East Asia and Pacific,36.204824,138.252924,GB,United Kingdom,country,Europe and Central Asia,55.378051,-3.435973,1990,9771,239,2,73,0,0,321,70,172,5452,0,136,16,471,52,2767,0,0,0,0,0,0,0,0
JO,Jordan,country,Middle East and North Africa,30.585164,36.238414,GB,United Kingdom,country,Europe and Central Asia,55.378051,-3.435973,1990,1568,0,0,0,279,0,0,1096,193,0,0,0,0,0,0,0,0,0,0,0,0,0,0,0
KE,Kenya,country,Sub-Saharan Africa,-0.023559,37.906193,GB,United Kingdom,country,Europe and Central Asia,55.378051,-3.435973,1990,77563,0,0,17906,300,0,12,13652,15510,0,0,0,28926,0,0,0,0,1257,0,0,0,0,0,0
LY,Libya,country,Middle East and North Africa,26.3351,17.228331,GB,United Kingdom,country,Europe and Central Asia,55.378051,-3.435973,1990,6337,0,1120,0,0,0,200,1163,2837,820,0,50,0,105,0,0,0,0,0,42,0,0,0,0
MG,Madagascar,country,Sub-Saharan Africa,-18.766947,46.869107,GB,United Kingdom,country,Europe and Central Asia,55.378051,-3.435973,1990,590,0,0,0,0,0,0,0,206,0,337,0,17,10,0,0,0,0,20,0,0,0,0,0
MY,Malaysia,country,East Asia and Pacific,4.210484,101.975766,GB,United Kingdom,country,Europe and Central Asia,55.378051,-3.435973,1990,358703,96,20,4077,0,0,1313,31,5965,44,518,84157,15766,70071,176607,36,0,2,0,0,0,0,0,0
MT,Malta,country,Middle East and North Africa,35.937496,14.375416,GB,United Kingdom,country,Europe and Central Asia,55.378051,-3.435973,1990,414,23,0,0,0,0,0,0,264,24,0,0,0,46,44,13,0,0,0,0,0,0,0,0
MU,Mauritius,country,Sub-Saharan Africa,-20.348404,57.552152,GB,United Kingdom,country,Europe and Central Asia,55.378051,-3.435973,1990,495426,0,0,492519,0,0,0,25,100,87,6,0,2598,0,0,45,0,46,0,0,0,0,0,0
MX,Mexico,country,Latin America and the Caribbean,23.634501,-102.552784,GB,United Kingdom,country,Europe and Central Asia,55.378051,-3.435973,1990,30116,0,0,6566,40,0,106,626,2466,0,30,44,933,225,66,19014,0,0,0,0,0,0,0,0
NL,Netherlands,country,Europe and Central Asia,52.132633,5.291266,GB,United Kingdom,country,Europe and Central Asia,55.378051,-3.435973,1990,2714987,101255,200980,30251,3195,974,19251,435290,141106,2403,1847,975775,28780,143676,238202,111811,14,215221,64731,239,0,0,0,0
NZ,New Zealand,country,East Asia and Pacific,-40.900557,174.885971,GB,United Kingdom,country,Europe and Central Asia,55.378051,-3.435973,1990,301759,22,0,158,3636,0,49,19369,56116,20786,0,2574,0,2035,360,4504,0,129952,61930,268,0,0,0,0
NO,Norway,country,Europe and Central Asia,60.472024,8.468946,GB,United Kingdom,country,Europe and Central Asia,55.378051,-3.435973,1990,10121,380,0,11,0,0,19,701,11,2107,0,836,30,339,2629,115,0,10,922,1987,24,0,0,0
OM,Oman,country,Middle East and North Africa,21.512583,55.923255,GB,United Kingdom,country,Europe and Central Asia,55.378051,-3.435973,1990,823,0,0,0,0,0,0,0,819,0,0,0,4,0,0,0,0,0,0,0,0,0,0,0
PK,Pakistan,country,South Asia,30.375321,69.345116,GB,United Kingdom,country,Europe and Central Asia,55.378051,-3.435973,1990,23423,3661,0,4021,0,0,94,377,5111,8696,1057,0,0,406,0,0,0,0,0,0,0,0,0,0
PA,Panama,country,Latin America and the Caribbean,8.537981,-80.782127,GB,United Kingdom,country,Europe and Central Asia,55.378051,-3.435973,1990,8,0,0,0,0,0,0,4,3,0,0,0,0,1,0,0,0,0,0,0,0,0,0,0
PG,Papua New Guinea,country,East Asia and Pacific,-6.314993,143.95555,GB,United Kingdom,country,Europe and Central Asia,55.378051,-3.435973,1990,163571,0,0,0,0,0,27922,0,0,0,0,0,5219,706,129724,0,0,0,0,0,0,0,0,0
PY,Paraguay,country,Latin America and the Caribbean,-23.442503,-58.443832,GB,United Kingdom,country,Europe and Central Asia,55.378051,-3.435973,1990,9177,0,0,0,0,0,7500,0,0,1574,0,23,26,30,0,0,0,24,0,0,0,0,0,0
PE,Peru,country,Latin America and the Caribbean,-9.189967,-75.015152,GB,United Kingdom,country,Europe and Central Asia,55.378051,-3.435973,1990,1911,0,0,0,358,4,0,142,1100,151,72,0,17,51,0,16,0,0,0,0,0,0,0,0
PH,Philippines,country,East Asia and Pacific,12.879721,121.774017,GB,United Kingdom,country,Europe and Central Asia,55.378051,-3.435973,1990,50811,18,7,1,0,0,4904,9,16070,6875,0,16130,6,69,6560,19,0,0,143,0,0,0,0,0
PT,Portugal,country,Europe and Central Asia,39.399872,-8.224454,GB,United Kingdom,country,Europe and Central Asia,55.378051,-3.435973,1990,45114,2794,2170,1,0,450,29,18305,819,339,0,3085,4,856,282,15910,0,42,12,16,0,0,0,0
KR,"Korea, Rep.",country,East Asia and Pacific,35.907757,127.766922,GB,United Kingdom,country,Europe and Central Asia,55.378051,-3.435973,1990,5966,0,0,225,0,0,0,8,19,22,0,0,0,5590,47,55,0,0,0,0,0,0,0,0
SN,Senegal,country,Sub-Saharan Africa,14.497401,-14.452362,GB,United Kingdom,country,Europe and Central Asia,55.378051,-3.435973,1990,15640,0,0,15110,0,0,0,6,0,524,0,0,0,0,0,0,0,0,0,0,0,0,0,0
SC,Seychelles,country,Sub-Saharan Africa,-4.679574,55.491977,GB,United Kingdom,country,Europe and Central Asia,55.378051,-3.435973,1990,21,0,0,0,0,0,0,0,1,0,0,0,0,1,0,19,0,0,0,0,0,0,0,0
SG,Singapore,country,East Asia and Pacific,1.352083,103.819836,GB,United Kingdom,country,Europe and Central Asia,55.378051,-3.435973,1990,16960,1331,4,4,0,1,4502,436,5025,312,1299,0,2173,13,404,1436,0,14,6,0,0,0,0,0
ES,Spain,country,Europe and Central Asia,40.463667,-3.74922,GB,United Kingdom,country,Europe and Central Asia,55.378051,-3.435973,1990,1013994,119754,19886,1026,43,1661,2017,462749,313466,2397,1426,15330,6043,4037,4680,55551,0,3437,225,265,1,0,0,0
LK,Sri Lanka,country,South Asia,7.873054,80.771797,GB,United Kingdom,country,Europe and Central Asia,55.378051,-3.435973,1990,34163,22,12,0,0,0,11215,1296,288,0,561,3,11746,8982,0,7,0,27,0,4,0,0,0,0
SE,Sweden,country,Europe and Central Asia,60.128161,18.643501,GB,United Kingdom,country,Europe and Central Asia,55.378051,-3.435973,1990,30564,10703,263,436,6,0,3187,797,11,140,5,4511,1747,3479,871,1298,0,1164,173,1773,0,0,0,0
CH,Switzerland,country,Europe and Central Asia,46.818188,8.227512,GB,United Kingdom,country,Europe and Central Asia,55.378051,-3.435973,1990,13408,816,0,775,19,3,8,48,464,1564,0,2633,3328,1770,35,394,0,4,1477,70,0,0,0,0
TH,Thailand,country,East Asia and Pacific,15.870032,100.992541,GB,United Kingdom,country,Europe and Central Asia,55.378051,-3.435973,1990,384355,16368,1669,311145,4421,0,268,8688,17131,1586,282,6064,21,15820,325,428,0,0,0,139,0,0,0,0
TT,Trinidad and Tobago,country,Latin America and the Caribbean,10.691803,-61.222503,GB,United Kingdom,country,Europe and Central Asia,55.378051,-3.435973,1990,49208,0,0,45037,0,0,4,163,68,0,49,0,132,28,1,3726,0,0,0,0,0,0,0,0
TN,Tunisia,country,Middle East and North Africa,33.886917,9.537499,GB,United Kingdom,country,Europe and Central Asia,55.378051,-3.435973,1990,2639,0,0,30,0,0,0,0,426,22,1,2100,0,12,0,48,0,0,0,0,0,0,0,0
TR,Turkey,country,Europe and Central Asia,38.963745,35.243322,GB,United Kingdom,country,Europe and Central Asia,55.378051,-3.435973,1990,108660,659,63,5352,14785,9174,68,13476,55010,3772,789,0,1311,1965,1531,607,22,44,54,0,0,0,0,0
US,USA,country,North America,37.09024,-95.712891,GB,United Kingdom,country,Europe and Central Asia,55.378051,-3.435973,1990,1417008,131374,621,15446,92418,14897,499377,36272,102761,15432,472,450269,1416,14552,4334,23987,64,9962,2275,1012,131,0,0,0
UY,Uruguay,country,Latin America and the Caribbean,-32.522779,-55.765835,GB,United Kingdom,country,Europe and Central Asia,55.378051,-3.435973,1990,29992,0,0,0,0,0,0,68,13030,5138,0,0,0,0,0,0,0,11754,0,2,0,0,0,0
VE,Venezuela,country,Latin America and the Caribbean,6.42375,-66.58973,GB,United Kingdom,country,Europe and Central Asia,55.378051,-3.435973,1990,3090,0,0,0,0,0,81,836,2173,0,0,0,0,0,0,0,0,0,0,0,0,0,0,0
BA,Bosnia & Herzegovina,country,Europe and Central Asia,43.915886,17.679076,GB,United Kingdom,country,Europe and Central Asia,55.378051,-3.435973,1990,19837,0,0,185,0,0,102,971,2645,66,14,568,138,1549,0,13128,0,471,0,0,0,0,0,0
ZW,Zimbabwe,country,Sub-Saharan Africa,-19.015438,29.154857,GB,United Kingdom,country,Europe and Central Asia,55.378051,-3.435973,1990,57365,0,0,16500,151,14,4098,2086,970,1872,13,0,7247,22496,0,131,0,1542,245,0,0,0,0,0
AR,Argentina,country,Latin America and the Caribbean,-38.416097,-63.616672,GB,United Kingdom,country,Europe and Central Asia,55.378051,-3.435973,1991,441987,198537,0,1837,306,0,40872,888,22406,1638,0,136253,1637,10163,8378,909,0,18163,0,0,0,0,0,0
AU,Australia,country,East Asia and Pacific,-25.274398,133.775136,GB,United Kingdom,country,Europe and Central Asia,55.378051,-3.435973,1991,118201,1669,0,3574,10286,20,355,19009,22947,16372,92,804,24,302,2011,20802,0,16994,2178,762,0,0,0,0
AT,Austria,country,Europe and Central Asia,47.516231,14.550072,GB,United Kingdom,country,Europe and Central Asia,55.378051,-3.435973,1991,6679,582,0,130,487,0,0,40,167,0,1,609,870,221,2,1942,0,7,1568,53,0,0,0,0
BB,Barbados,country,Latin America and the Caribbean,13.193887,-59.543198,GB,United Kingdom,country,Europe and Central Asia,55.378051,-3.435973,1991,30092,9,120,29366,0,0,0,47,123,0,18,0,0,53,0,356,0,0,0,0,0,0,0,0
BE,Belgium,country,Europe and Central Asia,50.503887,4.469936,GB,United Kingdom,country,Europe and Central Asia,55.378051,-3.435973,1991,736739,62768,54763,17217,343,11,816,74011,41517,7743,43,197744,10790,50919,94462,44880,0,26029,52523,160,0,0,0,0
BO,Bolivia,country,Latin America and the Caribbean,-16.290154,-63.588653,GB,United Kingdom,country,Europe and Central Asia,55.378051,-3.435973,1991,1090,0,0,0,0,936,0,0,62,87,0,0,5,0,0,0,0,0,0,0,0,0,0,0
BW,Botswana,country,Sub-Saharan Africa,-22.328474,24.684866,GB,United Kingdom,country,Europe and Central Asia,55.378051,-3.435973,1991,6356,0,0,0,0,0,0,0,0,0,0,0,0,0,0,0,0,6356,0,0,0,0,0,0
BR,Brazil,country,Latin America and the Caribbean,-14.235004,-51.92528,GB,United Kingdom,country,Europe and Central Asia,55.378051,-3.435973,1991,413028,0,7,14,0,2597,44591,19230,17624,3734,1926,207129,28193,34013,257,57,0,53653,3,0,0,0,0,0
CM,Cameroon,country,Sub-Saharan Africa,7.369722,12.354722,GB,United Kingdom,country,Europe and Central Asia,55.378051,-3.435973,1991,856,0,0,0,0,0,0,0,0,307,0,0,370,179,0,0,0,0,0,0,0,0,0,0
CA,Canada,country,North America,56.130366,-106.346771,GB,United Kingdom,country,Europe and Central Asia,55.378051,-3.435973,1991,402170,310036,3340,977,42941,0,2350,10056,13822,603,0,1202,10,7553,0,4549,5,359,4372,0,0,0,0,0
CL,Chile,country,Latin America and the Caribbean,-35.675147,-71.542969,GB,United Kingdom,country,Europe and Central Asia,55.378051,-3.435973,1991,81957,0,0,0,454,0,10,20470,51271,1015,8,0,0,4455,103,4086,0,85,0,0,0,0,0,0
HK,Hong Kong,country,East Asia and Pacific,22.396428,114.109497,GB,United Kingdom,country,Europe and Central Asia,55.378051,-3.435973,1991,21316,2889,48,345,224,818,3810,2754,2314,1318,279,0,178,5273,326,740,0,0,0,0,0,0,0,0
CN,China,country,East Asia and Pacific,35.86166,104.195397,GB,United Kingdom,country,Europe and Central Asia,55.378051,-3.435973,1991,190788,4688,28207,6715,3878,1706,24410,4303,5776,5425,1513,78042,6446,9197,8915,792,0,738,37,0,0,0,0,0
TW,Taiwan,country,East Asia and Pacific,23.69781,120.960515,GB,United Kingdom,country,Europe and Central Asia,55.378051,-3.435973,1991,3827,110,20,1033,0,0,19,335,127,10,75,21,67,1724,15,248,0,3,0,20,0,0,0,0
CO,Colombia,country,Latin America and the Caribbean,4.570868,-74.297333,GB,United Kingdom,country,Europe and Central Asia,55.378051,-3.435973,1991,32262,5,0,5,0,0,0,0,2415,623,2,0,21693,7505,0,14,0,0,0,0,0,0,0,0
CR,Costa Rica,country,Latin America and the Caribbean,9.748917,-83.753428,GB,United Kingdom,country,Europe and Central Asia,55.378051,-3.435973,1991,18557,0,1330,0,0,0,466,1110,1943,0,1099,0,12609,0,0,0,0,0,0,0,0,0,0,0
DK,Denmark,country,Europe and Central Asia,56.26392,9.501785,GB,United Kingdom,country,Europe and Central Asia,55.378051,-3.435973,1991,700863,106695,737,54504,97,0,42525,2229,8163,19,14,92943,1426,64767,37590,10311,861,236141,39916,2786,0,0,0,0
EC,Ecuador,country,Latin America and the Caribbean,-1.831239,-78.183406,GB,United Kingdom,country,Europe and Central Asia,55.378051,-3.435973,1991,6828,0,0,0,0,0,0,40,346,5850,0,0,592,0,0,0,0,0,0,0,0,0,0,0
EG,Egypt,country,Middle East and North Africa,26.820553,30.802498,GB,United Kingdom,country,Europe and Central Asia,55.378051,-3.435973,1991,148631,33762,95832,28,2,0,1180,3402,13681,0,424,0,8,294,18,0,0,0,0,0,0,0,0,0
SV,El Salvador,country,Latin America and the Caribbean,13.794185,-88.89653,GB,United Kingdom,country,Europe and Central Asia,55.378051,-3.435973,1991,626,0,0,355,0,0,147,0,124,0,0,0,0,0,0,0,0,0,0,0,0,0,0,0
ET,Ethiopia,country,Sub-Saharan Africa,9.145,40.489673,GB,United Kingdom,country,Europe and Central Asia,55.378051,-3.435973,1991,552,0,0,0,0,0,0,0,0,9,40,0,339,0,0,0,0,0,0,164,0,0,0,0
FO,Faroe Islands,country,Europe and Central Asia,61.892635,-6.911806,GB,United Kingdom,country,Europe and Central Asia,55.378051,-3.435973,1991,11,0,0,0,0,0,0,0,0,0,0,0,0,0,0,0,0,0,0,11,0,0,0,0
FJ,Fiji,country,East Asia and Pacific,-16.578193,179.414413,GB,United Kingdom,country,Europe and Central Asia,55.378051,-3.435973,1991,320376,0,0,319984,0,0,1,1,0,0,80,0,310,0,0,0,0,0,0,0,0,0,0,0
FI,Finland,country,Europe and Central Asia,61.92411,25.748151,GB,United Kingdom,country,Europe and Central Asia,55.378051,-3.435973,1991,20662,11604,0,319,0,1,0,0,0,44,0,201,1830,3,4760,346,0,0,1343,211,0,0,0,0
FR,France,country,Europe and Central Asia,46.227638,2.213749,GB,United Kingdom,country,Europe and Central Asia,55.378051,-3.435973,1991,2874175,1264050,32482,43592,3977,802,70572,133675,284368,8263,92,238100,21825,50288,124649,409976,40,114387,71671,1406,0,0,0,0
DE,Germany,country,Europe and Central Asia,51.165691,10.451526,GB,United Kingdom,country,Europe and Central Asia,55.378051,-3.435973,1991,1077248,155744,8249,22735,556,1232,13349,17089,27758,9105,701,271377,30549,24732,70337,279512,21,33138,110546,515,24,0,0,0
GR,Greece,country,Europe and Central Asia,39.074208,21.824312,GB,United Kingdom,country,Europe and Central Asia,55.378051,-3.435973,1991,336319,150956,21090,226,0,134,613,44275,105693,1571,0,1636,50,3632,515,1128,0,114,4686,0,0,0,0,0
GD,Grenada,country,Latin America and the Caribbean,12.262776,-61.604171,GB,United Kingdom,country,Europe and Central Asia,55.378051,-3.435973,1991,7652,0,1,0,0,0,0,34,7179,0,238,0,193,7,0,0,0,0,0,0,0,0,0,0
GT,Guatemala,country,Latin America and the Caribbean,15.783471,-90.230759,GB,United Kingdom,country,Europe and Central Asia,55.378051,-3.435973,1991,17568,0,0,424,0,0,4080,769,11281,0,182,0,778,54,0,0,0,0,0,0,0,0,0,0
HN,Honduras,country,Latin America and the Caribbean,15.199999,-86.241905,GB,United Kingdom,country,Europe and Central Asia,55.378051,-3.435973,1991,32320,0,0,0,0,0,0,212,31356,0,0,0,749,3,0,0,0,0,0,0,0,0,0,0
HU,Hungary,country,Europe and Central Asia,47.162494,19.503304,GB,United Kingdom,country,Europe and Central Asia,55.378051,-3.435973,1991,33293,529,0,309,3596,147,1281,6267,7435,98,27,128,7,30,3208,8826,2,1188,201,16,0,0,0,0
IS,Iceland,country,Europe and Central Asia,64.963051,-19.020835,GB,United Kingdom,country,Europe and Central Asia,55.378051,-3.435973,1991,2062,0,0,0,0,0,0,0,0,743,0,25,0,12,0,1282,0,0,0,0,0,0,0,0
IN,India,country,South Asia,20.593684,78.96288,GB,United Kingdom,country,Europe and Central Asia,55.378051,-3.435973,1991,348116,67708,33,120584,549,3083,285,5223,3689,1351,5376,103745,24965,10985,248,267,0,16,9,0,0,0,0,0
ID,Indonesia,country,East Asia and Pacific,-0.789275,113.921327,GB,United Kingdom,country,Europe and Central Asia,55.378051,-3.435973,1991,276182,216,50517,8,0,14,54,223,1350,194,427,11921,20932,20970,169292,21,0,43,0,0,0,0,0,0
IE,Ireland,country,Europe and Central Asia,53.41291,-8.24389,GB,United Kingdom,country,Europe and Central Asia,55.378051,-3.435973,1991,1404072,280819,18648,56181,258,27,4070,29606,40096,13839,38,138544,79196,88942,49759,285146,3084,158205,124299,36399,0,0,0,0
IT,Italy,country,Europe and Central Asia,41.87194,12.56738,GB,United Kingdom,country,Europe and Central Asia,55.378051,-3.435973,1991,804332,109772,12274,1283,31,1452,56,315360,145771,3788,109,10061,2450,27526,15283,150043,0,3641,5275,157,0,0,0,0
JP,Japan,country,East Asia and Pacific,36.204824,138.252924,GB,United Kingdom,country,Europe and Central Asia,55.378051,-3.435973,1991,7064,313,1,62,0,0,357,71,50,3698,0,135,38,547,103,1689,0,0,0,0,0,0,0,0
JO,Jordan,country,Middle East and North Africa,30.585164,36.238414,GB,United Kingdom,country,Europe and Central Asia,55.378051,-3.435973,1991,884,0,0,0,0,0,0,576,283,0,0,0,0,25,0,0,0,0,0,0,0,0,0,0
KE,Kenya,country,Sub-Saharan Africa,-0.023559,37.906193,GB,United Kingdom,country,Europe and Central Asia,55.378051,-3.435973,1991,134533,20,0,21923,360,103,11,10798,15039,131,144,4311,78718,1090,0,191,0,1694,0,0,0,0,0,0
KW,Kuwait,country,Middle East and North Africa,29.31166,47.481766,GB,United Kingdom,country,Europe and Central Asia,55.378051,-3.435973,1991,198,0,0,0,0,0,0,0,0,198,0,0,0,0,0,0,0,0,0,0,0,0,0,0
LY,Libya,country,Middle East and North Africa,26.3351,17.228331,GB,United Kingdom,country,Europe and Central Asia,55.378051,-3.435973,1991,478,0,424,0,0,0,0,33,11,10,0,0,0,0,0,0,0,0,0,0,0,0,0,0
MG,Madagascar,country,Sub-Saharan Africa,-18.766947,46.869107,GB,United Kingdom,country,Europe and Central Asia,55.378051,-3.435973,1991,1057,0,0,0,39,0,0,1,192,0,513,0,245,43,4,0,0,0,20,0,0,0,0,0
MY,Malaysia,country,East Asia and Pacific,4.210484,101.975766,GB,United Kingdom,country,Europe and Central Asia,55.378051,-3.435973,1991,290018,137,52,28,0,0,831,52,7790,92,1127,58671,4012,61949,154692,70,2,0,16,0,499,0,0,0
MT,Malta,country,Middle East and North Africa,35.937496,14.375416,GB,United Kingdom,country,Europe and Central Asia,55.378051,-3.435973,1991,154,0,0,0,0,0,0,0,0,0,0,0,31,0,109,14,0,0,0,0,0,0,0,0
MU,Mauritius,country,Sub-Saharan Africa,-20.348404,57.552152,GB,United Kingdom,country,Europe and Central Asia,55.378051,-3.435973,1991,524103,0,0,520553,0,0,0,21,90,50,0,339,2904,0,0,27,0,119,0,0,0,0,0,0
MX,Mexico,country,Latin America and the Caribbean,23.634501,-102.552784,GB,United Kingdom,country,Europe and Central Asia,55.378051,-3.435973,1991,45658,0,0,6762,0,0,2430,1015,1834,0,0,309,1796,335,38,31139,0,0,0,0,0,0,0,0
MA,Morocco,country,Middle East and North Africa,31.791702,-7.09262,GB,United Kingdom,country,Europe and Central Asia,55.378051,-3.435973,1991,91123,0,337,0,118,183,331,3573,82034,0,2001,0,0,2208,338,0,0,0,0,0,0,0,0,0
NL,Netherlands,country,Europe and Central Asia,52.132633,5.291266,GB,United Kingdom,country,Europe and Central Asia,55.378051,-3.435973,1991,2554956,78496,196572,53330,3722,661,32267,426240,130550,2529,1715,856167,35571,154154,231593,103038,56,195503,52551,297,0,0,0,0
NZ,New Zealand,country,East Asia and Pacific,-40.900557,174.885971,GB,United Kingdom,country,Europe and Central Asia,55.378051,-3.435973,1991,273443,181,1,105,2599,0,39,11193,55235,19054,0,1914,0,0,4251,5420,0,102209,70980,262,0,0,0,0
NI,Nicaragua,country,Latin America and the Caribbean,12.865416,-85.207229,GB,United Kingdom,country,Europe and Central Asia,55.378051,-3.435973,1991,335,0,0,14,0,0,303,0,0,0,0,0,18,0,0,0,0,0,0,0,0,0,0,0
NO,Norway,country,Europe and Central Asia,60.472024,8.468946,GB,United Kingdom,country,Europe and Central Asia,55.378051,-3.435973,1991,11263,431,0,38,0,0,22,1315,1,3088,0,1348,235,180,2532,118,0,0,892,1045,18,0,0,0
OM,Oman,country,Middle East and North Africa,21.512583,55.923255,GB,United Kingdom,country,Europe and Central Asia,55.378051,-3.435973,1991,722,4,0,0,0,0,0,0,718,0,0,0,0,0,0,0,0,0,0,0,0,0,0,0
PK,Pakistan,country,South Asia,30.375321,69.345116,GB,United Kingdom,country,Europe and Central Asia,55.378051,-3.435973,1991,21379,5468,0,92,0,0,0,322,5541,8115,1201,0,0,640,0,0,0,0,0,0,0,0,0,0
PA,Panama,country,Latin America and the Caribbean,8.537981,-80.782127,GB,United Kingdom,country,Europe and Central Asia,55.378051,-3.435973,1991,1,0,0,0,0,0,0,1,0,0,0,0,0,0,0,0,0,0,0,0,0,0,0,0
PG,Papua New Guinea,country,East Asia and Pacific,-6.314993,143.95555,GB,United Kingdom,country,Europe and Central Asia,55.378051,-3.435973,1991,196981,0,0,0,0,0,17561,0,0,0,0,1477,5525,674,171744,0,0,0,0,0,0,0,0,0
PY,Paraguay,country,Latin America and the Caribbean,-23.442503,-58.443832,GB,United Kingdom,country,Europe and Central Asia,55.378051,-3.435973,1991,3198,0,0,0,0,0,2000,0,0,1062,0,14,0,64,0,0,0,58,0,0,0,0,0,0
PE,Peru,country,Latin America and the Caribbean,-9.189967,-75.015152,GB,United Kingdom,country,Europe and Central Asia,55.378051,-3.435973,1991,2010,0,0,0,199,9,0,139,1097,447,9,2,52,51,0,5,0,0,0,0,0,0,0,0
PH,Philippines,country,East Asia and Pacific,12.879721,121.774017,GB,United Kingdom,country,Europe and Central Asia,55.378051,-3.435973,1991,50410,35,2,0,0,7,10047,6,13114,6467,1,14750,0,321,5626,34,0,0,0,0,0,0,0,0
PT,Portugal,country,Europe and Central Asia,39.399872,-8.224454,GB,United Kingdom,country,Europe and Central Asia,55.378051,-3.435973,1991,47569,345,2408,1,9,447,9,25657,1661,163,0,57,30,178,648,15830,0,19,1,0,106,0,0,0
QA,Qatar,country,Middle East and North Africa,25.354826,51.183884,GB,United Kingdom,country,Europe and Central Asia,55.378051,-3.435973,1991,1,0,0,0,0,0,0,0,1,0,0,0,0,0,0,0,0,0,0,0,0,0,0,0
KR,"Korea, Rep.",country,East Asia and Pacific,35.907757,127.766922,GB,United Kingdom,country,Europe and Central Asia,55.378051,-3.435973,1991,4197,19,0,22,0,0,0,37,12,11,0,0,0,4037,0,58,0,0,1,0,0,0,0,0
RE,Reunion,country,Sub-Saharan Africa,-21.115141,55.536384,GB,United Kingdom,country,Europe and Central Asia,55.378051,-3.435973,1991,9591,0,0,9584,0,0,0,0,0,0,0,0,0,0,0,7,0,0,0,0,0,0,0,0
SN,Senegal,country,Sub-Saharan Africa,14.497401,-14.452362,GB,United Kingdom,country,Europe and Central Asia,55.378051,-3.435973,1991,15369,0,0,11790,0,0,1070,17,0,260,0,0,0,0,2232,0,0,0,0,0,0,0,0,0
SC,Seychelles,country,Sub-Saharan Africa,-4.679574,55.491977,GB,United Kingdom,country,Europe and Central Asia,55.378051,-3.435973,1991,83,0,0,0,0,0,0,0,0,0,72,0,0,1,0,10,0,0,0,0,0,0,0,0
SG,Singapore,country,East Asia and Pacific,1.352083,103.819836,GB,United Kingdom,country,Europe and Central Asia,55.378051,-3.435973,1991,24289,1315,10,9,0,0,4496,358,6661,124,1607,1,1436,6575,297,1390,0,9,1,0,0,0,0,0
ES,Spain,country,Europe and Central Asia,40.463667,-3.74922,GB,United Kingdom,country,Europe and Central Asia,55.378051,-3.435973,1991,1046430,113461,12722,1499,45,1254,2125,511937,300284,3523,1188,9029,5584,5426,4745,67649,0,5029,682,248,0,0,0,0
LK,Sri Lanka,country,South Asia,7.873054,80.771797,GB,United Kingdom,country,Europe and Central Asia,55.378051,-3.435973,1991,45423,75,77,5,0,2,10055,3355,513,0,507,0,16796,14015,3,20,0,0,0,0,0,0,0,0
SR,Suriname,country,Latin America and the Caribbean,3.919305,-56.027783,GB,United Kingdom,country,Europe and Central Asia,55.378051,-3.435973,1991,74,0,0,0,0,0,0,74,0,0,0,0,0,0,0,0,0,0,0,0,0,0,0,0
SE,Sweden,country,Europe and Central Asia,60.128161,18.643501,GB,United Kingdom,country,Europe and Central Asia,55.378051,-3.435973,1991,22000,7148,20,506,3,0,5235,746,184,368,6,929,1791,1215,924,879,0,642,19,1385,0,0,0,0
CH,Switzerland,country,Europe and Central Asia,46.818188,8.227512,GB,United Kingdom,country,Europe and Central Asia,55.378051,-3.435973,1991,11518,974,0,687,0,4,11,47,29,1364,12,634,3911,1589,25,249,0,1,1562,419,0,0,0,0
TH,Thailand,country,East Asia and Pacific,15.870032,100.992541,GB,United Kingdom,country,Europe and Central Asia,55.378051,-3.435973,1991,297706,9434,4130,231183,4137,27,157,11911,11349,1755,691,6535,1814,13751,205,539,0,1,0,87,0,0,0,0
TT,Trinidad and Tobago,country,Latin America and the Caribbean,10.691803,-61.222503,GB,United Kingdom,country,Europe and Central Asia,55.378051,-3.435973,1991,53792,663,5,49332,0,0,36,86,144,0,52,0,7,4,1,3462,0,0,0,0,0,0,0,0
TN,Tunisia,country,Middle East and North Africa,33.886917,9.537499,GB,United Kingdom,country,Europe and Central Asia,55.378051,-3.435973,1991,19579,0,0,0,0,0,0,10,792,0,2,18706,0,21,0,48,0,0,0,0,0,0,0,0
TR,Turkey,country,Europe and Central Asia,38.963745,35.243322,GB,United Kingdom,country,Europe and Central Asia,55.378051,-3.435973,1991,229410,795,159,110222,15414,8940,132,17897,60029,5635,491,0,10,1201,8072,379,0,0,34,0,0,0,0,0
US,USA,country,North America,37.09024,-95.712891,GB,United Kingdom,country,Europe and Central Asia,55.378051,-3.435973,1991,1444318,215075,1776,36729,86849,13538,427390,46286,123071,11122,334,417755,800,10897,9399,31841,52,7868,3231,291,66,0,0,0
UY,Uruguay,country,Latin America and the Caribbean,-32.522779,-55.765835,GB,United Kingdom,country,Europe and Central Asia,55.378051,-3.435973,1991,26842,0,0,0,0,0,0,0,14025,4205,0,0,0,39,0,0,0,8569,0,4,0,0,0,0
VE,Venezuela,country,Latin America and the Caribbean,6.42375,-66.58973,GB,United Kingdom,country,Europe and Central Asia,55.378051,-3.435973,1991,2966,0,0,0,0,0,0,704,2210,0,0,0,0,2,16,34,0,0,0,0,0,0,0,0
ZW,Zimbabwe,country,Sub-Saharan Africa,-19.015438,29.154857,GB,United Kingdom,country,Europe and Central Asia,55.378051,-3.435973,1991,71600,400,0,34000,0,6,159,2057,381,311,28,0,6672,24095,0,1,0,3433,57,0,0,0,0,0
DZ,Algeria,country,Middle East and North Africa,28.033886,1.659626,GB,United Kingdom,country,Europe and Central Asia,55.378051,-3.435973,1992,2,0,0,0,0,0,0,0,0,0,0,0,0,2,0,0,0,0,0,0,0,0,0,0
AR,Argentina,country,Latin America and the Caribbean,-38.416097,-63.616672,GB,United Kingdom,country,Europe and Central Asia,55.378051,-3.435973,1992,439721,224702,0,2162,389,0,55053,804,19898,1166,258,108934,2249,8253,0,140,0,15694,19,0,0,0,0,0
AU,Australia,country,East Asia and Pacific,-25.274398,133.775136,GB,United Kingdom,country,Europe and Central Asia,55.378051,-3.435973,1992,154634,3171,2,2548,11751,23,1109,21906,29089,24656,186,1599,17,300,1193,33019,0,20564,3180,321,0,0,0,0
AT,Austria,country,Europe and Central Asia,47.516231,14.550072,GB,United Kingdom,country,Europe and Central Asia,55.378051,-3.435973,1992,6410,589,0,181,221,0,0,53,129,18,0,703,540,266,0,2152,0,22,1529,7,0,0,0,0
BB,Barbados,country,Latin America and the Caribbean,13.193887,-59.543198,GB,United Kingdom,country,Europe and Central Asia,55.378051,-3.435973,1992,53677,2,322,51847,0,0,0,116,164,0,10,0,0,44,0,1172,0,0,0,0,0,0,0,0
BE,Belgium,country,Europe and Central Asia,50.503887,4.469936,GB,United Kingdom,country,Europe and Central Asia,55.378051,-3.435973,1992,853195,70637,43755,32076,392,38,259,76804,41144,7618,41,277127,11461,30251,99340,60042,0,27345,74702,163,0,0,0,0
BZ,Belize,country,Latin America and the Caribbean,17.189877,-88.49765,GB,United Kingdom,country,Europe and Central Asia,55.378051,-3.435973,1992,72484,8,0,36713,0,0,0,0,35748,0,0,0,0,15,0,0,0,0,0,0,0,0,0,0
BJ,Benin,country,Sub-Saharan Africa,9.30769,2.315834,GB,United Kingdom,country,Europe and Central Asia,55.378051,-3.435973,1992,2652,0,0,0,0,0,0,4,0,0,0,0,0,0,2648,0,0,0,0,0,0,0,0,0
BO,Bolivia,country,Latin America and the Caribbean,-16.290154,-63.588653,GB,United Kingdom,country,Europe and Central Asia,55.378051,-3.435973,1992,868,0,0,0,19,781,0,0,0,68,0,0,0,0,0,0,0,0,0,0,0,0,0,0
BW,Botswana,country,Sub-Saharan Africa,-22.328474,24.684866,GB,United Kingdom,country,Europe and Central Asia,55.378051,-3.435973,1992,5524,0,0,0,0,0,0,0,0,0,0,0,0,0,0,0,0,5510,0,14,0,0,0,0
BR,Brazil,country,Latin America and the Caribbean,-14.235004,-51.92528,GB,United Kingdom,country,Europe and Central Asia,55.378051,-3.435973,1992,605597,0,84,156,0,2232,176645,20592,29731,3353,1686,219933,32425,39837,4693,80,0,74150,0,0,0,0,0,0
CA,Canada,country,North America,56.130366,-106.346771,GB,United Kingdom,country,Europe and Central Asia,55.378051,-3.435973,1992,311363,222021,117,826,39165,0,2875,6590,12024,273,1,5624,72,9924,1962,5436,5,393,4060,0,0,0,0,0
CL,Chile,country,Latin America and the Caribbean,-35.675147,-71.542969,GB,United Kingdom,country,Europe and Central Asia,55.378051,-3.435973,1992,62008,0,0,29,168,10,4,7751,42527,525,0,0,0,5463,0,4997,0,517,0,17,0,0,0,0
HK,Hong Kong,country,East Asia and Pacific,22.396428,114.109497,GB,United Kingdom,country,Europe and Central Asia,55.378051,-3.435973,1992,24427,1436,129,722,51,807,3445,3657,1911,1356,261,30,85,9186,450,896,0,5,0,0,0,0,0,0
CN,China,country,East Asia and Pacific,35.86166,104.195397,GB,United Kingdom,country,Europe and Central Asia,55.378051,-3.435973,1992,333442,1925,48216,6434,9617,2679,15790,3762,5973,6741,1087,207590,7136,11136,3141,520,0,1638,57,0,0,0,0,0
TW,Taiwan,country,East Asia and Pacific,23.69781,120.960515,GB,United Kingdom,country,Europe and Central Asia,55.378051,-3.435973,1992,3791,85,12,264,2,0,13,363,98,12,29,7,87,2529,0,290,0,0,0,0,0,0,0,0
CO,Colombia,country,Latin America and the Caribbean,4.570868,-74.297333,GB,United Kingdom,country,Europe and Central Asia,55.378051,-3.435973,1992,28913,34,0,0,0,0,0,4,750,0,0,0,26702,205,1206,0,0,12,0,0,0,0,0,0
CR,Costa Rica,country,Latin America and the Caribbean,9.748917,-83.753428,GB,United Kingdom,country,Europe and Central Asia,55.378051,-3.435973,1992,25221,0,1097,0,0,0,405,709,10290,0,636,0,7800,0,4284,0,0,0,0,0,0,0,0,0
HR,Croatia,country,Europe and Central Asia,45.1,15.2,GB,United Kingdom,country,Europe and Central Asia,55.378051,-3.435973,1992,2001,0,0,0,0,0,0,0,72,0,1,0,0,785,0,10,0,1067,54,12,0,0,0,0
DK,Denmark,country,Europe and Central Asia,56.26392,9.501785,GB,United Kingdom,country,Europe and Central Asia,55.378051,-3.435973,1992,597850,105471,86,54522,30,17,43963,2622,9370,129,11,49468,1737,5097,36043,9064,1103,234032,43135,3053,0,0,0,0
EC,Ecuador,country,Latin America and the Caribbean,-1.831239,-78.183406,GB,United Kingdom,country,Europe and Central Asia,55.378051,-3.435973,1992,6410,2,0,0,0,0,0,223,1031,4054,29,12,1048,0,0,0,0,11,0,0,0,0,0,0
EG,Egypt,country,Middle East and North Africa,26.820553,30.802498,GB,United Kingdom,country,Europe and Central Asia,55.378051,-3.435973,1992,100116,0,71229,6103,49,0,226,7067,14666,40,357,0,0,359,18,0,0,0,2,0,0,0,0,0
SV,El Salvador,country,Latin America and the Caribbean,13.794185,-88.89653,GB,United Kingdom,country,Europe and Central Asia,55.378051,-3.435973,1992,670,0,0,172,0,0,18,50,414,0,0,0,0,0,16,0,0,0,0,0,0,0,0,0
ET,Ethiopia,country,Sub-Saharan Africa,9.145,40.489673,GB,United Kingdom,country,Europe and Central Asia,55.378051,-3.435973,1992,940,0,23,0,50,0,0,2,12,0,2,0,287,0,0,0,0,1,0,563,0,0,0,0
FI,Finland,country,Europe and Central Asia,61.92411,25.748151,GB,United Kingdom,country,Europe and Central Asia,55.378051,-3.435973,1992,21802,9617,0,278,0,0,17,72,4,33,0,157,1900,4,7114,393,0,222,1754,237,0,0,0,0
FR,France,country,Europe and Central Asia,46.227638,2.213749,GB,United Kingdom,country,Europe and Central Asia,55.378051,-3.435973,1992,3376468,1769200,27422,31337,2468,801,86703,126293,277776,9083,89,192774,24625,31692,132118,439295,54,131795,91561,1436,0,0,0,0
GF,French Guiana,country,Latin America and the Caribbean,3.933889,-53.125782,GB,United Kingdom,country,Europe and Central Asia,55.378051,-3.435973,1992,257,257,0,0,0,0,0,0,0,0,0,0,0,0,0,0,0,0,0,0,0,0,0,0
