sourceCode,sourceName,sourceGrouping,sourceRegion,sourceLat,sourceLong,destCode,destName,destGrouping,destRegion,destLat,destLong,distance,year,totalTons,cereals,roots,sugarCrops,pulses,nuts,oilCrops,vegetables,fruits,fibers,spices,fodderCrops,coffeeTea,tobaccoRubber,oilsFats,beverages,livestock,animalMeats,animalProducts,animalHides,nimalOther,pesticides,fertilizers,machinery
AO,Angola,country,Sub-Saharan Africa,-11.202692,17.873887,ZM,Zambia,country,Sub-Saharan Africa,-13.133897,27.849332,1106.47820019251,1995,1,0,0,0,0,0,0,1,0,0,0,0,0,0,0,0,0,0,0,0,0,0,0,0
AR,Argentina,country,Latin America and the Caribbean,-38.416097,-63.616672,ZM,Zambia,country,Sub-Saharan Africa,-13.133897,27.849332,9240.7933685698,1995,5765,5717,0,0,0,0,0,0,0,0,0,0,0,48,0,0,0,0,0,0,0,0,0,0
AU,Australia,country,East Asia and Pacific,-25.274398,133.775136,ZM,Zambia,country,Sub-Saharan Africa,-13.133897,27.849332,10944.403072079,1995,0,0,0,0,0,0,0,0,0,0,0,0,0,0,0,0,0,0,0,0,0,0,0,0
AT,Austria,country,Europe and Central Asia,47.516231,14.550072,ZM,Zambia,country,Sub-Saharan Africa,-13.133897,27.849332,6879.89272701395,1995,0,0,0,0,0,0,0,0,0,0,0,0,0,0,0,0,0,0,0,0,0,0,0,0
BD,Bangladesh,country,South Asia,23.684994,90.356331,ZM,Zambia,country,Sub-Saharan Africa,-13.133897,27.849332,7938.39496856878,1995,0,0,0,0,0,0,0,0,0,0,0,0,0,0,0,0,0,0,0,0,0,0,0,0
BM,Bermuda,country,North America,32.321384,-64.75737,ZM,Zambia,country,Sub-Saharan Africa,-13.133897,27.849332,11036.6781100551,1995,0,0,0,0,0,0,0,0,0,0,0,0,0,0,0,0,0,0,0,0,0,0,0,0
BR,Brazil,country,Latin America and the Caribbean,-14.235004,-51.92528,ZM,Zambia,country,Sub-Saharan Africa,-13.133897,27.849332,8581.46282774675,1995,90,90,0,0,0,0,0,0,0,0,0,0,0,0,0,0,0,0,0,0,0,0,0,0
BG,Bulgaria,country,Europe and Central Asia,42.733883,25.48583,ZM,Zambia,country,Sub-Saharan Africa,-13.133897,27.849332,6223.8604412875,1995,0,0,0,0,0,0,0,0,0,0,0,0,0,0,0,0,0,0,0,0,0,0,0,0
CA,Canada,country,North America,56.130366,-106.346771,ZM,Zambia,country,Sub-Saharan Africa,-13.133897,27.849332,13863.9705612056,1995,2846,2758,0,1,52,0,0,4,10,0,0,0,0,12,0,0,0,0,1,8,0,0,0,0
CL,Chile,country,Latin America and the Caribbean,-35.675147,-71.542969,ZM,Zambia,country,Sub-Saharan Africa,-13.133897,27.849332,9996.96425203702,1995,21,0,0,0,0,0,0,0,0,0,0,0,0,21,0,0,0,0,0,0,0,0,0,0
HK,Hong Kong,country,East Asia and Pacific,22.396428,114.109497,ZM,Zambia,country,Sub-Saharan Africa,-13.133897,27.849332,10196.3954516003,1995,5,0,0,0,0,0,0,0,0,0,0,0,0,0,0,0,0,0,5,0,0,0,0,0
CN,China,country,East Asia and Pacific,35.86166,104.195397,ZM,Zambia,country,Sub-Saharan Africa,-13.133897,27.849332,9679.35671965299,1995,1381,1054,2,0,0,0,0,0,0,0,0,0,0,322,0,0,0,0,3,0,0,0,0,0
CY,Cyprus,country,Europe and Central Asia,35.126413,33.429859,ZM,Zambia,country,Sub-Saharan Africa,-13.133897,27.849332,5404.50818142461,1995,11,0,0,0,0,0,0,0,10,0,0,0,0,0,0,1,0,0,0,0,0,0,0,0
CD,"Congo, Dem. Rep.",country,Sub-Saharan Africa,-4.038333,21.758664,ZM,Zambia,country,Sub-Saharan Africa,-13.133897,27.849332,1213.92603506878,1995,307,56,3,0,2,0,56,9,48,0,0,88,0,0,0,5,0,0,28,12,0,0,0,0
DK,Denmark,country,Europe and Central Asia,56.26392,9.501785,ZM,Zambia,country,Sub-Saharan Africa,-13.133897,27.849332,7911.6737333496,1995,304,248,0,48,0,0,0,0,0,0,0,4,0,1,0,0,0,0,3,0,0,0,0,0
DM,Dominica,country,Latin America and the Caribbean,15.414999,-61.370976,ZM,Zambia,country,Sub-Saharan Africa,-13.133897,27.849332,10322.6208768923,1995,76,76,0,0,0,0,0,0,0,0,0,0,0,0,0,0,0,0,0,0,0,0,0,0
GQ,Equatorial Guinea,country,Sub-Saharan Africa,1.650801,10.267895,ZM,Zambia,country,Sub-Saharan Africa,-13.133897,27.849332,2545.35311676947,1995,26,26,0,0,0,0,0,0,0,0,0,0,0,0,0,0,0,0,0,0,0,0,0,0
ET,Ethiopia,country,Sub-Saharan Africa,9.145,40.489673,ZM,Zambia,country,Sub-Saharan Africa,-13.133897,27.849332,2846.62091884731,1995,1,0,0,0,0,0,0,0,0,0,0,0,0,1,0,0,0,0,0,0,0,0,0,0
FI,Finland,country,Europe and Central Asia,61.92411,25.748151,ZM,Zambia,country,Sub-Saharan Africa,-13.133897,27.849332,8357.45332463293,1995,24,0,0,0,0,0,0,0,0,0,0,0,0,24,0,0,0,0,0,0,0,0,0,0
GF,French Guiana,country,Latin America and the Caribbean,3.933889,-53.125782,ZM,Zambia,country,Sub-Saharan Africa,-13.133897,27.849332,9143.40819276055,1995,0,0,0,0,0,0,0,0,0,0,0,0,0,0,0,0,0,0,0,0,0,0,0,0
DE,Germany,country,Europe and Central Asia,51.165691,10.451526,ZM,Zambia,country,Sub-Saharan Africa,-13.133897,27.849332,7354.12240550199,1995,3592,3512,0,0,0,0,0,0,0,0,0,0,0,38,38,0,10,0,4,0,0,0,0,0
GR,Greece,country,Europe and Central Asia,39.074208,21.824312,ZM,Zambia,country,Sub-Saharan Africa,-13.133897,27.849332,5845.41727275751,1995,0,0,0,0,0,0,0,0,0,0,0,0,0,0,0,0,0,0,0,0,0,0,0,0
IS,Iceland,country,Europe and Central Asia,64.963051,-19.020835,ZM,Zambia,country,Sub-Saharan Africa,-13.133897,27.849332,9534.31662378103,1995,6,3,0,0,0,0,0,0,0,0,0,0,0,0,0,0,0,0,3,0,0,0,0,0
IN,India,country,South Asia,20.593684,78.96288,ZM,Zambia,country,Sub-Saharan Africa,-13.133897,27.849332,6735.25115748534,1995,97,26,0,2,0,0,13,1,2,10,34,0,2,1,0,5,0,0,1,0,0,0,0,0
ID,Indonesia,country,East Asia and Pacific,-0.789275,113.921327,ZM,Zambia,country,Sub-Saharan Africa,-13.133897,27.849332,9572.9757814265,1995,25,0,0,0,0,0,0,0,0,0,0,0,15,0,10,0,0,0,0,0,0,0,0,0
IE,Ireland,country,Europe and Central Asia,53.41291,-8.24389,ZM,Zambia,country,Sub-Saharan Africa,-13.133897,27.849332,8164.86582817381,1995,170,0,5,0,0,1,0,0,0,0,0,0,0,70,0,0,0,0,94,0,0,0,0,0
IL,Israel,country,Middle East and North Africa,31.046051,34.851612,ZM,Zambia,country,Sub-Saharan Africa,-13.133897,27.849332,4974.78442666163,1995,0,0,0,0,0,0,0,0,0,0,0,0,0,0,0,0,0,0,0,0,0,0,0,0
IT,Italy,country,Europe and Central Asia,41.87194,12.56738,ZM,Zambia,country,Sub-Saharan Africa,-13.133897,27.849332,6320.74811651351,1995,42,0,0,0,0,0,0,25,2,0,0,1,0,11,1,1,0,0,1,0,0,0,0,0
JP,Japan,country,East Asia and Pacific,36.204824,138.252924,ZM,Zambia,country,Sub-Saharan Africa,-13.133897,27.849332,12700.4500723335,1995,72,12,0,0,0,0,28,0,1,0,0,0,0,1,30,0,0,0,0,0,0,0,0,0
KE,Kenya,country,Sub-Saharan Africa,-0.023559,37.906193,ZM,Zambia,country,Sub-Saharan Africa,-13.133897,27.849332,1833.3509015412,1995,13,0,0,0,0,0,0,2,0,0,0,0,0,0,0,11,0,0,0,0,0,0,0,0
LB,Lebanon,country,Middle East and North Africa,33.854721,35.862285,ZM,Zambia,country,Sub-Saharan Africa,-13.133897,27.849332,5299.28038121679,1995,7,0,0,0,0,0,0,1,0,0,0,0,0,6,0,0,0,0,0,0,0,0,0,0
MW,Malawi,country,Sub-Saharan Africa,-13.254308,34.301525,ZM,Zambia,country,Sub-Saharan Africa,-13.133897,27.849332,699.403670001861,1995,1625,844,2,514,13,0,0,121,0,0,0,0,51,62,0,18,1,0,0,0,0,0,0,0
MY,Malaysia,country,East Asia and Pacific,4.210484,101.975766,ZM,Zambia,country,Sub-Saharan Africa,-13.133897,27.849332,8413.98335273202,1995,56,0,0,0,0,0,0,0,0,0,0,0,0,1,55,0,0,0,0,0,0,0,0,0
MU,Mauritius,country,Sub-Saharan Africa,-20.348404,57.552152,ZM,Zambia,country,Sub-Saharan Africa,-13.133897,27.849332,3261.10289601563,1995,390,380,0,0,0,0,0,0,0,0,0,0,0,10,0,0,0,0,0,0,0,0,0,0
MC,Monaco,country,Europe and Central Asia,43.750298,7.412841,ZM,Zambia,country,Sub-Saharan Africa,-13.133897,27.849332,6664.0109080324,1995,99,50,0,0,0,0,0,0,0,0,0,1,0,0,0,0,0,0,48,0,0,0,0,0
MZ,Mozambique,country,Sub-Saharan Africa,-18.665695,35.529562,ZM,Zambia,country,Sub-Saharan Africa,-13.133897,27.849332,1026.92365582414,1995,31,28,0,3,0,0,0,0,0,0,0,0,0,0,0,0,0,0,0,0,0,0,0,0
NL,Netherlands,country,Europe and Central Asia,52.132633,5.291266,ZM,Zambia,country,Sub-Saharan Africa,-13.133897,27.849332,7583.09391857494,1995,13625,13474,0,18,0,0,0,0,0,0,0,0,0,36,0,97,138,0,0,0,0,0,0,0
NZ,New Zealand,country,East Asia and Pacific,-40.900557,174.885971,ZM,Zambia,country,Sub-Saharan Africa,-13.133897,27.849332,13130.8804829829,1995,0,0,0,0,0,0,0,0,0,0,0,0,0,0,0,0,0,0,0,0,0,0,0,0
PK,Pakistan,country,South Asia,30.375321,69.345116,ZM,Zambia,country,Sub-Saharan Africa,-13.133897,27.849332,6572.69926036925,1995,229,226,0,3,0,0,0,0,0,0,0,0,0,0,0,0,0,0,0,0,0,0,0,0
PT,Portugal,country,Europe and Central Asia,39.399872,-8.224454,ZM,Zambia,country,Sub-Saharan Africa,-13.133897,27.849332,6941.23423861886,1995,1,1,0,0,0,0,0,0,0,0,0,0,0,0,0,0,0,0,0,0,0,0,0,0
SA,Saudi Arabia,country,Middle East and North Africa,23.885942,45.079162,ZM,Zambia,country,Sub-Saharan Africa,-13.133897,27.849332,4527.43730910196,1995,10,10,0,0,0,0,0,0,0,0,0,0,0,0,0,0,0,0,0,0,0,0,0,0
SG,Singapore,country,East Asia and Pacific,1.352083,103.819836,ZM,Zambia,country,Sub-Saharan Africa,-13.133897,27.849332,8534.25335039472,1995,949,84,0,0,0,0,44,0,0,0,23,0,0,239,559,0,0,0,0,0,0,0,0,0
CH,Switzerland,country,Europe and Central Asia,46.818188,8.227512,ZM,Zambia,country,Sub-Saharan Africa,-13.133897,27.849332,6955.47998591888,1995,699,616,0,0,0,0,0,0,0,0,0,0,0,83,0,0,0,0,0,0,0,0,0,0
TH,Thailand,country,East Asia and Pacific,15.870032,100.992541,ZM,Zambia,country,Sub-Saharan Africa,-13.133897,27.849332,8672.59596256128,1995,0,0,0,0,0,0,0,0,0,0,0,0,0,0,0,0,0,0,0,0,0,0,0,0
TR,Turkey,country,Europe and Central Asia,38.963745,35.243322,ZM,Zambia,country,Sub-Saharan Africa,-13.133897,27.849332,5850.22166962268,1995,10,10,0,0,0,0,0,0,0,0,0,0,0,0,0,0,0,0,0,0,0,0,0,0
UG,Uganda,country,Sub-Saharan Africa,1.373333,32.290275,ZM,Zambia,country,Sub-Saharan Africa,-13.133897,27.849332,1687.75501386645,1995,2,0,0,0,0,0,0,0,2,0,0,0,0,0,0,0,0,0,0,0,0,0,0,0
AE,United Arab Emirates,country,Middle East and North Africa,23.424076,53.847818,ZM,Zambia,country,Sub-Saharan Africa,-13.133897,27.849332,4957.55299314407,1995,273,3,0,0,0,0,0,0,0,0,0,0,0,8,262,0,0,0,0,0,0,0,0,0
GB,United Kingdom,country,Europe and Central Asia,55.378051,-3.435973,ZM,Zambia,country,Sub-Saharan Africa,-13.133897,27.849332,8169.75209834775,1995,3234,1080,0,0,0,0,0,0,2,1861,0,23,14,168,36,46,56,1,3,0,0,0,0,0
TZ,Tanzania,country,Sub-Saharan Africa,-6.369028,34.888822,ZM,Zambia,country,Sub-Saharan Africa,-13.133897,27.849332,1078.32691907493,1995,7632,3804,111,3,345,0,56,62,12,2883,0,331,0,22,1,2,0,0,0,0,0,0,0,0
US,USA,country,North America,37.09024,-95.712891,ZM,Zambia,country,Sub-Saharan Africa,-13.133897,27.849332,13859.9541895252,1995,328,269,0,4,1,0,0,0,17,0,0,0,0,7,30,0,42,0,0,0,0,0,0,0
VN,Vietnam,country,East Asia and Pacific,14.058324,108.277199,ZM,Zambia,country,Sub-Saharan Africa,-13.133897,27.849332,9367.73448869186,1995,28,28,0,0,0,0,0,0,0,0,0,0,0,0,0,0,0,0,0,0,0,0,0,0
ZW,Zimbabwe,country,Sub-Saharan Africa,-19.015438,29.154857,ZM,Zambia,country,Sub-Saharan Africa,-13.133897,27.849332,669.441354107776,1995,79286,65371,1049,248,22,0,1516,251,1176,344,9,6827,214,920,550,93,1,4,692,0,0,0,0,0
AG,Antigua & Barbuda,country,Latin America and the Caribbean,17.060816,-61.796428,ZM,Zambia,country,Sub-Saharan Africa,-13.133897,27.849332,10407.4843505399,1997,823,34,0,0,0,0,0,0,0,0,0,0,0,0,789,0,0,0,0,0,0,0,0,0
AR,Argentina,country,Latin America and the Caribbean,-38.416097,-63.616672,ZM,Zambia,country,Sub-Saharan Africa,-13.133897,27.849332,9240.7933685698,1997,416,102,0,0,0,0,0,0,0,0,0,0,0,0,314,0,0,0,0,0,0,0,0,0
AU,Australia,country,East Asia and Pacific,-25.274398,133.775136,ZM,Zambia,country,Sub-Saharan Africa,-13.133897,27.849332,10944.403072079,1997,2405,1952,0,0,0,0,0,0,0,0,0,0,0,0,453,0,0,0,0,0,0,0,0,0
AT,Austria,country,Europe and Central Asia,47.516231,14.550072,ZM,Zambia,country,Sub-Saharan Africa,-13.133897,27.849332,6879.89272701395,1997,0,0,0,0,0,0,0,0,0,0,0,0,0,0,0,0,0,0,0,0,0,0,0,0
BB,Barbados,country,Latin America and the Caribbean,13.193887,-59.543198,ZM,Zambia,country,Sub-Saharan Africa,-13.133897,27.849332,10074.4375885633,1997,0,0,0,0,0,0,0,0,0,0,0,0,0,0,0,0,0,0,0,0,0,0,0,0
BE,Belgium,country,Europe and Central Asia,50.503887,4.469936,ZM,Zambia,country,Sub-Saharan Africa,-13.133897,27.849332,7441.3519643069,1997,1545,1329,0,76,0,0,0,119,0,0,0,0,0,21,0,0,0,0,0,0,0,0,0,0
BW,Botswana,country,Sub-Saharan Africa,-22.328474,24.684866,ZM,Zambia,country,Sub-Saharan Africa,-13.133897,27.849332,1076.98127900816,1997,75,21,0,0,0,0,0,0,4,0,0,0,0,0,37,13,0,0,0,0,0,0,0,0
BG,Bulgaria,country,Europe and Central Asia,42.733883,25.48583,ZM,Zambia,country,Sub-Saharan Africa,-13.133897,27.849332,6223.8604412875,1997,3,0,0,0,0,0,0,0,0,0,0,0,0,0,0,3,0,0,0,0,0,0,0,0
CA,Canada,country,North America,56.130366,-106.346771,ZM,Zambia,country,Sub-Saharan Africa,-13.133897,27.849332,13863.9705612056,1997,162,56,2,0,60,0,2,6,3,0,0,1,0,24,6,0,0,2,0,0,0,0,0,0
HK,Hong Kong,country,East Asia and Pacific,22.396428,114.109497,ZM,Zambia,country,Sub-Saharan Africa,-13.133897,27.849332,10196.3954516003,1997,0,0,0,0,0,0,0,0,0,0,0,0,0,0,0,0,0,0,0,0,0,0,0,0
CN,China,country,East Asia and Pacific,35.86166,104.195397,ZM,Zambia,country,Sub-Saharan Africa,-13.133897,27.849332,9679.35671965299,1997,54,0,0,0,0,0,0,28,0,15,0,0,0,6,0,5,0,0,0,0,0,0,0,0
CI,Ivory Coast,country,Sub-Saharan Africa,7.539989,-5.54708,ZM,Zambia,country,Sub-Saharan Africa,-13.133897,27.849332,4351.06980518422,1997,9,9,0,0,0,0,0,0,0,0,0,0,0,0,0,0,0,0,0,0,0,0,0,0
CY,Cyprus,country,Europe and Central Asia,35.126413,33.429859,ZM,Zambia,country,Sub-Saharan Africa,-13.133897,27.849332,5404.50818142461,1997,0,0,0,0,0,0,0,0,0,0,0,0,0,0,0,0,0,0,0,0,0,0,0,0
CD,"Congo, Dem. Rep.",country,Sub-Saharan Africa,-4.038333,21.758664,ZM,Zambia,country,Sub-Saharan Africa,-13.133897,27.849332,1213.92603506878,1997,3,0,0,0,0,0,0,0,0,0,0,0,0,0,3,0,0,0,0,0,0,0,0,0
DK,Denmark,country,Europe and Central Asia,56.26392,9.501785,ZM,Zambia,country,Sub-Saharan Africa,-13.133897,27.849332,7911.6737333496,1997,12,9,0,0,0,0,0,0,0,0,0,0,0,3,0,0,0,0,0,0,0,0,0,0
EG,Egypt,country,Middle East and North Africa,26.820553,30.802498,ZM,Zambia,country,Sub-Saharan Africa,-13.133897,27.849332,4459.15986524503,1997,16,13,3,0,0,0,0,0,0,0,0,0,0,0,0,0,0,0,0,0,0,0,0,0
ET,Ethiopia,country,Sub-Saharan Africa,9.145,40.489673,ZM,Zambia,country,Sub-Saharan Africa,-13.133897,27.849332,2846.62091884731,1997,0,0,0,0,0,0,0,0,0,0,0,0,0,0,0,0,0,0,0,0,0,0,0,0
FR,France,country,Europe and Central Asia,46.227638,2.213749,ZM,Zambia,country,Sub-Saharan Africa,-13.133897,27.849332,7089.40260178498,1997,173,112,0,0,0,0,0,0,2,0,0,0,0,58,0,1,0,0,0,0,0,0,0,0
DE,Germany,country,Europe and Central Asia,51.165691,10.451526,ZM,Zambia,country,Sub-Saharan Africa,-13.133897,27.849332,7354.12240550199,1997,5857,5808,0,1,0,0,0,0,0,0,0,0,0,34,0,0,0,0,14,0,0,0,0,0
GR,Greece,country,Europe and Central Asia,39.074208,21.824312,ZM,Zambia,country,Sub-Saharan Africa,-13.133897,27.849332,5845.41727275751,1997,11,4,0,1,0,0,0,0,0,0,0,0,0,1,5,0,0,0,0,0,0,0,0,0
HU,Hungary,country,Europe and Central Asia,47.162494,19.503304,ZM,Zambia,country,Sub-Saharan Africa,-13.133897,27.849332,6763.53777942048,1997,0,0,0,0,0,0,0,0,0,0,0,0,0,0,0,0,0,0,0,0,0,0,0,0
IN,India,country,South Asia,20.593684,78.96288,ZM,Zambia,country,Sub-Saharan Africa,-13.133897,27.849332,6735.25115748534,1997,122,107,0,0,3,0,0,1,1,9,1,0,0,0,0,0,0,0,0,0,0,0,0,0
ID,Indonesia,country,East Asia and Pacific,-0.789275,113.921327,ZM,Zambia,country,Sub-Saharan Africa,-13.133897,27.849332,9572.9757814265,1997,0,0,0,0,0,0,0,0,0,0,0,0,0,0,0,0,0,0,0,0,0,0,0,0
IR,Iran,country,Middle East and North Africa,32.427908,53.688046,ZM,Zambia,country,Sub-Saharan Africa,-13.133897,27.849332,5769.98114377664,1997,18,0,0,0,0,0,0,0,18,0,0,0,0,0,0,0,0,0,0,0,0,0,0,0
IE,Ireland,country,Europe and Central Asia,53.41291,-8.24389,ZM,Zambia,country,Sub-Saharan Africa,-13.133897,27.849332,8164.86582817381,1997,23,0,0,0,0,0,0,0,0,0,0,0,0,0,0,0,0,0,23,0,0,0,0,0
IL,Israel,country,Middle East and North Africa,31.046051,34.851612,ZM,Zambia,country,Sub-Saharan Africa,-13.133897,27.849332,4974.78442666163,1997,10,0,0,0,0,0,0,0,0,0,0,0,0,10,0,0,0,0,0,0,0,0,0,0
IT,Italy,country,Europe and Central Asia,41.87194,12.56738,ZM,Zambia,country,Sub-Saharan Africa,-13.133897,27.849332,6320.74811651351,1997,1864,1681,0,0,0,0,0,70,0,0,0,0,1,50,62,0,0,0,0,0,0,0,0,0
JP,Japan,country,East Asia and Pacific,36.204824,138.252924,ZM,Zambia,country,Sub-Saharan Africa,-13.133897,27.849332,12700.4500723335,1997,13,1,10,0,0,0,0,0,0,0,0,0,0,2,0,0,0,0,0,0,0,0,0,0
KE,Kenya,country,Sub-Saharan Africa,-0.023559,37.906193,ZM,Zambia,country,Sub-Saharan Africa,-13.133897,27.849332,1833.3509015412,1997,130,0,0,0,0,0,0,39,3,0,0,0,0,49,39,0,0,0,0,0,0,0,0,0
LB,Lebanon,country,Middle East and North Africa,33.854721,35.862285,ZM,Zambia,country,Sub-Saharan Africa,-13.133897,27.849332,5299.28038121679,1997,20,1,0,0,0,0,0,0,10,0,0,0,0,3,4,0,0,0,2,0,0,0,0,0
MW,Malawi,country,Sub-Saharan Africa,-13.254308,34.301525,ZM,Zambia,country,Sub-Saharan Africa,-13.133897,27.849332,699.403670001861,1997,3932,1695,0,471,365,0,926,100,0,130,0,136,45,36,28,0,0,0,0,0,0,0,0,0
MY,Malaysia,country,East Asia and Pacific,4.210484,101.975766,ZM,Zambia,country,Sub-Saharan Africa,-13.133897,27.849332,8413.98335273202,1997,24,0,0,0,0,0,0,0,0,0,0,0,0,23,1,0,0,0,0,0,0,0,0,0
MU,Mauritius,country,Sub-Saharan Africa,-20.348404,57.552152,ZM,Zambia,country,Sub-Saharan Africa,-13.133897,27.849332,3261.10289601563,1997,37,37,0,0,0,0,0,0,0,0,0,0,0,0,0,0,0,0,0,0,0,0,0,0
MZ,Mozambique,country,Sub-Saharan Africa,-18.665695,35.529562,ZM,Zambia,country,Sub-Saharan Africa,-13.133897,27.849332,1026.92365582414,1997,617,592,0,0,0,0,0,0,0,0,0,0,0,0,25,0,0,0,0,0,0,0,0,0
NA,Namibia,country,Sub-Saharan Africa,-22.95764,18.49041,ZM,Zambia,country,Sub-Saharan Africa,-13.133897,27.849332,1474.37210907105,1997,1132,0,0,0,0,0,0,0,0,0,0,0,0,0,0,1131,0,0,1,0,0,0,0,0
NL,Netherlands,country,Europe and Central Asia,52.132633,5.291266,ZM,Zambia,country,Sub-Saharan Africa,-13.133897,27.849332,7583.09391857494,1997,1386,976,0,0,2,0,60,0,0,0,0,0,0,32,0,0,23,0,316,0,0,0,0,0
NZ,New Zealand,country,East Asia and Pacific,-40.900557,174.885971,ZM,Zambia,country,Sub-Saharan Africa,-13.133897,27.849332,13130.8804829829,1997,30,0,0,0,0,0,0,0,0,0,0,0,0,0,0,0,0,0,30,0,0,0,0,0
NO,Norway,country,Europe and Central Asia,60.472024,8.468946,ZM,Zambia,country,Sub-Saharan Africa,-13.133897,27.849332,8373.86132435943,1997,0,0,0,0,0,0,0,0,0,0,0,0,0,0,0,0,0,0,0,0,0,0,0,0
OM,Oman,country,Middle East and North Africa,21.512583,55.923255,ZM,Zambia,country,Sub-Saharan Africa,-13.133897,27.849332,4927.94866432211,1997,0,0,0,0,0,0,0,0,0,0,0,0,0,0,0,0,0,0,0,0,0,0,0,0
PK,Pakistan,country,South Asia,30.375321,69.345116,ZM,Zambia,country,Sub-Saharan Africa,-13.133897,27.849332,6572.69926036925,1997,1430,1346,0,84,0,0,0,0,0,0,0,0,0,0,0,0,0,0,0,0,0,0,0,0
PT,Portugal,country,Europe and Central Asia,39.399872,-8.224454,ZM,Zambia,country,Sub-Saharan Africa,-13.133897,27.849332,6941.23423861886,1997,0,0,0,0,0,0,0,0,0,0,0,0,0,0,0,0,0,0,0,0,0,0,0,0
KR,"Korea, Rep.",country,East Asia and Pacific,35.907757,127.766922,ZM,Zambia,country,Sub-Saharan Africa,-13.133897,27.849332,11756.6423994374,1997,0,0,0,0,0,0,0,0,0,0,0,0,0,0,0,0,0,0,0,0,0,0,0,0
KN,St. Kitts and Nevis,country,Latin America and the Caribbean,17.357822,-62.782998,ZM,Zambia,country,Sub-Saharan Africa,-13.133897,27.849332,10517.0653257996,1997,0,0,0,0,0,0,0,0,0,0,0,0,0,0,0,0,0,0,0,0,0,0,0,0
SA,Saudi Arabia,country,Middle East and North Africa,23.885942,45.079162,ZM,Zambia,country,Sub-Saharan Africa,-13.133897,27.849332,4527.43730910196,1997,26,20,0,0,0,0,0,1,5,0,0,0,0,0,0,0,0,0,0,0,0,0,0,0
SG,Singapore,country,East Asia and Pacific,1.352083,103.819836,ZM,Zambia,country,Sub-Saharan Africa,-13.133897,27.849332,8534.25335039472,1997,350,0,0,0,0,0,0,0,0,0,0,0,0,9,341,0,0,0,0,0,0,0,0,0
ZA,S. Africa,country,Sub-Saharan Africa,-30.559482,22.937506,ZM,Zambia,country,Sub-Saharan Africa,-13.133897,27.849332,2004.35693335058,1997,32891,15977,1136,915,15,11,856,849,3951,8,146,1357,399,1121,3997,1002,0,191,960,0,0,0,0,0
ES,Spain,country,Europe and Central Asia,40.463667,-3.74922,ZM,Zambia,country,Sub-Saharan Africa,-13.133897,27.849332,6799.26996912012,1997,14,14,0,0,0,0,0,0,0,0,0,0,0,0,0,0,0,0,0,0,0,0,0,0
SZ,Swaziland,country,Sub-Saharan Africa,-26.522503,31.465866,ZM,Zambia,country,Sub-Saharan Africa,-13.133897,27.849332,1537.48062054905,1997,194,0,0,10,0,0,0,0,0,0,0,0,33,145,6,0,0,0,0,0,0,0,0,0
SE,Sweden,country,Europe and Central Asia,60.128161,18.643501,ZM,Zambia,country,Sub-Saharan Africa,-13.133897,27.849332,8197.06312615805,1997,0,0,0,0,0,0,0,0,0,0,0,0,0,0,0,0,0,0,0,0,0,0,0,0
CH,Switzerland,country,Europe and Central Asia,46.818188,8.227512,ZM,Zambia,country,Sub-Saharan Africa,-13.133897,27.849332,6955.47998591888,1997,159,0,0,0,0,0,0,0,0,0,0,0,0,142,0,0,0,0,17,0,0,0,0,0
TH,Thailand,country,East Asia and Pacific,15.870032,100.992541,ZM,Zambia,country,Sub-Saharan Africa,-13.133897,27.849332,8672.59596256128,1997,196,196,0,0,0,0,0,0,0,0,0,0,0,0,0,0,0,0,0,0,0,0,0,0
UG,Uganda,country,Sub-Saharan Africa,1.373333,32.290275,ZM,Zambia,country,Sub-Saharan Africa,-13.133897,27.849332,1687.75501386645,1997,0,0,0,0,0,0,0,0,0,0,0,0,0,0,0,0,0,0,0,0,0,0,0,0
AE,United Arab Emirates,country,Middle East and North Africa,23.424076,53.847818,ZM,Zambia,country,Sub-Saharan Africa,-13.133897,27.849332,4957.55299314407,1997,163,110,0,23,0,0,0,4,15,5,0,0,0,2,0,0,0,0,4,0,0,0,0,0
GB,United Kingdom,country,Europe and Central Asia,55.378051,-3.435973,ZM,Zambia,country,Sub-Saharan Africa,-13.133897,27.849332,8169.75209834775,1997,327,97,0,28,0,0,0,0,0,0,0,0,2,72,19,91,4,0,18,0,0,0,0,0
TZ,Tanzania,country,Sub-Saharan Africa,-6.369028,34.888822,ZM,Zambia,country,Sub-Saharan Africa,-13.133897,27.849332,1078.32691907493,1997,1037,623,0,0,27,0,0,1,0,1,0,367,0,6,12,0,0,0,0,0,0,0,0,0
US,USA,country,North America,37.09024,-95.712891,ZM,Zambia,country,Sub-Saharan Africa,-13.133897,27.849332,13859.9541895252,1997,2160,2124,0,0,0,0,0,0,0,0,0,0,0,4,32,0,0,0,0,0,0,0,0,0
VN,Vietnam,country,East Asia and Pacific,14.058324,108.277199,ZM,Zambia,country,Sub-Saharan Africa,-13.133897,27.849332,9367.73448869186,1997,892,892,0,0,0,0,0,0,0,0,0,0,0,0,0,0,0,0,0,0,0,0,0,0
ZW,Zimbabwe,country,Sub-Saharan Africa,-19.015438,29.154857,ZM,Zambia,country,Sub-Saharan Africa,-13.133897,27.849332,669.441354107776,1997,85953,68393,105,3096,89,1,595,347,1317,0,79,3446,137,577,2523,234,0,0,5014,0,0,0,0,0
AG,Antigua & Barbuda,country,Latin America and the Caribbean,17.060816,-61.796428,ZM,Zambia,country,Sub-Saharan Africa,-13.133897,27.849332,10407.4843505399,1999,30,0,0,0,0,0,0,0,0,0,0,0,0,0,30,0,0,0,0,0,0,0,0,0
AR,Argentina,country,Latin America and the Caribbean,-38.416097,-63.616672,ZM,Zambia,country,Sub-Saharan Africa,-13.133897,27.849332,9240.7933685698,1999,6920,4737,0,0,0,0,0,0,0,0,0,0,0,0,2183,0,0,0,0,0,0,0,0,0
AU,Australia,country,East Asia and Pacific,-25.274398,133.775136,ZM,Zambia,country,Sub-Saharan Africa,-13.133897,27.849332,10944.403072079,1999,5165,5165,0,0,0,0,0,0,0,0,0,0,0,0,0,0,0,0,0,0,0,0,0,0
BE,Belgium,country,Europe and Central Asia,50.503887,4.469936,ZM,Zambia,country,Sub-Saharan Africa,-13.133897,27.849332,7441.3519643069,1999,163,0,0,1,0,0,0,0,0,0,0,0,1,3,144,0,0,0,14,0,0,0,0,0
BW,Botswana,country,Sub-Saharan Africa,-22.328474,24.684866,ZM,Zambia,country,Sub-Saharan Africa,-13.133897,27.849332,1076.98127900816,1999,1563,18,5,0,0,0,1535,0,3,0,0,0,0,0,0,2,0,0,0,0,0,0,0,0
BR,Brazil,country,Latin America and the Caribbean,-14.235004,-51.92528,ZM,Zambia,country,Sub-Saharan Africa,-13.133897,27.849332,8581.46282774675,1999,25,0,0,0,0,0,0,0,0,0,0,0,0,0,0,0,0,25,0,0,0,0,0,0
BF,Burkina Faso,country,Sub-Saharan Africa,12.238333,-1.561593,ZM,Zambia,country,Sub-Saharan Africa,-13.133897,27.849332,4303.40628347008,1999,2,0,0,0,0,0,0,0,0,0,0,0,0,0,0,2,0,0,0,0,0,0,0,0
BI,Burundi,country,Sub-Saharan Africa,-3.373056,29.918886,ZM,Zambia,country,Sub-Saharan Africa,-13.133897,27.849332,1110.17408805355,1999,0,0,0,0,0,0,0,0,0,0,0,0,0,0,0,0,0,0,0,0,0,0,0,0
CA,Canada,country,North America,56.130366,-106.346771,ZM,Zambia,country,Sub-Saharan Africa,-13.133897,27.849332,13863.9705612056,1999,164,15,0,1,16,0,1,4,10,0,0,0,0,109,2,1,0,0,5,0,0,0,0,0
HK,Hong Kong,country,East Asia and Pacific,22.396428,114.109497,ZM,Zambia,country,Sub-Saharan Africa,-13.133897,27.849332,10196.3954516003,1999,2,0,0,0,0,0,0,0,0,0,0,0,0,1,1,0,0,0,0,0,0,0,0,0
CN,China,country,East Asia and Pacific,35.86166,104.195397,ZM,Zambia,country,Sub-Saharan Africa,-13.133897,27.849332,9679.35671965299,1999,29,28,0,1,0,0,0,0,0,0,0,0,0,0,0,0,0,0,0,0,0,0,0,0
TW,Taiwan,country,East Asia and Pacific,23.69781,120.960515,ZM,Zambia,country,Sub-Saharan Africa,-13.133897,27.849332,10912.851209361,1999,20,0,0,0,0,0,0,0,0,0,0,0,0,20,0,0,0,0,0,0,0,0,0,0
CO,Colombia,country,Latin America and the Caribbean,4.570868,-74.297333,ZM,Zambia,country,Sub-Saharan Africa,-13.133897,27.849332,11448.9995948041,1999,0,0,0,0,0,0,0,0,0,0,0,0,0,0,0,0,0,0,0,0,0,0,0,0
CG,"Congo, Rep.",country,Sub-Saharan Africa,-0.228021,15.827659,ZM,Zambia,country,Sub-Saharan Africa,-13.133897,27.849332,1955.20361655025,1999,0,0,0,0,0,0,0,0,0,0,0,0,0,0,0,0,0,0,0,0,0,0,0,0
CI,Ivory Coast,country,Sub-Saharan Africa,7.539989,-5.54708,ZM,Zambia,country,Sub-Saharan Africa,-13.133897,27.849332,4351.06980518422,1999,3,0,0,2,0,1,0,0,0,0,0,0,0,0,0,0,0,0,0,0,0,0,0,0
CY,Cyprus,country,Europe and Central Asia,35.126413,33.429859,ZM,Zambia,country,Sub-Saharan Africa,-13.133897,27.849332,5404.50818142461,1999,37,0,0,1,0,0,0,2,23,0,0,0,1,0,0,9,0,0,1,0,0,0,0,0
KP,"Korea, Dem. Rep.",country,East Asia and Pacific,40.339852,127.510093,ZM,Zambia,country,Sub-Saharan Africa,-13.133897,27.849332,11773.4519967569,1999,0,0,0,0,0,0,0,0,0,0,0,0,0,0,0,0,0,0,0,0,0,0,0,0
CD,"Congo, Dem. Rep.",country,Sub-Saharan Africa,-4.038333,21.758664,ZM,Zambia,country,Sub-Saharan Africa,-13.133897,27.849332,1213.92603506878,1999,46,1,2,0,0,0,0,4,10,0,0,27,0,0,0,2,0,0,0,0,0,0,0,0
DK,Denmark,country,Europe and Central Asia,56.26392,9.501785,ZM,Zambia,country,Sub-Saharan Africa,-13.133897,27.849332,7911.6737333496,1999,18,15,0,0,0,0,0,0,0,0,0,0,0,2,0,1,0,0,0,0,0,0,0,0
EG,Egypt,country,Middle East and North Africa,26.820553,30.802498,ZM,Zambia,country,Sub-Saharan Africa,-13.133897,27.849332,4459.15986524503,1999,1,0,0,0,0,0,0,0,0,0,0,0,0,0,0,0,0,0,1,0,0,0,0,0
FR,France,country,Europe and Central Asia,46.227638,2.213749,ZM,Zambia,country,Sub-Saharan Africa,-13.133897,27.849332,7089.40260178498,1999,34,4,0,4,0,0,0,0,0,0,0,0,3,2,0,4,0,0,17,0,0,0,0,0
GE,Georgia,country,Europe and Central Asia,42.315407,43.356892,ZM,Zambia,country,Sub-Saharan Africa,-13.133897,27.849332,6373.45517132016,1999,0,0,0,0,0,0,0,0,0,0,0,0,0,0,0,0,0,0,0,0,0,0,0,0
DE,Germany,country,Europe and Central Asia,51.165691,10.451526,ZM,Zambia,country,Sub-Saharan Africa,-13.133897,27.849332,7354.12240550199,1999,350,11,0,1,245,0,0,0,0,0,0,0,0,6,27,1,0,0,59,0,0,0,0,0
GH,Ghana,country,Sub-Saharan Africa,7.946527,-1.023194,ZM,Zambia,country,Sub-Saharan Africa,-13.133897,27.849332,3962.03302093674,1999,60,0,0,0,0,0,0,0,0,0,0,0,0,60,0,0,0,0,0,0,0,0,0,0
GR,Greece,country,Europe and Central Asia,39.074208,21.824312,ZM,Zambia,country,Sub-Saharan Africa,-13.133897,27.849332,5845.41727275751,1999,0,0,0,0,0,0,0,0,0,0,0,0,0,0,0,0,0,0,0,0,0,0,0,0
HU,Hungary,country,Europe and Central Asia,47.162494,19.503304,ZM,Zambia,country,Sub-Saharan Africa,-13.133897,27.849332,6763.53777942048,1999,1,0,0,0,0,0,0,0,0,0,0,0,0,0,0,1,0,0,0,0,0,0,0,0
IN,India,country,South Asia,20.593684,78.96288,ZM,Zambia,country,Sub-Saharan Africa,-13.133897,27.849332,6735.25115748534,1999,117,114,0,0,0,0,0,0,0,0,0,0,0,1,0,2,0,0,0,0,0,0,0,0
ID,Indonesia,country,East Asia and Pacific,-0.789275,113.921327,ZM,Zambia,country,Sub-Saharan Africa,-13.133897,27.849332,9572.9757814265,1999,0,0,0,0,0,0,0,0,0,0,0,0,0,0,0,0,0,0,0,0,0,0,0,0
IE,Ireland,country,Europe and Central Asia,53.41291,-8.24389,ZM,Zambia,country,Sub-Saharan Africa,-13.133897,27.849332,8164.86582817381,1999,69,0,0,0,0,0,0,0,0,0,0,0,0,8,0,0,0,0,61,0,0,0,0,0
IL,Israel,country,Middle East and North Africa,31.046051,34.851612,ZM,Zambia,country,Sub-Saharan Africa,-13.133897,27.849332,4974.78442666163,1999,0,0,0,0,0,0,0,0,0,0,0,0,0,0,0,0,0,0,0,0,0,0,0,0
IT,Italy,country,Europe and Central Asia,41.87194,12.56738,ZM,Zambia,country,Sub-Saharan Africa,-13.133897,27.849332,6320.74811651351,1999,2162,1752,0,0,0,0,0,0,0,0,0,0,1,5,398,5,0,1,0,0,0,0,0,0
JP,Japan,country,East Asia and Pacific,36.204824,138.252924,ZM,Zambia,country,Sub-Saharan Africa,-13.133897,27.849332,12700.4500723335,1999,37,32,0,0,0,0,1,0,0,1,0,0,0,3,0,0,0,0,0,0,0,0,0,0
KE,Kenya,country,Sub-Saharan Africa,-0.023559,37.906193,ZM,Zambia,country,Sub-Saharan Africa,-13.133897,27.849332,1833.3509015412,1999,113,16,0,22,0,0,0,0,0,0,0,0,0,75,0,0,0,0,0,0,0,0,0,0
LB,Lebanon,country,Middle East and North Africa,33.854721,35.862285,ZM,Zambia,country,Sub-Saharan Africa,-13.133897,27.849332,5299.28038121679,1999,28,2,0,1,0,0,0,0,0,0,0,0,1,21,3,0,0,0,0,0,0,0,0,0
MW,Malawi,country,Sub-Saharan Africa,-13.254308,34.301525,ZM,Zambia,country,Sub-Saharan Africa,-13.133897,27.849332,699.403670001861,1999,901,360,0,141,10,0,6,3,0,0,1,0,8,8,0,364,0,0,0,0,0,0,0,0
MY,Malaysia,country,East Asia and Pacific,4.210484,101.975766,ZM,Zambia,country,Sub-Saharan Africa,-13.133897,27.849332,8413.98335273202,1999,57,0,0,0,0,0,0,0,0,0,0,0,0,0,57,0,0,0,0,0,0,0,0,0
MU,Mauritius,country,Sub-Saharan Africa,-20.348404,57.552152,ZM,Zambia,country,Sub-Saharan Africa,-13.133897,27.849332,3261.10289601563,1999,0,0,0,0,0,0,0,0,0,0,0,0,0,0,0,0,0,0,0,0,0,0,0,0
MZ,Mozambique,country,Sub-Saharan Africa,-18.665695,35.529562,ZM,Zambia,country,Sub-Saharan Africa,-13.133897,27.849332,1026.92365582414,1999,284,163,0,0,0,0,0,0,0,60,0,0,0,0,61,0,0,0,0,0,0,0,0,0
NA,Namibia,country,Sub-Saharan Africa,-22.95764,18.49041,ZM,Zambia,country,Sub-Saharan Africa,-13.133897,27.849332,1474.37210907105,1999,1595,1,0,0,0,0,0,0,0,0,0,0,0,16,0,1578,0,0,0,0,0,0,0,0
NL,Netherlands,country,Europe and Central Asia,52.132633,5.291266,ZM,Zambia,country,Sub-Saharan Africa,-13.133897,27.849332,7583.09391857494,1999,131,0,0,18,0,0,0,0,0,0,0,42,0,5,0,27,3,0,39,0,0,0,0,0
NZ,New Zealand,country,East Asia and Pacific,-40.900557,174.885971,ZM,Zambia,country,Sub-Saharan Africa,-13.133897,27.849332,13130.8804829829,1999,406,0,0,0,0,0,0,0,0,0,0,0,0,0,0,0,0,0,406,0,0,0,0,0
NI,Nicaragua,country,Latin America and the Caribbean,12.865416,-85.207229,ZM,Zambia,country,Sub-Saharan Africa,-13.133897,27.849332,12800.3127881646,1999,22,0,0,0,0,0,0,0,0,0,0,0,0,0,0,7,0,0,15,0,0,0,0,0
NG,Nigeria,country,Sub-Saharan Africa,9.081999,8.675277,ZM,Zambia,country,Sub-Saharan Africa,-13.133897,27.849332,3257.09609691041,1999,0,0,0,0,0,0,0,0,0,0,0,0,0,0,0,0,0,0,0,0,0,0,0,0
NO,Norway,country,Europe and Central Asia,60.472024,8.468946,ZM,Zambia,country,Sub-Saharan Africa,-13.133897,27.849332,8373.86132435943,1999,0,0,0,0,0,0,0,0,0,0,0,0,0,0,0,0,0,0,0,0,0,0,0,0
OM,Oman,country,Middle East and North Africa,21.512583,55.923255,ZM,Zambia,country,Sub-Saharan Africa,-13.133897,27.849332,4927.94866432211,1999,7,0,0,0,0,0,0,0,0,0,0,0,0,0,7,0,0,0,0,0,0,0,0,0
PK,Pakistan,country,South Asia,30.375321,69.345116,ZM,Zambia,country,Sub-Saharan Africa,-13.133897,27.849332,6572.69926036925,1999,350,350,0,0,0,0,0,0,0,0,0,0,0,0,0,0,0,0,0,0,0,0,0,0
PT,Portugal,country,Europe and Central Asia,39.399872,-8.224454,ZM,Zambia,country,Sub-Saharan Africa,-13.133897,27.849332,6941.23423861886,1999,1,0,0,0,0,0,0,0,0,0,0,0,0,0,0,1,0,0,0,0,0,0,0,0
KR,"Korea, Rep.",country,East Asia and Pacific,35.907757,127.766922,ZM,Zambia,country,Sub-Saharan Africa,-13.133897,27.849332,11756.6423994374,1999,21,21,0,0,0,0,0,0,0,0,0,0,0,0,0,0,0,0,0,0,0,0,0,0
SA,Saudi Arabia,country,Middle East and North Africa,23.885942,45.079162,ZM,Zambia,country,Sub-Saharan Africa,-13.133897,27.849332,4527.43730910196,1999,11,11,0,0,0,0,0,0,0,0,0,0,0,0,0,0,0,0,0,0,0,0,0,0
SN,Senegal,country,Sub-Saharan Africa,14.497401,-14.452362,ZM,Zambia,country,Sub-Saharan Africa,-13.133897,27.849332,5585.43727115701,1999,6,0,0,0,0,0,0,0,0,0,0,0,0,6,0,0,0,0,0,0,0,0,0,0
SG,Singapore,country,East Asia and Pacific,1.352083,103.819836,ZM,Zambia,country,Sub-Saharan Africa,-13.133897,27.849332,8534.25335039472,1999,628,34,0,0,0,0,0,0,0,0,0,0,0,0,527,0,0,0,67,0,0,0,0,0
ZA,S. Africa,country,Sub-Saharan Africa,-30.559482,22.937506,ZM,Zambia,country,Sub-Saharan Africa,-13.133897,27.849332,2004.35693335058,1999,47274,25141,2143,522,198,19,85,3527,4199,145,146,670,359,1140,6170,1039,2,359,1412,0,0,0,0,0
SZ,Swaziland,country,Sub-Saharan Africa,-26.522503,31.465866,ZM,Zambia,country,Sub-Saharan Africa,-13.133897,27.849332,1537.48062054905,1999,748,0,0,15,0,0,0,0,0,0,0,0,0,9,462,262,0,0,0,0,0,0,0,0
SE,Sweden,country,Europe and Central Asia,60.128161,18.643501,ZM,Zambia,country,Sub-Saharan Africa,-13.133897,27.849332,8197.06312615805,1999,0,0,0,0,0,0,0,0,0,0,0,0,0,0,0,0,0,0,0,0,0,0,0,0
CH,Switzerland,country,Europe and Central Asia,46.818188,8.227512,ZM,Zambia,country,Sub-Saharan Africa,-13.133897,27.849332,6955.47998591888,1999,893,0,0,0,0,0,0,0,0,0,0,0,0,1,844,0,0,0,48,0,0,0,0,0
TJ,Tajikistan,country,Europe and Central Asia,38.861034,71.276093,ZM,Zambia,country,Sub-Saharan Africa,-13.133897,27.849332,7337.22242814469,1999,5,5,0,0,0,0,0,0,0,0,0,0,0,0,0,0,0,0,0,0,0,0,0,0
TR,Turkey,country,Europe and Central Asia,38.963745,35.243322,ZM,Zambia,country,Sub-Saharan Africa,-13.133897,27.849332,5850.22166962268,1999,4,0,0,0,4,0,0,0,0,0,0,0,0,0,0,0,0,0,0,0,0,0,0,0
UG,Uganda,country,Sub-Saharan Africa,1.373333,32.290275,ZM,Zambia,country,Sub-Saharan Africa,-13.133897,27.849332,1687.75501386645,1999,34,0,0,0,0,0,0,0,0,0,0,0,0,1,33,0,0,0,0,0,0,0,0,0
AE,United Arab Emirates,country,Middle East and North Africa,23.424076,53.847818,ZM,Zambia,country,Sub-Saharan Africa,-13.133897,27.849332,4957.55299314407,1999,78,61,0,0,0,0,0,0,1,11,1,0,0,2,2,0,0,0,0,0,0,0,0,0
GB,United Kingdom,country,Europe and Central Asia,55.378051,-3.435973,ZM,Zambia,country,Sub-Saharan Africa,-13.133897,27.849332,8169.75209834775,1999,1929,174,0,10,4,0,0,1,1,0,8,0,1,45,1594,85,4,0,6,0,0,0,0,0
TZ,Tanzania,country,Sub-Saharan Africa,-6.369028,34.888822,ZM,Zambia,country,Sub-Saharan Africa,-13.133897,27.849332,1078.32691907493,1999,897,484,32,12,329,0,6,15,0,0,0,0,0,19,0,0,0,0,0,0,0,0,0,0
US,USA,country,North America,37.09024,-95.712891,ZM,Zambia,country,Sub-Saharan Africa,-13.133897,27.849332,13859.9541895252,1999,2769,2413,0,3,327,0,1,3,5,0,0,0,0,11,1,5,0,0,0,0,0,0,0,0
VN,Vietnam,country,East Asia and Pacific,14.058324,108.277199,ZM,Zambia,country,Sub-Saharan Africa,-13.133897,27.849332,9367.73448869186,1999,759,759,0,0,0,0,0,0,0,0,0,0,0,0,0,0,0,0,0,0,0,0,0,0
ZW,Zimbabwe,country,Sub-Saharan Africa,-19.015438,29.154857,ZM,Zambia,country,Sub-Saharan Africa,-13.133897,27.849332,669.441354107776,1999,109310,48691,822,29351,759,12,114,336,5067,1530,125,14593,239,775,4881,305,0,5,1705,0,0,0,0,0
AR,Argentina,country,Latin America and the Caribbean,-38.416097,-63.616672,ZM,Zambia,country,Sub-Saharan Africa,-13.133897,27.849332,9240.7933685698,2000,3497,3462,0,0,0,0,0,0,0,0,0,0,0,0,35,0,0,0,0,0,0,0,0,0
AU,Australia,country,East Asia and Pacific,-25.274398,133.775136,ZM,Zambia,country,Sub-Saharan Africa,-13.133897,27.849332,10944.403072079,2000,8,0,0,0,0,0,0,0,0,0,0,0,0,1,0,0,0,0,7,0,0,0,0,0
BS,The Bahamas,country,Latin America and the Caribbean,25.03428,-77.39628,ZM,Zambia,country,Sub-Saharan Africa,-13.133897,27.849332,12151.4184755015,2000,0,0,0,0,0,0,0,0,0,0,0,0,0,0,0,0,0,0,0,0,0,0,0,0
BE,Belgium,country,Europe and Central Asia,50.503887,4.469936,ZM,Zambia,country,Sub-Saharan Africa,-13.133897,27.849332,7441.3519643069,2000,21,0,0,1,0,0,0,0,0,0,0,0,1,2,0,1,0,0,16,0,0,0,0,0
BT,Bhutan,country,South Asia,27.514162,90.433601,ZM,Zambia,country,Sub-Saharan Africa,-13.133897,27.849332,8124.05384986296,2000,0,0,0,0,0,0,0,0,0,0,0,0,0,0,0,0,0,0,0,0,0,0,0,0
BW,Botswana,country,Sub-Saharan Africa,-22.328474,24.684866,ZM,Zambia,country,Sub-Saharan Africa,-13.133897,27.849332,1076.98127900816,2000,2330,49,0,0,6,0,2199,0,5,0,0,1,1,0,69,0,0,0,0,0,0,0,0,0
BR,Brazil,country,Latin America and the Caribbean,-14.235004,-51.92528,ZM,Zambia,country,Sub-Saharan Africa,-13.133897,27.849332,8581.46282774675,2000,0,0,0,0,0,0,0,0,0,0,0,0,0,0,0,0,0,0,0,0,0,0,0,0
BG,Bulgaria,country,Europe and Central Asia,42.733883,25.48583,ZM,Zambia,country,Sub-Saharan Africa,-13.133897,27.849332,6223.8604412875,2000,36,0,0,0,0,0,0,0,0,0,0,0,0,36,0,0,0,0,0,0,0,0,0,0
BI,Burundi,country,Sub-Saharan Africa,-3.373056,29.918886,ZM,Zambia,country,Sub-Saharan Africa,-13.133897,27.849332,1110.17408805355,2000,0,0,0,0,0,0,0,0,0,0,0,0,0,0,0,0,0,0,0,0,0,0,0,0
CA,Canada,country,North America,56.130366,-106.346771,ZM,Zambia,country,Sub-Saharan Africa,-13.133897,27.849332,13863.9705612056,2000,418,121,7,2,136,0,0,11,42,0,0,0,0,75,11,0,0,3,10,0,0,0,0,0
HK,Hong Kong,country,East Asia and Pacific,22.396428,114.109497,ZM,Zambia,country,Sub-Saharan Africa,-13.133897,27.849332,10196.3954516003,2000,37,30,0,0,0,0,6,0,0,0,0,0,0,1,0,0,0,0,0,0,0,0,0,0
CN,China,country,East Asia and Pacific,35.86166,104.195397,ZM,Zambia,country,Sub-Saharan Africa,-13.133897,27.849332,9679.35671965299,2000,175,40,0,0,130,0,0,0,1,1,0,0,0,3,0,0,0,0,0,0,0,0,0,0
TW,Taiwan,country,East Asia and Pacific,23.69781,120.960515,ZM,Zambia,country,Sub-Saharan Africa,-13.133897,27.849332,10912.851209361,2000,104,0,0,0,0,0,0,0,0,0,0,0,0,104,0,0,0,0,0,0,0,0,0,0
CU,Cuba,country,Latin America and the Caribbean,21.521757,-77.781167,ZM,Zambia,country,Sub-Saharan Africa,-13.133897,27.849332,12146.523962049,2000,0,0,0,0,0,0,0,0,0,0,0,0,0,0,0,0,0,0,0,0,0,0,0,0
CY,Cyprus,country,Europe and Central Asia,35.126413,33.429859,ZM,Zambia,country,Sub-Saharan Africa,-13.133897,27.849332,5404.50818142461,2000,41,1,1,1,0,0,0,2,30,0,0,0,1,0,0,5,0,0,0,0,0,0,0,0
CZ,Czech Republic,country,Europe and Central Asia,49.817492,15.472962,ZM,Zambia,country,Sub-Saharan Africa,-13.133897,27.849332,7111.86067979012,2000,0,0,0,0,0,0,0,0,0,0,0,0,0,0,0,0,0,0,0,0,0,0,0,0
CD,"Congo, Dem. Rep.",country,Sub-Saharan Africa,-4.038333,21.758664,ZM,Zambia,country,Sub-Saharan Africa,-13.133897,27.849332,1213.92603506878,2000,15,2,1,0,0,0,0,4,0,0,0,0,0,8,0,0,0,0,0,0,0,0,0,0
DK,Denmark,country,Europe and Central Asia,56.26392,9.501785,ZM,Zambia,country,Sub-Saharan Africa,-13.133897,27.849332,7911.6737333496,2000,11,0,0,0,0,0,0,0,0,0,0,0,0,3,0,1,0,0,7,0,0,0,0,0
EG,Egypt,country,Middle East and North Africa,26.820553,30.802498,ZM,Zambia,country,Sub-Saharan Africa,-13.133897,27.849332,4459.15986524503,2000,15,0,0,0,0,0,0,8,7,0,0,0,0,0,0,0,0,0,0,0,0,0,0,0
FR,France,country,Europe and Central Asia,46.227638,2.213749,ZM,Zambia,country,Sub-Saharan Africa,-13.133897,27.849332,7089.40260178498,2000,6,3,0,0,1,0,0,0,0,0,0,0,0,0,0,2,0,0,0,0,0,0,0,0
DE,Germany,country,Europe and Central Asia,51.165691,10.451526,ZM,Zambia,country,Sub-Saharan Africa,-13.133897,27.849332,7354.12240550199,2000,538,463,0,0,0,0,0,0,0,0,0,0,0,15,0,1,0,0,59,0,0,0,0,0
GH,Ghana,country,Sub-Saharan Africa,7.946527,-1.023194,ZM,Zambia,country,Sub-Saharan Africa,-13.133897,27.849332,3962.03302093674,2000,0,0,0,0,0,0,0,0,0,0,0,0,0,0,0,0,0,0,0,0,0,0,0,0
HU,Hungary,country,Europe and Central Asia,47.162494,19.503304,ZM,Zambia,country,Sub-Saharan Africa,-13.133897,27.849332,6763.53777942048,2000,0,0,0,0,0,0,0,0,0,0,0,0,0,0,0,0,0,0,0,0,0,0,0,0
IN,India,country,South Asia,20.593684,78.96288,ZM,Zambia,country,Sub-Saharan Africa,-13.133897,27.849332,6735.25115748534,2000,125,92,0,0,0,0,0,0,0,1,0,4,0,1,27,0,0,0,0,0,0,0,0,0
ID,Indonesia,country,East Asia and Pacific,-0.789275,113.921327,ZM,Zambia,country,Sub-Saharan Africa,-13.133897,27.849332,9572.9757814265,2000,383,18,0,0,0,0,0,0,0,0,0,0,0,0,365,0,0,0,0,0,0,0,0,0
IR,Iran,country,Middle East and North Africa,32.427908,53.688046,ZM,Zambia,country,Sub-Saharan Africa,-13.133897,27.849332,5769.98114377664,2000,0,0,0,0,0,0,0,0,0,0,0,0,0,0,0,0,0,0,0,0,0,0,0,0
IE,Ireland,country,Europe and Central Asia,53.41291,-8.24389,ZM,Zambia,country,Sub-Saharan Africa,-13.133897,27.849332,8164.86582817381,2000,134,0,0,0,0,0,0,0,0,0,0,0,0,34,0,0,0,0,100,0,0,0,0,0
IL,Israel,country,Middle East and North Africa,31.046051,34.851612,ZM,Zambia,country,Sub-Saharan Africa,-13.133897,27.849332,4974.78442666163,2000,1,0,0,0,0,0,0,0,0,0,0,0,0,1,0,0,0,0,0,0,0,0,0,0
IT,Italy,country,Europe and Central Asia,41.87194,12.56738,ZM,Zambia,country,Sub-Saharan Africa,-13.133897,27.849332,6320.74811651351,2000,671,39,0,0,3,0,0,370,0,0,0,0,0,52,201,5,0,1,0,0,0,0,0,0
JP,Japan,country,East Asia and Pacific,36.204824,138.252924,ZM,Zambia,country,Sub-Saharan Africa,-13.133897,27.849332,12700.4500723335,2000,15,12,0,0,0,0,0,0,0,0,0,0,0,3,0,0,0,0,0,0,0,0,0,0
JO,Jordan,country,Middle East and North Africa,30.585164,36.238414,ZM,Zambia,country,Sub-Saharan Africa,-13.133897,27.849332,4949.01510242629,2000,0,0,0,0,0,0,0,0,0,0,0,0,0,0,0,0,0,0,0,0,0,0,0,0
KE,Kenya,country,Sub-Saharan Africa,-0.023559,37.906193,ZM,Zambia,country,Sub-Saharan Africa,-13.133897,27.849332,1833.3509015412,2000,369,4,0,203,1,0,0,1,0,0,0,0,0,44,116,0,0,0,0,0,0,0,0,0
KG,Kyrgyz Rep.,country,Europe and Central Asia,41.20438,74.766098,ZM,Zambia,country,Sub-Saharan Africa,-13.133897,27.849332,7732.79300371397,2000,60,60,0,0,0,0,0,0,0,0,0,0,0,0,0,0,0,0,0,0,0,0,0,0
LB,Lebanon,country,Middle East and North Africa,33.854721,35.862285,ZM,Zambia,country,Sub-Saharan Africa,-13.133897,27.849332,5299.28038121679,2000,29,2,0,0,0,0,0,0,0,0,0,0,0,19,4,2,0,2,0,0,0,0,0,0
MW,Malawi,country,Sub-Saharan Africa,-13.254308,34.301525,ZM,Zambia,country,Sub-Saharan Africa,-13.133897,27.849332,699.403670001861,2000,4267,1167,0,59,281,0,2364,86,0,0,0,56,6,215,30,3,0,0,0,0,0,0,0,0
MY,Malaysia,country,East Asia and Pacific,4.210484,101.975766,ZM,Zambia,country,Sub-Saharan Africa,-13.133897,27.849332,8413.98335273202,2000,0,0,0,0,0,0,0,0,0,0,0,0,0,0,0,0,0,0,0,0,0,0,0,0
MT,Malta,country,Middle East and North Africa,35.937496,14.375416,ZM,Zambia,country,Sub-Saharan Africa,-13.133897,27.849332,5643.60771275664,2000,7,0,7,0,0,0,0,0,0,0,0,0,0,0,0,0,0,0,0,0,0,0,0,0
MU,Mauritius,country,Sub-Saharan Africa,-20.348404,57.552152,ZM,Zambia,country,Sub-Saharan Africa,-13.133897,27.849332,3261.10289601563,2000,3,0,0,0,0,0,0,0,0,0,0,0,0,0,0,2,0,0,1,0,0,0,0,0
MZ,Mozambique,country,Sub-Saharan Africa,-18.665695,35.529562,ZM,Zambia,country,Sub-Saharan Africa,-13.133897,27.849332,1026.92365582414,2000,603,412,0,0,0,0,0,0,0,8,0,0,0,0,183,0,0,0,0,0,0,0,0,0
NA,Namibia,country,Sub-Saharan Africa,-22.95764,18.49041,ZM,Zambia,country,Sub-Saharan Africa,-13.133897,27.849332,1474.37210907105,2000,1632,0,0,0,0,0,0,0,2,0,0,36,0,1,9,1555,0,0,29,0,0,0,0,0
NL,Netherlands,country,Europe and Central Asia,52.132633,5.291266,ZM,Zambia,country,Sub-Saharan Africa,-13.133897,27.849332,7583.09391857494,2000,78,25,0,0,4,0,0,0,0,0,0,0,0,17,0,17,94,0,15,0,0,0,0,0
NZ,New Zealand,country,East Asia and Pacific,-40.900557,174.885971,ZM,Zambia,country,Sub-Saharan Africa,-13.133897,27.849332,13130.8804829829,2000,679,0,0,0,0,0,0,0,0,0,0,0,0,0,0,0,0,0,679,0,0,0,0,0
NI,Nicaragua,country,Latin America and the Caribbean,12.865416,-85.207229,ZM,Zambia,country,Sub-Saharan Africa,-13.133897,27.849332,12800.3127881646,2000,3,0,0,0,0,0,0,0,0,0,0,0,0,0,0,3,0,0,0,0,0,0,0,0
NE,Niger,country,Sub-Saharan Africa,17.607789,8.081666,ZM,Zambia,country,Sub-Saharan Africa,-13.133897,27.849332,4053.2262801908,2000,2,0,0,0,0,0,0,0,0,0,0,0,0,2,0,0,0,0,0,0,0,0,0,0
NO,Norway,country,Europe and Central Asia,60.472024,8.468946,ZM,Zambia,country,Sub-Saharan Africa,-13.133897,27.849332,8373.86132435943,2000,0,0,0,0,0,0,0,0,0,0,0,0,0,0,0,0,0,0,0,0,0,0,0,0
OM,Oman,country,Middle East and North Africa,21.512583,55.923255,ZM,Zambia,country,Sub-Saharan Africa,-13.133897,27.849332,4927.94866432211,2000,12,0,0,0,0,0,0,0,0,0,0,0,0,0,12,0,0,0,0,0,0,0,0,0
PK,Pakistan,country,South Asia,30.375321,69.345116,ZM,Zambia,country,Sub-Saharan Africa,-13.133897,27.849332,6572.69926036925,2000,345,343,0,2,0,0,0,0,0,0,0,0,0,0,0,0,0,0,0,0,0,0,0,0
PE,Peru,country,Latin America and the Caribbean,-9.189967,-75.015152,ZM,Zambia,country,Sub-Saharan Africa,-13.133897,27.849332,11158.5155376368,2000,0,0,0,0,0,0,0,0,0,0,0,0,0,0,0,0,0,0,0,0,0,0,0,0
PT,Portugal,country,Europe and Central Asia,39.399872,-8.224454,ZM,Zambia,country,Sub-Saharan Africa,-13.133897,27.849332,6941.23423861886,2000,0,0,0,0,0,0,0,0,0,0,0,0,0,0,0,0,0,0,0,0,0,0,0,0
KR,"Korea, Rep.",country,East Asia and Pacific,35.907757,127.766922,ZM,Zambia,country,Sub-Saharan Africa,-13.133897,27.849332,11756.6423994374,2000,0,0,0,0,0,0,0,0,0,0,0,0,0,0,0,0,0,0,0,0,0,0,0,0
SA,Saudi Arabia,country,Middle East and North Africa,23.885942,45.079162,ZM,Zambia,country,Sub-Saharan Africa,-13.133897,27.849332,4527.43730910196,2000,168,65,0,0,0,0,0,0,0,0,0,0,0,103,0,0,0,0,0,0,0,0,0,0
RS,Serbia,country,Europe and Central Asia,44.016521,21.005859,ZM,Zambia,country,Sub-Saharan Africa,-13.133897,27.849332,6399.76478917107,2000,9,9,0,0,0,0,0,0,0,0,0,0,0,0,0,0,0,0,0,0,0,0,0,0
SG,Singapore,country,East Asia and Pacific,1.352083,103.819836,ZM,Zambia,country,Sub-Saharan Africa,-13.133897,27.849332,8534.25335039472,2000,613,0,0,0,0,0,0,0,0,0,0,0,0,5,608,0,0,0,0,0,0,0,0,0
ZA,S. Africa,country,Sub-Saharan Africa,-30.559482,22.937506,ZM,Zambia,country,Sub-Saharan Africa,-13.133897,27.849332,2004.35693335058,2000,53552,19230,1172,538,597,16,195,1390,4187,61,227,619,625,2147,20122,1171,9,327,928,0,0,0,0,0
ES,Spain,country,Europe and Central Asia,40.463667,-3.74922,ZM,Zambia,country,Sub-Saharan Africa,-13.133897,27.849332,6799.26996912012,2000,53,0,0,0,0,0,0,0,0,0,0,0,0,0,0,0,0,0,53,0,0,0,0,0
LK,Sri Lanka,country,South Asia,7.873054,80.771797,ZM,Zambia,country,Sub-Saharan Africa,-13.133897,27.849332,6300.80386166965,2000,9,0,0,0,0,0,0,0,0,0,0,0,0,9,0,0,0,0,0,0,0,0,0,0
SZ,Swaziland,country,Sub-Saharan Africa,-26.522503,31.465866,ZM,Zambia,country,Sub-Saharan Africa,-13.133897,27.849332,1537.48062054905,2000,609,36,0,12,0,0,0,0,0,0,0,0,5,115,279,162,0,0,0,0,0,0,0,0
SE,Sweden,country,Europe and Central Asia,60.128161,18.643501,ZM,Zambia,country,Sub-Saharan Africa,-13.133897,27.849332,8197.06312615805,2000,0,0,0,0,0,0,0,0,0,0,0,0,0,0,0,0,0,0,0,0,0,0,0,0
CH,Switzerland,country,Europe and Central Asia,46.818188,8.227512,ZM,Zambia,country,Sub-Saharan Africa,-13.133897,27.849332,6955.47998591888,2000,2047,0,0,0,0,0,0,0,0,0,1,0,1,2,1991,0,0,0,52,0,0,0,0,0
TR,Turkey,country,Europe and Central Asia,38.963745,35.243322,ZM,Zambia,country,Sub-Saharan Africa,-13.133897,27.849332,5850.22166962268,2000,22,0,0,22,0,0,0,0,0,0,0,0,0,0,0,0,0,0,0,0,0,0,0,0
AE,United Arab Emirates,country,Middle East and North Africa,23.424076,53.847818,ZM,Zambia,country,Sub-Saharan Africa,-13.133897,27.849332,4957.55299314407,2000,90,43,26,3,0,0,0,0,1,2,0,0,0,14,0,0,0,0,1,0,0,0,0,0
GB,United Kingdom,country,Europe and Central Asia,55.378051,-3.435973,ZM,Zambia,country,Sub-Saharan Africa,-13.133897,27.849332,8169.75209834775,2000,1234,113,0,2,1,0,0,0,0,0,0,0,0,36,1000,70,9,0,12,0,0,0,0,0
TZ,Tanzania,country,Sub-Saharan Africa,-6.369028,34.888822,ZM,Zambia,country,Sub-Saharan Africa,-13.133897,27.849332,1078.32691907493,2000,5541,4899,3,13,555,0,0,2,0,39,1,0,0,23,6,0,0,0,0,0,0,0,0,0
US,USA,country,North America,37.09024,-95.712891,ZM,Zambia,country,Sub-Saharan Africa,-13.133897,27.849332,13859.9541895252,2000,5838,5224,2,37,28,0,45,1,0,0,0,0,0,22,475,3,3,1,0,0,0,0,0,0
ZW,Zimbabwe,country,Sub-Saharan Africa,-19.015438,29.154857,ZM,Zambia,country,Sub-Saharan Africa,-13.133897,27.849332,669.441354107776,2000,68313,40857,501,2787,667,10,3162,251,4952,2485,99,6630,174,1921,2941,296,19,13,567,0,0,0,0,0
AG,Antigua & Barbuda,country,Latin America and the Caribbean,17.060816,-61.796428,ZM,Zambia,country,Sub-Saharan Africa,-13.133897,27.849332,10407.4843505399,2001,949,949,0,0,0,0,0,0,0,0,0,0,0,0,0,0,0,0,0,0,0,0,0,0
AR,Argentina,country,Latin America and the Caribbean,-38.416097,-63.616672,ZM,Zambia,country,Sub-Saharan Africa,-13.133897,27.849332,9240.7933685698,2001,27417,26857,0,0,0,0,0,0,0,0,0,560,0,0,0,0,0,0,0,0,0,0,0,0
AU,Australia,country,East Asia and Pacific,-25.274398,133.775136,ZM,Zambia,country,Sub-Saharan Africa,-13.133897,27.849332,10944.403072079,2001,25,23,0,0,0,0,0,0,0,0,0,0,0,0,2,0,0,0,0,0,0,0,0,0
BE,Belgium,country,Europe and Central Asia,50.503887,4.469936,ZM,Zambia,country,Sub-Saharan Africa,-13.133897,27.849332,7441.3519643069,2001,2,0,0,0,0,0,0,0,0,0,0,0,0,2,0,0,0,0,0,0,0,0,0,0
BZ,Belize,country,Latin America and the Caribbean,17.189877,-88.49765,ZM,Zambia,country,Sub-Saharan Africa,-13.133897,27.849332,13212.3300847642,2001,126,126,0,0,0,0,0,0,0,0,0,0,0,0,0,0,0,0,0,0,0,0,0,0
BW,Botswana,country,Sub-Saharan Africa,-22.328474,24.684866,ZM,Zambia,country,Sub-Saharan Africa,-13.133897,27.849332,1076.98127900816,2001,321,43,38,0,0,0,175,0,6,0,0,0,3,4,23,29,0,0,0,0,0,0,0,0
BG,Bulgaria,country,Europe and Central Asia,42.733883,25.48583,ZM,Zambia,country,Sub-Saharan Africa,-13.133897,27.849332,6223.8604412875,2001,0,0,0,0,0,0,0,0,0,0,0,0,0,0,0,0,0,0,0,0,0,0,0,0
CA,Canada,country,North America,56.130366,-106.346771,ZM,Zambia,country,Sub-Saharan Africa,-13.133897,27.849332,13863.9705612056,2001,477,88,4,3,216,2,0,13,15,0,0,0,0,91,38,0,0,2,5,0,0,0,0,0
HK,Hong Kong,country,East Asia and Pacific,22.396428,114.109497,ZM,Zambia,country,Sub-Saharan Africa,-13.133897,27.849332,10196.3954516003,2001,1,0,0,0,0,0,0,0,0,0,0,0,0,0,1,0,0,0,0,0,0,0,0,0
CN,China,country,East Asia and Pacific,35.86166,104.195397,ZM,Zambia,country,Sub-Saharan Africa,-13.133897,27.849332,9679.35671965299,2001,59,0,0,0,30,0,0,12,0,0,1,0,0,4,0,0,0,12,0,0,0,0,0,0
TW,Taiwan,country,East Asia and Pacific,23.69781,120.960515,ZM,Zambia,country,Sub-Saharan Africa,-13.133897,27.849332,10912.851209361,2001,170,170,0,0,0,0,0,0,0,0,0,0,0,0,0,0,0,0,0,0,0,0,0,0
CY,Cyprus,country,Europe and Central Asia,35.126413,33.429859,ZM,Zambia,country,Sub-Saharan Africa,-13.133897,27.849332,5404.50818142461,2001,21,0,0,0,0,0,0,0,5,0,0,0,0,0,0,16,0,0,0,0,0,0,0,0
CD,"Congo, Dem. Rep.",country,Sub-Saharan Africa,-4.038333,21.758664,ZM,Zambia,country,Sub-Saharan Africa,-13.133897,27.849332,1213.92603506878,2001,120,106,0,0,0,0,0,0,0,0,0,0,0,1,13,0,0,0,0,0,0,0,0,0
DK,Denmark,country,Europe and Central Asia,56.26392,9.501785,ZM,Zambia,country,Sub-Saharan Africa,-13.133897,27.849332,7911.6737333496,2001,1,0,0,0,0,0,0,0,0,0,0,0,0,0,0,1,0,0,0,0,0,0,0,0
EG,Egypt,country,Middle East and North Africa,26.820553,30.802498,ZM,Zambia,country,Sub-Saharan Africa,-13.133897,27.849332,4459.15986524503,2001,2,0,0,1,0,0,0,0,0,0,0,0,0,0,0,0,0,0,1,0,0,0,0,0
FI,Finland,country,Europe and Central Asia,61.92411,25.748151,ZM,Zambia,country,Sub-Saharan Africa,-13.133897,27.849332,8357.45332463293,2001,184,0,0,0,0,0,0,0,0,0,0,0,0,0,169,0,0,0,15,0,0,0,0,0
FR,France,country,Europe and Central Asia,46.227638,2.213749,ZM,Zambia,country,Sub-Saharan Africa,-13.133897,27.849332,7089.40260178498,2001,12,8,0,0,0,0,0,0,0,0,0,0,0,0,0,1,0,0,3,0,0,0,0,0
GE,Georgia,country,Europe and Central Asia,42.315407,43.356892,ZM,Zambia,country,Sub-Saharan Africa,-13.133897,27.849332,6373.45517132016,2001,0,0,0,0,0,0,0,0,0,0,0,0,0,0,0,0,0,0,0,0,0,0,0,0
DE,Germany,country,Europe and Central Asia,51.165691,10.451526,ZM,Zambia,country,Sub-Saharan Africa,-13.133897,27.849332,7354.12240550199,2001,950,915,0,1,0,0,0,0,0,0,0,0,0,34,0,0,0,0,0,0,0,0,0,0
GH,Ghana,country,Sub-Saharan Africa,7.946527,-1.023194,ZM,Zambia,country,Sub-Saharan Africa,-13.133897,27.849332,3962.03302093674,2001,0,0,0,0,0,0,0,0,0,0,0,0,0,0,0,0,0,0,0,0,0,0,0,0
GN,Guinea,country,Sub-Saharan Africa,9.945587,-9.696645,ZM,Zambia,country,Sub-Saharan Africa,-13.133897,27.849332,4880.25263168119,2001,0,0,0,0,0,0,0,0,0,0,0,0,0,0,0,0,0,0,0,0,0,0,0,0
IN,India,country,South Asia,20.593684,78.96288,ZM,Zambia,country,Sub-Saharan Africa,-13.133897,27.849332,6735.25115748534,2001,102,32,0,10,6,0,0,0,1,4,18,0,1,3,27,0,0,0,0,0,0,0,0,0
ID,Indonesia,country,East Asia and Pacific,-0.789275,113.921327,ZM,Zambia,country,Sub-Saharan Africa,-13.133897,27.849332,9572.9757814265,2001,1754,0,0,0,0,0,0,0,0,0,0,0,0,0,1754,0,0,0,0,0,0,0,0,0
IR,Iran,country,Middle East and North Africa,32.427908,53.688046,ZM,Zambia,country,Sub-Saharan Africa,-13.133897,27.849332,5769.98114377664,2001,2,0,0,0,0,1,0,0,0,0,0,0,0,1,0,0,0,0,0,0,0,0,0,0
IE,Ireland,country,Europe and Central Asia,53.41291,-8.24389,ZM,Zambia,country,Sub-Saharan Africa,-13.133897,27.849332,8164.86582817381,2001,110,0,0,0,0,0,0,0,0,0,0,0,0,0,0,0,0,0,110,0,0,0,0,0
IL,Israel,country,Middle East and North Africa,31.046051,34.851612,ZM,Zambia,country,Sub-Saharan Africa,-13.133897,27.849332,4974.78442666163,2001,0,0,0,0,0,0,0,0,0,0,0,0,0,0,0,0,0,0,0,0,0,0,0,0
IT,Italy,country,Europe and Central Asia,41.87194,12.56738,ZM,Zambia,country,Sub-Saharan Africa,-13.133897,27.849332,6320.74811651351,2001,128,10,0,1,0,0,0,3,0,0,0,0,1,85,3,3,0,2,20,0,0,0,0,0
JP,Japan,country,East Asia and Pacific,36.204824,138.252924,ZM,Zambia,country,Sub-Saharan Africa,-13.133897,27.849332,12700.4500723335,2001,73,68,0,0,0,0,0,0,0,0,3,0,0,2,0,0,0,0,0,0,0,0,0,0
KE,Kenya,country,Sub-Saharan Africa,-0.023559,37.906193,ZM,Zambia,country,Sub-Saharan Africa,-13.133897,27.849332,1833.3509015412,2001,3203,41,0,126,0,0,0,37,0,0,0,0,1,174,2824,0,0,0,0,0,0,0,0,0
LB,Lebanon,country,Middle East and North Africa,33.854721,35.862285,ZM,Zambia,country,Sub-Saharan Africa,-13.133897,27.849332,5299.28038121679,2001,2,0,0,0,0,0,0,0,0,0,0,0,0,0,2,0,0,0,0,0,0,0,0,0
MW,Malawi,country,Sub-Saharan Africa,-13.254308,34.301525,ZM,Zambia,country,Sub-Saharan Africa,-13.133897,27.849332,699.403670001861,2001,3119,638,0,131,720,0,6,0,0,421,0,664,29,449,0,52,0,0,0,9,0,0,0,0
MY,Malaysia,country,East Asia and Pacific,4.210484,101.975766,ZM,Zambia,country,Sub-Saharan Africa,-13.133897,27.849332,8413.98335273202,2001,145,0,0,0,25,0,0,0,0,0,0,0,0,0,120,0,0,0,0,0,0,0,0,0
MU,Mauritius,country,Sub-Saharan Africa,-20.348404,57.552152,ZM,Zambia,country,Sub-Saharan Africa,-13.133897,27.849332,3261.10289601563,2001,327,293,0,0,0,0,0,0,0,0,0,0,0,4,30,0,0,0,0,0,0,0,0,0
MZ,Mozambique,country,Sub-Saharan Africa,-18.665695,35.529562,ZM,Zambia,country,Sub-Saharan Africa,-13.133897,27.849332,1026.92365582414,2001,522,156,0,0,0,0,0,0,0,0,0,0,0,0,364,0,0,0,0,2,0,0,0,0
NA,Namibia,country,Sub-Saharan Africa,-22.95764,18.49041,ZM,Zambia,country,Sub-Saharan Africa,-13.133897,27.849332,1474.37210907105,2001,1396,39,0,0,0,0,0,0,0,0,0,108,0,1,0,1248,0,0,0,0,0,0,0,0
NL,Netherlands,country,Europe and Central Asia,52.132633,5.291266,ZM,Zambia,country,Sub-Saharan Africa,-13.133897,27.849332,7583.09391857494,2001,37,2,0,0,0,0,0,0,0,0,0,0,0,1,0,1,6,0,33,0,0,0,0,0
NZ,New Zealand,country,East Asia and Pacific,-40.900557,174.885971,ZM,Zambia,country,Sub-Saharan Africa,-13.133897,27.849332,13130.8804829829,2001,733,0,0,0,0,0,0,0,0,0,0,0,0,0,30,0,0,0,703,0,0,0,0,0
NG,Nigeria,country,Sub-Saharan Africa,9.081999,8.675277,ZM,Zambia,country,Sub-Saharan Africa,-13.133897,27.849332,3257.09609691041,2001,0,0,0,0,0,0,0,0,0,0,0,0,0,0,0,0,0,0,0,0,0,0,0,0
NO,Norway,country,Europe and Central Asia,60.472024,8.468946,ZM,Zambia,country,Sub-Saharan Africa,-13.133897,27.849332,8373.86132435943,2001,0,0,0,0,0,0,0,0,0,0,0,0,0,0,0,0,0,0,0,0,0,0,0,0
OM,Oman,country,Middle East and North Africa,21.512583,55.923255,ZM,Zambia,country,Sub-Saharan Africa,-13.133897,27.849332,4927.94866432211,2001,11,0,0,0,0,0,0,0,0,0,0,0,0,0,11,0,0,0,0,0,0,0,0,0
PK,Pakistan,country,South Asia,30.375321,69.345116,ZM,Zambia,country,Sub-Saharan Africa,-13.133897,27.849332,6572.69926036925,2001,253,244,0,0,0,0,0,0,0,0,1,0,0,1,5,0,0,0,2,0,0,0,0,0
PE,Peru,country,Latin America and the Caribbean,-9.189967,-75.015152,ZM,Zambia,country,Sub-Saharan Africa,-13.133897,27.849332,11158.5155376368,2001,0,0,0,0,0,0,0,0,0,0,0,0,0,0,0,0,0,0,0,0,0,0,0,0
PT,Portugal,country,Europe and Central Asia,39.399872,-8.224454,ZM,Zambia,country,Sub-Saharan Africa,-13.133897,27.849332,6941.23423861886,2001,80,0,0,0,0,0,0,0,0,0,0,0,0,57,0,0,0,23,0,0,0,0,0,0
KR,"Korea, Rep.",country,East Asia and Pacific,35.907757,127.766922,ZM,Zambia,country,Sub-Saharan Africa,-13.133897,27.849332,11756.6423994374,2001,70,0,2,0,0,0,0,0,0,0,0,0,0,0,68,0,0,0,0,0,0,0,0,0
SA,Saudi Arabia,country,Middle East and North Africa,23.885942,45.079162,ZM,Zambia,country,Sub-Saharan Africa,-13.133897,27.849332,4527.43730910196,2001,13,0,0,0,0,0,0,0,0,0,0,0,0,13,0,0,0,0,0,0,0,0,0,0
RS,Serbia,country,Europe and Central Asia,44.016521,21.005859,ZM,Zambia,country,Sub-Saharan Africa,-13.133897,27.849332,6399.76478917107,2001,0,0,0,0,0,0,0,0,0,0,0,0,0,0,0,0,0,0,0,0,0,0,0,0
SG,Singapore,country,East Asia and Pacific,1.352083,103.819836,ZM,Zambia,country,Sub-Saharan Africa,-13.133897,27.849332,8534.25335039472,2001,771,0,0,0,0,0,0,0,0,0,0,0,0,0,771,0,0,0,0,0,0,0,0,0
ZA,S. Africa,country,Sub-Saharan Africa,-30.559482,22.937506,ZM,Zambia,country,Sub-Saharan Africa,-13.133897,27.849332,2004.35693335058,2001,85130,46013,1753,418,1305,14,137,2115,6166,70,417,1349,472,2327,20466,1455,1,85,568,0,0,0,0,0
LK,Sri Lanka,country,South Asia,7.873054,80.771797,ZM,Zambia,country,Sub-Saharan Africa,-13.133897,27.849332,6300.80386166965,2001,3,0,0,0,0,0,0,0,0,0,0,0,0,3,0,0,0,0,0,0,0,0,0,0
SZ,Swaziland,country,Sub-Saharan Africa,-26.522503,31.465866,ZM,Zambia,country,Sub-Saharan Africa,-13.133897,27.849332,1537.48062054905,2001,946,30,0,4,0,0,0,0,0,0,0,0,0,642,135,112,0,0,23,0,0,0,0,0
CH,Switzerland,country,Europe and Central Asia,46.818188,8.227512,ZM,Zambia,country,Sub-Saharan Africa,-13.133897,27.849332,6955.47998591888,2001,110,0,0,0,0,0,0,0,0,24,2,0,0,1,0,0,0,0,83,0,0,0,0,0
TH,Thailand,country,East Asia and Pacific,15.870032,100.992541,ZM,Zambia,country,Sub-Saharan Africa,-13.133897,27.849332,8672.59596256128,2001,5073,5073,0,0,0,0,0,0,0,0,0,0,0,0,0,0,0,0,0,0,0,0,0,0
UG,Uganda,country,Sub-Saharan Africa,1.373333,32.290275,ZM,Zambia,country,Sub-Saharan Africa,-13.133897,27.849332,1687.75501386645,2001,660,660,0,0,0,0,0,0,0,0,0,0,0,0,0,0,0,0,0,0,0,0,0,0
AE,United Arab Emirates,country,Middle East and North Africa,23.424076,53.847818,ZM,Zambia,country,Sub-Saharan Africa,-13.133897,27.849332,4957.55299314407,2001,152,76,0,1,0,3,0,30,7,1,0,0,0,34,0,0,0,0,0,0,0,0,0,0
GB,United Kingdom,country,Europe and Central Asia,55.378051,-3.435973,ZM,Zambia,country,Sub-Saharan Africa,-13.133897,27.849332,8169.75209834775,2001,248,36,21,55,1,0,0,0,0,1,53,0,2,47,0,15,1,0,17,0,0,0,0,0
TZ,Tanzania,country,Sub-Saharan Africa,-6.369028,34.888822,ZM,Zambia,country,Sub-Saharan Africa,-13.133897,27.849332,1078.32691907493,2001,3373,1068,579,17,1414,0,8,11,0,242,0,28,0,0,6,0,0,0,0,0,0,0,0,0
US,USA,country,North America,37.09024,-95.712891,ZM,Zambia,country,Sub-Saharan Africa,-13.133897,27.849332,13859.9541895252,2001,110,43,0,11,0,0,0,1,0,0,0,0,0,53,0,2,0,0,0,0,0,0,0,0
ZW,Zimbabwe,country,Sub-Saharan Africa,-19.015438,29.154857,ZM,Zambia,country,Sub-Saharan Africa,-13.133897,27.849332,669.441354107776,2001,93508,34370,2824,7053,777,12,5774,998,13016,3032,113,13316,316,1221,9160,663,10,22,841,0,0,0,0,0
AG,Antigua & Barbuda,country,Latin America and the Caribbean,17.060816,-61.796428,ZM,Zambia,country,Sub-Saharan Africa,-13.133897,27.849332,10407.4843505399,2002,7,5,0,0,0,0,0,0,0,0,0,0,0,0,0,0,0,0,2,0,0,0,0,0
AR,Argentina,country,Latin America and the Caribbean,-38.416097,-63.616672,ZM,Zambia,country,Sub-Saharan Africa,-13.133897,27.849332,9240.7933685698,2002,6038,5826,0,0,0,0,0,0,0,0,0,0,0,0,204,0,0,0,8,0,0,0,0,0
AU,Australia,country,East Asia and Pacific,-25.274398,133.775136,ZM,Zambia,country,Sub-Saharan Africa,-13.133897,27.849332,10944.403072079,2002,265,0,0,0,0,0,0,0,0,0,0,0,0,2,225,0,0,0,38,0,0,0,0,0
AT,Austria,country,Europe and Central Asia,47.516231,14.550072,ZM,Zambia,country,Sub-Saharan Africa,-13.133897,27.849332,6879.89272701395,2002,0,0,0,0,0,0,0,0,0,0,0,0,0,0,0,0,0,0,0,0,0,0,0,0
AZ,Azerbaijan,country,Europe and Central Asia,40.143105,47.576927,ZM,Zambia,country,Sub-Saharan Africa,-13.133897,27.849332,6271.81045247384,2002,0,0,0,0,0,0,0,0,0,0,0,0,0,0,0,0,0,0,0,0,0,0,0,0
BD,Bangladesh,country,South Asia,23.684994,90.356331,ZM,Zambia,country,Sub-Saharan Africa,-13.133897,27.849332,7938.39496856878,2002,10,0,0,0,0,0,0,0,0,10,0,0,0,0,0,0,0,0,0,0,0,0,0,0
BE,Belgium,country,Europe and Central Asia,50.503887,4.469936,ZM,Zambia,country,Sub-Saharan Africa,-13.133897,27.849332,7441.3519643069,2002,87,0,0,0,0,0,0,3,0,0,0,0,1,0,0,0,0,0,83,0,0,0,0,0
BZ,Belize,country,Latin America and the Caribbean,17.189877,-88.49765,ZM,Zambia,country,Sub-Saharan Africa,-13.133897,27.849332,13212.3300847642,2002,414,414,0,0,0,0,0,0,0,0,0,0,0,0,0,0,0,0,0,0,0,0,0,0
BW,Botswana,country,Sub-Saharan Africa,-22.328474,24.684866,ZM,Zambia,country,Sub-Saharan Africa,-13.133897,27.849332,1076.98127900816,2002,2219,1877,0,0,45,0,205,0,0,0,0,0,0,63,27,2,0,0,0,0,0,0,0,0
BR,Brazil,country,Latin America and the Caribbean,-14.235004,-51.92528,ZM,Zambia,country,Sub-Saharan Africa,-13.133897,27.849332,8581.46282774675,2002,30,0,0,0,0,0,0,0,0,0,0,0,0,0,30,0,0,0,0,0,0,0,0,0
BG,Bulgaria,country,Europe and Central Asia,42.733883,25.48583,ZM,Zambia,country,Sub-Saharan Africa,-13.133897,27.849332,6223.8604412875,2002,87,80,0,0,0,0,0,0,0,0,0,0,0,7,0,0,0,0,0,0,0,0,0,0
CA,Canada,country,North America,56.130366,-106.346771,ZM,Zambia,country,Sub-Saharan Africa,-13.133897,27.849332,13863.9705612056,2002,284,65,3,3,136,0,0,2,24,0,0,0,0,28,17,0,0,0,6,0,0,0,0,0
HK,Hong Kong,country,East Asia and Pacific,22.396428,114.109497,ZM,Zambia,country,Sub-Saharan Africa,-13.133897,27.849332,10196.3954516003,2002,5,0,0,5,0,0,0,0,0,0,0,0,0,0,0,0,0,0,0,0,0,0,0,0
CN,China,country,East Asia and Pacific,35.86166,104.195397,ZM,Zambia,country,Sub-Saharan Africa,-13.133897,27.849332,9679.35671965299,2002,75,58,0,0,0,0,0,0,0,1,0,0,1,13,2,0,0,0,0,0,0,0,0,0
TW,Taiwan,country,East Asia and Pacific,23.69781,120.960515,ZM,Zambia,country,Sub-Saharan Africa,-13.133897,27.849332,10912.851209361,2002,1,0,0,0,0,0,0,0,0,1,0,0,0,0,0,0,0,0,0,0,0,0,0,0
KP,"Korea, Dem. Rep.",country,East Asia and Pacific,40.339852,127.510093,ZM,Zambia,country,Sub-Saharan Africa,-13.133897,27.849332,11773.4519967569,2002,0,0,0,0,0,0,0,0,0,0,0,0,0,0,0,0,0,0,0,0,0,0,0,0
CD,"Congo, Dem. Rep.",country,Sub-Saharan Africa,-4.038333,21.758664,ZM,Zambia,country,Sub-Saharan Africa,-13.133897,27.849332,1213.92603506878,2002,289,283,0,0,0,0,0,0,0,0,0,0,0,0,6,0,0,0,0,0,0,0,0,0
DK,Denmark,country,Europe and Central Asia,56.26392,9.501785,ZM,Zambia,country,Sub-Saharan Africa,-13.133897,27.849332,7911.6737333496,2002,0,0,0,0,0,0,0,0,0,0,0,0,0,0,0,0,0,0,0,0,0,0,0,0
EG,Egypt,country,Middle East and North Africa,26.820553,30.802498,ZM,Zambia,country,Sub-Saharan Africa,-13.133897,27.849332,4459.15986524503,2002,21,0,0,0,0,0,0,0,2,0,0,0,0,9,10,0,0,0,0,0,0,0,0,0
ET,Ethiopia,country,Sub-Saharan Africa,9.145,40.489673,ZM,Zambia,country,Sub-Saharan Africa,-13.133897,27.849332,2846.62091884731,2002,0,0,0,0,0,0,0,0,0,0,0,0,0,0,0,0,0,0,0,0,0,0,0,0
FI,Finland,country,Europe and Central Asia,61.92411,25.748151,ZM,Zambia,country,Sub-Saharan Africa,-13.133897,27.849332,8357.45332463293,2002,0,0,0,0,0,0,0,0,0,0,0,0,0,0,0,0,0,0,0,0,0,0,0,0
FR,France,country,Europe and Central Asia,46.227638,2.213749,ZM,Zambia,country,Sub-Saharan Africa,-13.133897,27.849332,7089.40260178498,2002,35,0,0,0,0,0,0,3,18,0,0,0,0,0,0,0,0,0,14,0,0,0,0,0
DE,Germany,country,Europe and Central Asia,51.165691,10.451526,ZM,Zambia,country,Sub-Saharan Africa,-13.133897,27.849332,7354.12240550199,2002,973,942,0,0,0,0,0,0,0,0,0,0,0,3,0,1,0,0,27,0,0,0,0,0
GH,Ghana,country,Sub-Saharan Africa,7.946527,-1.023194,ZM,Zambia,country,Sub-Saharan Africa,-13.133897,27.849332,3962.03302093674,2002,1,0,1,0,0,0,0,0,0,0,0,0,0,0,0,0,0,0,0,0,0,0,0,0
IN,India,country,South Asia,20.593684,78.96288,ZM,Zambia,country,Sub-Saharan Africa,-13.133897,27.849332,6735.25115748534,2002,368,337,0,3,0,0,0,13,0,0,11,0,0,4,0,0,0,0,0,0,0,0,0,0
ID,Indonesia,country,East Asia and Pacific,-0.789275,113.921327,ZM,Zambia,country,Sub-Saharan Africa,-13.133897,27.849332,9572.9757814265,2002,50,0,0,0,0,0,0,0,10,0,0,0,0,0,40,0,0,0,0,0,0,0,0,0
IR,Iran,country,Middle East and North Africa,32.427908,53.688046,ZM,Zambia,country,Sub-Saharan Africa,-13.133897,27.849332,5769.98114377664,2002,17,0,0,0,0,0,0,0,0,0,0,0,0,0,0,0,0,0,17,0,0,0,0,0
IE,Ireland,country,Europe and Central Asia,53.41291,-8.24389,ZM,Zambia,country,Sub-Saharan Africa,-13.133897,27.849332,8164.86582817381,2002,28,0,0,0,0,0,0,0,0,0,0,0,0,0,0,0,0,0,28,0,0,0,0,0
IL,Israel,country,Middle East and North Africa,31.046051,34.851612,ZM,Zambia,country,Sub-Saharan Africa,-13.133897,27.849332,4974.78442666163,2002,4,0,0,0,0,0,0,0,0,0,0,0,0,4,0,0,0,0,0,0,0,0,0,0
IT,Italy,country,Europe and Central Asia,41.87194,12.56738,ZM,Zambia,country,Sub-Saharan Africa,-13.133897,27.849332,6320.74811651351,2002,4165,3661,0,0,140,0,0,34,0,0,0,0,0,49,276,2,0,2,1,0,0,0,0,0
JP,Japan,country,East Asia and Pacific,36.204824,138.252924,ZM,Zambia,country,Sub-Saharan Africa,-13.133897,27.849332,12700.4500723335,2002,18,9,0,0,0,0,3,1,1,0,0,0,0,3,1,0,0,0,0,0,0,0,0,0
KE,Kenya,country,Sub-Saharan Africa,-0.023559,37.906193,ZM,Zambia,country,Sub-Saharan Africa,-13.133897,27.849332,1833.3509015412,2002,8049,17,0,332,0,0,0,12,0,0,0,0,1,245,7418,0,0,0,24,0,0,0,0,0
KI,Kiribati,country,East Asia and Pacific,-3.370417,-168.734039,ZM,Zambia,country,Sub-Saharan Africa,-13.133897,27.849332,17442.402342362,2002,1,1,0,0,0,0,0,0,0,0,0,0,0,0,0,0,0,0,0,0,0,0,0,0
LB,Lebanon,country,Middle East and North Africa,33.854721,35.862285,ZM,Zambia,country,Sub-Saharan Africa,-13.133897,27.849332,5299.28038121679,2002,14,3,0,0,0,0,0,0,6,0,1,0,0,1,1,2,0,0,0,0,0,0,0,0
LS,Lesotho,country,Sub-Saharan Africa,-29.609988,28.233608,ZM,Zambia,country,Sub-Saharan Africa,-13.133897,27.849332,1834.53825093042,2002,537,537,0,0,0,0,0,0,0,0,0,0,0,0,0,0,0,0,0,0,0,0,0,0
MW,Malawi,country,Sub-Saharan Africa,-13.254308,34.301525,ZM,Zambia,country,Sub-Saharan Africa,-13.133897,27.849332,699.403670001861,2002,2419,8,0,210,0,0,64,0,0,1072,0,798,4,262,0,1,0,0,0,0,0,0,0,0
MY,Malaysia,country,East Asia and Pacific,4.210484,101.975766,ZM,Zambia,country,Sub-Saharan Africa,-13.133897,27.849332,8413.98335273202,2002,164,25,0,0,0,0,0,0,0,0,0,0,0,0,139,0,0,0,0,0,0,0,0,0
ML,Mali,country,Sub-Saharan Africa,17.570692,-3.996166,ZM,Zambia,country,Sub-Saharan Africa,-13.133897,27.849332,4891.42380765327,2002,41,0,0,0,0,0,0,0,0,0,0,0,0,0,41,0,0,0,0,0,0,0,0,0
MT,Malta,country,Middle East and North Africa,35.937496,14.375416,ZM,Zambia,country,Sub-Saharan Africa,-13.133897,27.849332,5643.60771275664,2002,30,0,0,0,0,0,0,0,0,0,0,0,0,0,30,0,0,0,0,0,0,0,0,0
MU,Mauritius,country,Sub-Saharan Africa,-20.348404,57.552152,ZM,Zambia,country,Sub-Saharan Africa,-13.133897,27.849332,3261.10289601563,2002,1410,729,0,0,0,0,0,0,0,0,0,0,0,0,681,0,0,0,0,0,0,0,0,0
MZ,Mozambique,country,Sub-Saharan Africa,-18.665695,35.529562,ZM,Zambia,country,Sub-Saharan Africa,-13.133897,27.849332,1026.92365582414,2002,2772,1125,0,0,370,0,0,0,0,2,0,0,0,182,1093,0,0,0,0,0,0,0,0,0
NA,Namibia,country,Sub-Saharan Africa,-22.95764,18.49041,ZM,Zambia,country,Sub-Saharan Africa,-13.133897,27.849332,1474.37210907105,2002,1210,6,0,0,0,0,0,0,0,0,0,173,0,173,0,858,0,0,0,0,0,0,0,0
NL,Netherlands,country,Europe and Central Asia,52.132633,5.291266,ZM,Zambia,country,Sub-Saharan Africa,-13.133897,27.849332,7583.09391857494,2002,56,5,1,0,1,0,0,0,0,0,0,0,0,1,0,39,279,0,9,0,0,0,0,0
NZ,New Zealand,country,East Asia and Pacific,-40.900557,174.885971,ZM,Zambia,country,Sub-Saharan Africa,-13.133897,27.849332,13130.8804829829,2002,174,30,0,0,0,0,0,0,0,0,0,0,0,0,0,0,0,0,144,0,0,0,0,0
NG,Nigeria,country,Sub-Saharan Africa,9.081999,8.675277,ZM,Zambia,country,Sub-Saharan Africa,-13.133897,27.849332,3257.09609691041,2002,0,0,0,0,0,0,0,0,0,0,0,0,0,0,0,0,0,0,0,0,0,0,0,0
NO,Norway,country,Europe and Central Asia,60.472024,8.468946,ZM,Zambia,country,Sub-Saharan Africa,-13.133897,27.849332,8373.86132435943,2002,0,0,0,0,0,0,0,0,0,0,0,0,0,0,0,0,0,0,0,0,0,0,0,0
PK,Pakistan,country,South Asia,30.375321,69.345116,ZM,Zambia,country,Sub-Saharan Africa,-13.133897,27.849332,6572.69926036925,2002,774,760,0,0,0,1,0,0,0,0,0,0,0,13,0,0,0,0,0,0,0,0,0,0
PT,Portugal,country,Europe and Central Asia,39.399872,-8.224454,ZM,Zambia,country,Sub-Saharan Africa,-13.133897,27.849332,6941.23423861886,2002,39,0,0,0,0,0,0,29,0,0,0,0,0,0,0,0,0,10,0,0,0,0,0,0
KR,"Korea, Rep.",country,East Asia and Pacific,35.907757,127.766922,ZM,Zambia,country,Sub-Saharan Africa,-13.133897,27.849332,11756.6423994374,2002,0,0,0,0,0,0,0,0,0,0,0,0,0,0,0,0,0,0,0,0,0,0,0,0
SA,Saudi Arabia,country,Middle East and North Africa,23.885942,45.079162,ZM,Zambia,country,Sub-Saharan Africa,-13.133897,27.849332,4527.43730910196,2002,0,0,0,0,0,0,0,0,0,0,0,0,0,0,0,0,0,0,0,0,0,0,0,0
SG,Singapore,country,East Asia and Pacific,1.352083,103.819836,ZM,Zambia,country,Sub-Saharan Africa,-13.133897,27.849332,8534.25335039472,2002,657,0,0,0,0,0,0,0,0,0,0,0,0,0,657,0,0,0,0,0,0,0,0,0
ZA,S. Africa,country,Sub-Saharan Africa,-30.559482,22.937506,ZM,Zambia,country,Sub-Saharan Africa,-13.133897,27.849332,2004.35693335058,2002,240666,195878,1109,670,6695,21,155,2627,4314,277,265,413,640,1842,24000,925,269,58,777,0,0,0,0,0
ES,Spain,country,Europe and Central Asia,40.463667,-3.74922,ZM,Zambia,country,Sub-Saharan Africa,-13.133897,27.849332,6799.26996912012,2002,38,0,0,0,0,0,0,0,0,0,0,38,0,0,0,0,0,0,0,0,0,0,0,0
SZ,Swaziland,country,Sub-Saharan Africa,-26.522503,31.465866,ZM,Zambia,country,Sub-Saharan Africa,-13.133897,27.849332,1537.48062054905,2002,583,0,0,0,0,0,0,0,0,0,0,0,0,554,0,29,0,0,0,0,0,0,0,0
CH,Switzerland,country,Europe and Central Asia,46.818188,8.227512,ZM,Zambia,country,Sub-Saharan Africa,-13.133897,27.849332,6955.47998591888,2002,194,29,0,0,0,0,0,0,0,90,0,0,0,1,0,0,0,0,74,0,0,0,0,0
TH,Thailand,country,East Asia and Pacific,15.870032,100.992541,ZM,Zambia,country,Sub-Saharan Africa,-13.133897,27.849332,8672.59596256128,2002,6243,6243,0,0,0,0,0,0,0,0,0,0,0,0,0,0,0,0,0,0,0,0,0,0
UG,Uganda,country,Sub-Saharan Africa,1.373333,32.290275,ZM,Zambia,country,Sub-Saharan Africa,-13.133897,27.849332,1687.75501386645,2002,13072,13062,0,0,0,0,0,0,0,0,0,0,0,10,0,0,0,0,0,0,0,0,0,0
AE,United Arab Emirates,country,Middle East and North Africa,23.424076,53.847818,ZM,Zambia,country,Sub-Saharan Africa,-13.133897,27.849332,4957.55299314407,2002,430,363,1,27,10,0,0,5,4,0,1,0,0,3,12,1,0,0,3,0,0,0,0,0
GB,United Kingdom,country,Europe and Central Asia,55.378051,-3.435973,ZM,Zambia,country,Sub-Saharan Africa,-13.133897,27.849332,8169.75209834775,2002,209,23,0,5,71,0,0,0,0,48,0,0,33,10,3,9,56,1,6,0,0,0,0,0
TZ,Tanzania,country,Sub-Saharan Africa,-6.369028,34.888822,ZM,Zambia,country,Sub-Saharan Africa,-13.133897,27.849332,1078.32691907493,2002,9739,9504,148,1,64,0,0,0,0,13,0,0,9,0,0,0,0,0,0,0,0,0,0,0
US,USA,country,North America,37.09024,-95.712891,ZM,Zambia,country,Sub-Saharan Africa,-13.133897,27.849332,13859.9541895252,2002,6129,5861,0,0,176,0,0,0,0,0,0,0,0,92,0,0,0,0,0,0,0,0,0,0
ZW,Zimbabwe,country,Sub-Saharan Africa,-19.015438,29.154857,ZM,Zambia,country,Sub-Saharan Africa,-13.133897,27.849332,669.441354107776,2002,46052,17153,4929,1636,127,5,139,893,13964,1155,23,1936,155,1089,2697,132,47,0,19,0,0,0,0,0
AR,Argentina,country,Latin America and the Caribbean,-38.416097,-63.616672,ZM,Zambia,country,Sub-Saharan Africa,-13.133897,27.849332,9240.7933685698,2003,484,0,0,0,0,0,0,0,0,0,0,0,0,0,484,0,0,0,0,0,0,0,0,0
AU,Australia,country,East Asia and Pacific,-25.274398,133.775136,ZM,Zambia,country,Sub-Saharan Africa,-13.133897,27.849332,10944.403072079,2003,1030,6,0,0,0,0,0,0,0,0,0,0,0,0,1011,0,0,0,13,0,0,0,0,0
BD,Bangladesh,country,South Asia,23.684994,90.356331,ZM,Zambia,country,Sub-Saharan Africa,-13.133897,27.849332,7938.39496856878,2003,152,0,0,0,0,0,0,0,0,152,0,0,0,0,0,0,0,0,0,0,0,0,0,0
BE,Belgium,country,Europe and Central Asia,50.503887,4.469936,ZM,Zambia,country,Sub-Saharan Africa,-13.133897,27.849332,7441.3519643069,2003,1,0,0,0,0,0,0,0,0,0,0,0,1,0,0,0,0,0,0,0,0,0,0,0
BW,Botswana,country,Sub-Saharan Africa,-22.328474,24.684866,ZM,Zambia,country,Sub-Saharan Africa,-13.133897,27.849332,1076.98127900816,2003,539,224,0,0,55,0,225,13,9,0,0,0,0,0,13,0,0,0,0,0,0,0,0,0
BG,Bulgaria,country,Europe and Central Asia,42.733883,25.48583,ZM,Zambia,country,Sub-Saharan Africa,-13.133897,27.849332,6223.8604412875,2003,3,3,0,0,0,0,0,0,0,0,0,0,0,0,0,0,0,0,0,0,0,0,0,0
CA,Canada,country,North America,56.130366,-106.346771,ZM,Zambia,country,Sub-Saharan Africa,-13.133897,27.849332,13863.9705612056,2003,279,88,4,6,119,0,1,3,14,0,0,0,0,27,17,0,0,0,0,0,0,0,0,0
HK,Hong Kong,country,East Asia and Pacific,22.396428,114.109497,ZM,Zambia,country,Sub-Saharan Africa,-13.133897,27.849332,10196.3954516003,2003,4,4,0,0,0,0,0,0,0,0,0,0,0,0,0,0,0,0,0,0,0,0,0,0
CN,China,country,East Asia and Pacific,35.86166,104.195397,ZM,Zambia,country,Sub-Saharan Africa,-13.133897,27.849332,9679.35671965299,2003,3586,874,0,0,2710,0,0,0,0,0,0,0,0,2,0,0,0,0,0,0,0,0,0,0
TW,Taiwan,country,East Asia and Pacific,23.69781,120.960515,ZM,Zambia,country,Sub-Saharan Africa,-13.133897,27.849332,10912.851209361,2003,31,0,0,0,0,0,0,0,0,0,0,0,0,23,8,0,0,0,0,0,0,0,0,0
CI,Ivory Coast,country,Sub-Saharan Africa,7.539989,-5.54708,ZM,Zambia,country,Sub-Saharan Africa,-13.133897,27.849332,4351.06980518422,2003,0,0,0,0,0,0,0,0,0,0,0,0,0,0,0,0,0,0,0,0,0,0,0,0
CY,Cyprus,country,Europe and Central Asia,35.126413,33.429859,ZM,Zambia,country,Sub-Saharan Africa,-13.133897,27.849332,5404.50818142461,2003,2,0,0,0,0,0,0,0,1,0,0,0,0,0,0,1,0,0,0,0,0,0,0,0
CD,"Congo, Dem. Rep.",country,Sub-Saharan Africa,-4.038333,21.758664,ZM,Zambia,country,Sub-Saharan Africa,-13.133897,27.849332,1213.92603506878,2003,6054,363,0,0,0,0,5683,0,0,0,0,0,0,8,0,0,0,0,0,0,0,0,0,0
DK,Denmark,country,Europe and Central Asia,56.26392,9.501785,ZM,Zambia,country,Sub-Saharan Africa,-13.133897,27.849332,7911.6737333496,2003,66,0,0,0,66,0,0,0,0,0,0,0,0,0,0,0,0,0,0,0,0,0,0,0
EG,Egypt,country,Middle East and North Africa,26.820553,30.802498,ZM,Zambia,country,Sub-Saharan Africa,-13.133897,27.849332,4459.15986524503,2003,489,151,1,0,0,0,0,0,4,0,0,0,1,3,329,0,0,0,0,0,0,0,0,0
ET,Ethiopia,country,Sub-Saharan Africa,9.145,40.489673,ZM,Zambia,country,Sub-Saharan Africa,-13.133897,27.849332,2846.62091884731,2003,27,0,0,0,27,0,0,0,0,0,0,0,0,0,0,0,0,0,0,0,0,0,0,0
FR,France,country,Europe and Central Asia,46.227638,2.213749,ZM,Zambia,country,Sub-Saharan Africa,-13.133897,27.849332,7089.40260178498,2003,0,0,0,0,0,0,0,0,0,0,0,0,0,0,0,0,0,0,0,0,0,0,0,0
GE,Georgia,country,Europe and Central Asia,42.315407,43.356892,ZM,Zambia,country,Sub-Saharan Africa,-13.133897,27.849332,6373.45517132016,2003,60,60,0,0,0,0,0,0,0,0,0,0,0,0,0,0,0,0,0,0,0,0,0,0
DE,Germany,country,Europe and Central Asia,51.165691,10.451526,ZM,Zambia,country,Sub-Saharan Africa,-13.133897,27.849332,7354.12240550199,2003,4212,4159,0,0,33,0,0,0,0,0,0,0,0,13,0,1,0,0,6,0,0,0,0,0
GH,Ghana,country,Sub-Saharan Africa,7.946527,-1.023194,ZM,Zambia,country,Sub-Saharan Africa,-13.133897,27.849332,3962.03302093674,2003,3,0,3,0,0,0,0,0,0,0,0,0,0,0,0,0,0,0,0,0,0,0,0,0
IN,India,country,South Asia,20.593684,78.96288,ZM,Zambia,country,Sub-Saharan Africa,-13.133897,27.849332,6735.25115748534,2003,1667,1628,1,0,0,0,0,0,0,36,0,0,0,2,0,0,0,0,0,0,0,0,0,0
ID,Indonesia,country,East Asia and Pacific,-0.789275,113.921327,ZM,Zambia,country,Sub-Saharan Africa,-13.133897,27.849332,9572.9757814265,2003,0,0,0,0,0,0,0,0,0,0,0,0,0,0,0,0,0,0,0,0,0,0,0,0
IR,Iran,country,Middle East and North Africa,32.427908,53.688046,ZM,Zambia,country,Sub-Saharan Africa,-13.133897,27.849332,5769.98114377664,2003,18,5,0,10,0,0,0,1,0,0,0,0,0,2,0,0,0,0,0,0,0,0,0,0
IE,Ireland,country,Europe and Central Asia,53.41291,-8.24389,ZM,Zambia,country,Sub-Saharan Africa,-13.133897,27.849332,8164.86582817381,2003,148,0,0,0,0,0,0,0,0,0,0,0,0,36,0,0,0,0,112,0,0,0,0,0
IL,Israel,country,Middle East and North Africa,31.046051,34.851612,ZM,Zambia,country,Sub-Saharan Africa,-13.133897,27.849332,4974.78442666163,2003,4,0,0,0,0,0,0,0,0,0,0,0,0,4,0,0,0,0,0,0,0,0,0,0
IT,Italy,country,Europe and Central Asia,41.87194,12.56738,ZM,Zambia,country,Sub-Saharan Africa,-13.133897,27.849332,6320.74811651351,2003,1991,13,0,0,1388,0,0,9,0,0,0,0,0,45,534,1,0,1,0,0,0,0,0,0
JP,Japan,country,East Asia and Pacific,36.204824,138.252924,ZM,Zambia,country,Sub-Saharan Africa,-13.133897,27.849332,12700.4500723335,2003,24,10,0,0,0,0,0,0,0,0,0,0,0,14,0,0,0,0,0,0,0,0,0,0
KE,Kenya,country,Sub-Saharan Africa,-0.023559,37.906193,ZM,Zambia,country,Sub-Saharan Africa,-13.133897,27.849332,1833.3509015412,2003,12086,0,0,43,0,0,0,77,2,0,1,0,13,138,11697,1,0,0,114,0,0,0,0,0
LB,Lebanon,country,Middle East and North Africa,33.854721,35.862285,ZM,Zambia,country,Sub-Saharan Africa,-13.133897,27.849332,5299.28038121679,2003,1,0,0,0,0,0,0,0,0,0,0,0,0,1,0,0,0,0,0,0,0,0,0,0
MW,Malawi,country,Sub-Saharan Africa,-13.254308,34.301525,ZM,Zambia,country,Sub-Saharan Africa,-13.133897,27.849332,699.403670001861,2003,5657,384,0,345,32,0,2743,12,0,1882,0,10,12,224,4,9,0,0,0,0,0,0,0,0
MY,Malaysia,country,East Asia and Pacific,4.210484,101.975766,ZM,Zambia,country,Sub-Saharan Africa,-13.133897,27.849332,8413.98335273202,2003,7,0,0,0,0,0,0,0,0,0,0,0,0,0,7,0,0,0,0,0,0,0,0,0
ML,Mali,country,Sub-Saharan Africa,17.570692,-3.996166,ZM,Zambia,country,Sub-Saharan Africa,-13.133897,27.849332,4891.42380765327,2003,90,0,0,0,0,0,0,0,0,0,0,0,0,0,90,0,0,0,0,0,0,0,0,0
MU,Mauritius,country,Sub-Saharan Africa,-20.348404,57.552152,ZM,Zambia,country,Sub-Saharan Africa,-13.133897,27.849332,3261.10289601563,2003,1347,810,0,3,0,0,0,0,0,0,0,0,0,0,534,0,0,0,0,0,0,0,0,0
MX,Mexico,country,Latin America and the Caribbean,23.634501,-102.552784,ZM,Zambia,country,Sub-Saharan Africa,-13.133897,27.849332,14696.0188610899,2003,6133,6133,0,0,0,0,0,0,0,0,0,0,0,0,0,0,0,0,0,0,0,0,0,0
MA,Morocco,country,Middle East and North Africa,31.791702,-7.09262,ZM,Zambia,country,Sub-Saharan Africa,-13.133897,27.849332,6236.83057938713,2003,30,0,0,0,0,0,0,0,0,0,0,0,0,0,30,0,0,0,0,0,0,0,0,0
MZ,Mozambique,country,Sub-Saharan Africa,-18.665695,35.529562,ZM,Zambia,country,Sub-Saharan Africa,-13.133897,27.849332,1026.92365582414,2003,11992,10355,0,0,1219,0,0,0,22,115,0,0,0,0,275,6,0,0,0,0,0,0,0,0
NA,Namibia,country,Sub-Saharan Africa,-22.95764,18.49041,ZM,Zambia,country,Sub-Saharan Africa,-13.133897,27.849332,1474.37210907105,2003,964,0,0,0,0,0,0,0,39,0,0,264,0,248,0,393,0,20,0,0,0,0,0,0
NL,Netherlands,country,Europe and Central Asia,52.132633,5.291266,ZM,Zambia,country,Sub-Saharan Africa,-13.133897,27.849332,7583.09391857494,2003,18,0,0,0,0,0,0,0,0,0,0,0,0,2,0,0,31,0,16,0,0,0,0,0
NZ,New Zealand,country,East Asia and Pacific,-40.900557,174.885971,ZM,Zambia,country,Sub-Saharan Africa,-13.133897,27.849332,13130.8804829829,2003,32,0,0,0,0,0,0,0,0,0,0,0,0,0,0,0,0,0,32,0,0,0,0,0
NE,Niger,country,Sub-Saharan Africa,17.607789,8.081666,ZM,Zambia,country,Sub-Saharan Africa,-13.133897,27.849332,4053.2262801908,2003,0,0,0,0,0,0,0,0,0,0,0,0,0,0,0,0,64,0,0,0,0,0,0,0
NG,Nigeria,country,Sub-Saharan Africa,9.081999,8.675277,ZM,Zambia,country,Sub-Saharan Africa,-13.133897,27.849332,3257.09609691041,2003,1,0,1,0,0,0,0,0,0,0,0,0,0,0,0,0,0,0,0,0,0,0,0,0
OM,Oman,country,Middle East and North Africa,21.512583,55.923255,ZM,Zambia,country,Sub-Saharan Africa,-13.133897,27.849332,4927.94866432211,2003,100,0,0,0,0,0,0,0,0,0,0,0,0,0,100,0,0,0,0,0,0,0,0,0
PK,Pakistan,country,South Asia,30.375321,69.345116,ZM,Zambia,country,Sub-Saharan Africa,-13.133897,27.849332,6572.69926036925,2003,1420,1414,0,5,0,0,0,0,1,0,0,0,0,0,0,0,0,0,0,0,0,0,0,0
PH,Philippines,country,East Asia and Pacific,12.879721,121.774017,ZM,Zambia,country,Sub-Saharan Africa,-13.133897,27.849332,10757.8977963578,2003,2,0,0,0,0,0,0,0,0,0,0,0,0,0,2,0,0,0,0,0,0,0,0,0
PT,Portugal,country,Europe and Central Asia,39.399872,-8.224454,ZM,Zambia,country,Sub-Saharan Africa,-13.133897,27.849332,6941.23423861886,2003,36,8,0,0,0,0,0,15,0,0,0,0,0,7,0,0,0,5,1,0,0,0,0,0
KR,"Korea, Rep.",country,East Asia and Pacific,35.907757,127.766922,ZM,Zambia,country,Sub-Saharan Africa,-13.133897,27.849332,11756.6423994374,2003,71,0,0,0,0,0,0,0,5,0,0,0,0,66,0,0,0,0,0,0,0,0,0,0
SA,Saudi Arabia,country,Middle East and North Africa,23.885942,45.079162,ZM,Zambia,country,Sub-Saharan Africa,-13.133897,27.849332,4527.43730910196,2003,212,207,0,1,3,0,0,0,0,0,0,0,0,1,0,0,0,0,0,0,0,0,0,0
SN,Senegal,country,Sub-Saharan Africa,14.497401,-14.452362,ZM,Zambia,country,Sub-Saharan Africa,-13.133897,27.849332,5585.43727115701,2003,0,0,0,0,0,0,0,0,0,0,0,0,0,0,0,0,0,0,0,0,0,0,0,0
SL,Sierra Leone,country,Sub-Saharan Africa,8.460555,-11.779889,ZM,Zambia,country,Sub-Saharan Africa,-13.133897,27.849332,4997.27491989692,2003,0,0,0,0,0,0,0,0,0,0,0,0,0,0,0,0,0,0,0,0,0,0,0,0
SG,Singapore,country,East Asia and Pacific,1.352083,103.819836,ZM,Zambia,country,Sub-Saharan Africa,-13.133897,27.849332,8534.25335039472,2003,158,0,0,0,0,0,0,0,0,0,0,0,0,0,131,0,0,0,27,0,0,0,0,0
ZA,S. Africa,country,Sub-Saharan Africa,-30.559482,22.937506,ZM,Zambia,country,Sub-Saharan Africa,-13.133897,27.849332,2004.35693335058,2003,239326,192100,1170,642,6540,17,35,6454,2823,296,154,1633,368,1182,24468,523,33,49,872,0,0,0,0,0
LK,Sri Lanka,country,South Asia,7.873054,80.771797,ZM,Zambia,country,Sub-Saharan Africa,-13.133897,27.849332,6300.80386166965,2003,162,0,0,0,0,0,0,0,0,162,0,0,0,0,0,0,0,0,0,0,0,0,0,0
SZ,Swaziland,country,Sub-Saharan Africa,-26.522503,31.465866,ZM,Zambia,country,Sub-Saharan Africa,-13.133897,27.849332,1537.48062054905,2003,228,0,0,0,0,0,0,0,0,0,0,0,0,227,0,1,0,0,0,0,0,0,0,0
CH,Switzerland,country,Europe and Central Asia,46.818188,8.227512,ZM,Zambia,country,Sub-Saharan Africa,-13.133897,27.849332,6955.47998591888,2003,143,30,0,0,0,0,0,0,0,90,0,13,0,0,0,0,0,0,10,0,0,0,0,0
TH,Thailand,country,East Asia and Pacific,15.870032,100.992541,ZM,Zambia,country,Sub-Saharan Africa,-13.133897,27.849332,8672.59596256128,2003,939,939,0,0,0,0,0,0,0,0,0,0,0,0,0,0,0,0,0,0,0,0,0,0
TR,Turkey,country,Europe and Central Asia,38.963745,35.243322,ZM,Zambia,country,Sub-Saharan Africa,-13.133897,27.849332,5850.22166962268,2003,0,0,0,0,0,0,0,0,0,0,0,0,0,0,0,0,0,0,0,0,0,0,0,0
UG,Uganda,country,Sub-Saharan Africa,1.373333,32.290275,ZM,Zambia,country,Sub-Saharan Africa,-13.133897,27.849332,1687.75501386645,2003,1,0,0,0,0,0,0,0,0,0,0,0,0,1,0,0,0,0,0,0,0,0,0,0
AE,United Arab Emirates,country,Middle East and North Africa,23.424076,53.847818,ZM,Zambia,country,Sub-Saharan Africa,-13.133897,27.849332,4957.55299314407,2003,265,207,1,2,15,0,0,2,5,1,1,0,0,23,2,6,0,0,0,0,0,0,0,0
GB,United Kingdom,country,Europe and Central Asia,55.378051,-3.435973,ZM,Zambia,country,Sub-Saharan Africa,-13.133897,27.849332,8169.75209834775,2003,488,10,1,2,430,0,0,14,1,0,0,0,0,9,3,14,38,0,4,0,0,0,0,0
TZ,Tanzania,country,Sub-Saharan Africa,-6.369028,34.888822,ZM,Zambia,country,Sub-Saharan Africa,-13.133897,27.849332,1078.32691907493,2003,17879,16164,655,0,784,0,0,6,0,0,0,80,11,55,116,8,0,0,0,0,0,0,0,0
US,USA,country,North America,37.09024,-95.712891,ZM,Zambia,country,Sub-Saharan Africa,-13.133897,27.849332,13859.9541895252,2003,20128,18268,0,0,1707,0,0,75,0,0,0,0,0,78,0,0,0,0,0,0,0,0,0,0
UY,Uruguay,country,Latin America and the Caribbean,-32.522779,-55.765835,ZM,Zambia,country,Sub-Saharan Africa,-13.133897,27.849332,8646.59597100282,2003,7,0,0,0,0,0,0,0,0,0,0,0,0,0,7,0,0,0,0,0,0,0,0,0
WF,Wallis and Futuna,country,East Asia and Pacific,-13.768752,-177.156097,ZM,Zambia,country,Sub-Saharan Africa,-13.133897,27.849332,15966.444194402,2003,10,0,0,0,0,0,0,0,10,0,0,0,0,0,0,0,0,0,0,0,0,0,0,0
YE,Yemen,country,Middle East and North Africa,15.552727,48.516388,ZM,Zambia,country,Sub-Saharan Africa,-13.133897,27.849332,3921.33825936378,2003,20,0,0,0,0,0,0,4,16,0,0,0,0,0,0,0,0,0,0,0,0,0,0,0
ZW,Zimbabwe,country,Sub-Saharan Africa,-19.015438,29.154857,ZM,Zambia,country,Sub-Saharan Africa,-13.133897,27.849332,669.441354107776,2003,31725,6922,3199,3294,274,1,36,757,11844,0,52,2623,195,982,1489,23,35,0,34,0,0,0,0,0
AR,Argentina,country,Latin America and the Caribbean,-38.416097,-63.616672,ZM,Zambia,country,Sub-Saharan Africa,-13.133897,27.849332,9240.7933685698,2004,221,181,0,15,0,0,0,0,0,0,0,0,0,0,25,0,0,0,0,0,0,0,0,0
AU,Australia,country,East Asia and Pacific,-25.274398,133.775136,ZM,Zambia,country,Sub-Saharan Africa,-13.133897,27.849332,10944.403072079,2004,32,0,0,0,0,0,0,0,0,0,0,0,0,0,0,0,0,0,32,0,0,0,0,0
BD,Bangladesh,country,South Asia,23.684994,90.356331,ZM,Zambia,country,Sub-Saharan Africa,-13.133897,27.849332,7938.39496856878,2004,28,0,0,0,0,0,0,0,0,28,0,0,0,0,0,0,0,0,0,0,0,0,0,0
BE,Belgium,country,Europe and Central Asia,50.503887,4.469936,ZM,Zambia,country,Sub-Saharan Africa,-13.133897,27.849332,7441.3519643069,2004,42,2,0,0,0,0,0,0,0,0,0,0,0,13,0,0,0,0,27,0,0,0,0,0
BW,Botswana,country,Sub-Saharan Africa,-22.328474,24.684866,ZM,Zambia,country,Sub-Saharan Africa,-13.133897,27.849332,1076.98127900816,2004,58,5,2,0,0,0,0,0,0,0,0,34,0,17,0,0,0,0,0,0,0,0,0,0
CA,Canada,country,North America,56.130366,-106.346771,ZM,Zambia,country,Sub-Saharan Africa,-13.133897,27.849332,13863.9705612056,2004,284,103,3,2,88,0,0,1,16,0,0,0,0,64,7,0,0,0,0,0,0,0,0,0
HK,Hong Kong,country,East Asia and Pacific,22.396428,114.109497,ZM,Zambia,country,Sub-Saharan Africa,-13.133897,27.849332,10196.3954516003,2004,38,0,0,0,0,0,0,24,0,0,0,0,0,6,8,0,0,0,0,0,0,0,0,0
CN,China,country,East Asia and Pacific,35.86166,104.195397,ZM,Zambia,country,Sub-Saharan Africa,-13.133897,27.849332,9679.35671965299,2004,91,16,0,0,0,0,1,28,0,0,1,1,0,22,1,0,0,0,0,21,0,0,0,0
TW,Taiwan,country,East Asia and Pacific,23.69781,120.960515,ZM,Zambia,country,Sub-Saharan Africa,-13.133897,27.849332,10912.851209361,2004,0,0,0,0,0,0,0,0,0,0,0,0,0,0,0,0,0,0,0,0,0,0,0,0
CR,Costa Rica,country,Latin America and the Caribbean,9.748917,-83.753428,ZM,Zambia,country,Sub-Saharan Africa,-13.133897,27.849332,12586.7719724039,2004,15,0,0,0,0,0,15,0,0,0,0,0,0,0,0,0,0,0,0,0,0,0,0,0
CI,Ivory Coast,country,Sub-Saharan Africa,7.539989,-5.54708,ZM,Zambia,country,Sub-Saharan Africa,-13.133897,27.849332,4351.06980518422,2004,0,0,0,0,0,0,0,0,0,0,0,0,0,0,0,0,0,0,0,0,0,0,0,0
CD,"Congo, Dem. Rep.",country,Sub-Saharan Africa,-4.038333,21.758664,ZM,Zambia,country,Sub-Saharan Africa,-13.133897,27.849332,1213.92603506878,2004,55,1,0,0,0,0,0,0,0,0,0,0,54,0,0,0,0,0,0,0,0,0,0,0
DK,Denmark,country,Europe and Central Asia,56.26392,9.501785,ZM,Zambia,country,Sub-Saharan Africa,-13.133897,27.849332,7911.6737333496,2004,1,0,0,0,0,0,0,0,0,0,0,0,0,1,0,0,0,0,0,0,0,0,0,0
EG,Egypt,country,Middle East and North Africa,26.820553,30.802498,ZM,Zambia,country,Sub-Saharan Africa,-13.133897,27.849332,4459.15986524503,2004,247,14,9,1,0,1,0,0,13,0,0,0,10,17,182,0,0,0,0,0,0,0,0,0
ET,Ethiopia,country,Sub-Saharan Africa,9.145,40.489673,ZM,Zambia,country,Sub-Saharan Africa,-13.133897,27.849332,2846.62091884731,2004,0,0,0,0,0,0,0,0,0,0,0,0,0,0,0,0,0,0,0,0,0,0,0,0
FR,France,country,Europe and Central Asia,46.227638,2.213749,ZM,Zambia,country,Sub-Saharan Africa,-13.133897,27.849332,7089.40260178498,2004,17,4,0,0,0,0,0,0,0,0,0,0,0,13,0,0,0,0,0,0,0,0,0,0
DE,Germany,country,Europe and Central Asia,51.165691,10.451526,ZM,Zambia,country,Sub-Saharan Africa,-13.133897,27.849332,7354.12240550199,2004,7140,7038,0,0,0,0,0,0,0,0,1,0,2,1,0,0,39,0,98,0,0,0,0,0
GH,Ghana,country,Sub-Saharan Africa,7.946527,-1.023194,ZM,Zambia,country,Sub-Saharan Africa,-13.133897,27.849332,3962.03302093674,2004,2,0,1,0,0,0,0,1,0,0,0,0,0,0,0,0,0,0,0,0,0,0,0,0
IN,India,country,South Asia,20.593684,78.96288,ZM,Zambia,country,Sub-Saharan Africa,-13.133897,27.849332,6735.25115748534,2004,333,312,0,4,2,0,0,0,0,1,6,0,0,6,0,0,0,0,2,0,0,0,0,0
ID,Indonesia,country,East Asia and Pacific,-0.789275,113.921327,ZM,Zambia,country,Sub-Saharan Africa,-13.133897,27.849332,9572.9757814265,2004,24,0,0,0,0,0,0,0,0,0,0,0,3,1,20,0,0,0,0,0,0,0,0,0
IE,Ireland,country,Europe and Central Asia,53.41291,-8.24389,ZM,Zambia,country,Sub-Saharan Africa,-13.133897,27.849332,8164.86582817381,2004,2,0,0,0,0,0,0,0,0,0,0,0,0,1,0,0,0,0,1,0,0,0,0,0
IL,Israel,country,Middle East and North Africa,31.046051,34.851612,ZM,Zambia,country,Sub-Saharan Africa,-13.133897,27.849332,4974.78442666163,2004,37,0,0,0,0,0,0,0,0,0,0,0,0,37,0,0,0,0,0,0,0,0,0,0
IT,Italy,country,Europe and Central Asia,41.87194,12.56738,ZM,Zambia,country,Sub-Saharan Africa,-13.133897,27.849332,6320.74811651351,2004,129,103,0,0,0,0,1,3,0,0,0,0,0,16,1,4,0,1,0,0,0,0,0,0
JP,Japan,country,East Asia and Pacific,36.204824,138.252924,ZM,Zambia,country,Sub-Saharan Africa,-13.133897,27.849332,12700.4500723335,2004,2,0,0,0,0,0,0,2,0,0,0,0,0,0,0,0,0,0,0,0,0,0,0,0
KE,Kenya,country,Sub-Saharan Africa,-0.023559,37.906193,ZM,Zambia,country,Sub-Saharan Africa,-13.133897,27.849332,1833.3509015412,2004,16137,0,0,183,0,0,750,12,0,0,0,0,67,247,14872,6,0,0,0,0,0,0,0,0
KW,Kuwait,country,Middle East and North Africa,29.31166,47.481766,ZM,Zambia,country,Sub-Saharan Africa,-13.133897,27.849332,5174.5932464296,2004,30,30,0,0,0,0,0,0,0,0,0,0,0,0,0,0,0,0,0,0,0,0,0,0
LB,Lebanon,country,Middle East and North Africa,33.854721,35.862285,ZM,Zambia,country,Sub-Saharan Africa,-13.133897,27.849332,5299.28038121679,2004,6,0,0,0,0,0,1,0,0,0,0,0,0,2,1,2,0,0,0,0,0,0,0,0
MW,Malawi,country,Sub-Saharan Africa,-13.254308,34.301525,ZM,Zambia,country,Sub-Saharan Africa,-13.133897,27.849332,699.403670001861,2004,3153,413,0,97,8,0,326,0,4,1617,0,46,43,586,0,13,0,0,0,0,0,0,0,0
MY,Malaysia,country,East Asia and Pacific,4.210484,101.975766,ZM,Zambia,country,Sub-Saharan Africa,-13.133897,27.849332,8413.98335273202,2004,69,35,0,0,0,0,0,0,0,0,0,0,0,0,24,10,0,0,0,0,0,0,0,0
ML,Mali,country,Sub-Saharan Africa,17.570692,-3.996166,ZM,Zambia,country,Sub-Saharan Africa,-13.133897,27.849332,4891.42380765327,2004,0,0,0,0,0,0,0,0,0,0,0,0,0,0,0,0,0,0,0,0,0,0,0,0
MU,Mauritius,country,Sub-Saharan Africa,-20.348404,57.552152,ZM,Zambia,country,Sub-Saharan Africa,-13.133897,27.849332,3261.10289601563,2004,1014,914,0,0,0,0,0,0,0,0,0,0,0,0,52,20,0,0,28,0,0,0,0,0
MN,Mongolia,country,East Asia and Pacific,46.862496,103.846656,ZM,Zambia,country,Sub-Saharan Africa,-13.133897,27.849332,10048.6906094135,2004,0,0,0,0,0,0,0,0,0,0,0,0,0,0,0,0,0,0,0,0,0,0,0,0
MZ,Mozambique,country,Sub-Saharan Africa,-18.665695,35.529562,ZM,Zambia,country,Sub-Saharan Africa,-13.133897,27.849332,1026.92365582414,2004,464,0,0,0,80,0,0,0,0,43,0,0,0,100,238,3,0,0,0,0,0,0,0,0
NA,Namibia,country,Sub-Saharan Africa,-22.95764,18.49041,ZM,Zambia,country,Sub-Saharan Africa,-13.133897,27.849332,1474.37210907105,2004,1275,0,0,0,0,0,0,0,5,0,0,306,0,0,0,964,0,0,0,0,0,0,0,0
NL,Netherlands,country,Europe and Central Asia,52.132633,5.291266,ZM,Zambia,country,Sub-Saharan Africa,-13.133897,27.849332,7583.09391857494,2004,69,0,16,0,0,0,0,0,0,0,0,0,0,4,0,0,69,0,49,0,0,0,0,0
NZ,New Zealand,country,East Asia and Pacific,-40.900557,174.885971,ZM,Zambia,country,Sub-Saharan Africa,-13.133897,27.849332,13130.8804829829,2004,302,0,0,0,0,0,0,0,0,0,0,0,0,0,0,0,0,0,302,0,0,0,0,0
NG,Nigeria,country,Sub-Saharan Africa,9.081999,8.675277,ZM,Zambia,country,Sub-Saharan Africa,-13.133897,27.849332,3257.09609691041,2004,0,0,0,0,0,0,0,0,0,0,0,0,0,0,0,0,0,0,0,0,0,0,0,0
OM,Oman,country,Middle East and North Africa,21.512583,55.923255,ZM,Zambia,country,Sub-Saharan Africa,-13.133897,27.849332,4927.94866432211,2004,70,0,0,0,0,0,0,0,0,0,0,0,0,1,58,0,0,0,11,0,0,0,0,0
PK,Pakistan,country,South Asia,30.375321,69.345116,ZM,Zambia,country,Sub-Saharan Africa,-13.133897,27.849332,6572.69926036925,2004,325,290,0,35,0,0,0,0,0,0,0,0,0,0,0,0,0,0,0,0,0,0,0,0
PH,Philippines,country,East Asia and Pacific,12.879721,121.774017,ZM,Zambia,country,Sub-Saharan Africa,-13.133897,27.849332,10757.8977963578,2004,1,0,0,0,0,0,0,0,0,0,0,0,0,0,1,0,0,0,0,0,0,0,0,0
KR,"Korea, Rep.",country,East Asia and Pacific,35.907757,127.766922,ZM,Zambia,country,Sub-Saharan Africa,-13.133897,27.849332,11756.6423994374,2004,3,0,0,0,0,0,0,0,0,0,0,0,0,3,0,0,0,0,0,0,0,0,0,0
SA,Saudi Arabia,country,Middle East and North Africa,23.885942,45.079162,ZM,Zambia,country,Sub-Saharan Africa,-13.133897,27.849332,4527.43730910196,2004,1,0,0,0,0,0,0,0,1,0,0,0,0,0,0,0,0,0,0,0,0,0,0,0
SG,Singapore,country,East Asia and Pacific,1.352083,103.819836,ZM,Zambia,country,Sub-Saharan Africa,-13.133897,27.849332,8534.25335039472,2004,76,0,0,0,0,0,0,0,0,0,0,0,0,0,76,0,0,0,0,0,0,0,0,0
ZA,S. Africa,country,Sub-Saharan Africa,-30.559482,22.937506,ZM,Zambia,country,Sub-Saharan Africa,-13.133897,27.849332,2004.35693335058,2004,149209,94995,1622,591,2103,19,584,2083,4994,358,215,3885,545,1740,33682,506,14,51,1236,0,0,0,0,0
ES,Spain,country,Europe and Central Asia,40.463667,-3.74922,ZM,Zambia,country,Sub-Saharan Africa,-13.133897,27.849332,6799.26996912012,2004,7,0,0,0,0,0,0,0,0,0,0,0,0,7,0,0,0,0,0,0,0,0,0,0
LK,Sri Lanka,country,South Asia,7.873054,80.771797,ZM,Zambia,country,Sub-Saharan Africa,-13.133897,27.849332,6300.80386166965,2004,2,0,0,0,0,0,0,0,0,0,0,0,2,0,0,0,0,0,0,0,0,0,0,0
SD,Sudan,country,Sub-Saharan Africa,12.862807,30.217636,ZM,Zambia,country,Sub-Saharan Africa,-13.133897,27.849332,2905.71782961382,2004,43,0,0,0,0,0,0,0,43,0,0,0,0,0,0,0,0,0,0,0,0,0,0,0
SZ,Swaziland,country,Sub-Saharan Africa,-26.522503,31.465866,ZM,Zambia,country,Sub-Saharan Africa,-13.133897,27.849332,1537.48062054905,2004,17,0,0,0,0,0,0,0,0,0,0,0,0,17,0,0,0,0,0,0,0,0,0,0
CH,Switzerland,country,Europe and Central Asia,46.818188,8.227512,ZM,Zambia,country,Sub-Saharan Africa,-13.133897,27.849332,6955.47998591888,2004,289,0,0,0,0,0,0,0,0,96,0,6,0,2,0,3,0,0,182,0,0,0,0,0
TH,Thailand,country,East Asia and Pacific,15.870032,100.992541,ZM,Zambia,country,Sub-Saharan Africa,-13.133897,27.849332,8672.59596256128,2004,393,307,0,86,0,0,0,0,0,0,0,0,0,0,0,0,0,0,0,0,0,0,0,0
UG,Uganda,country,Sub-Saharan Africa,1.373333,32.290275,ZM,Zambia,country,Sub-Saharan Africa,-13.133897,27.849332,1687.75501386645,2004,0,0,0,0,0,0,0,0,0,0,0,0,0,0,0,0,0,0,0,0,0,0,0,0
AE,United Arab Emirates,country,Middle East and North Africa,23.424076,53.847818,ZM,Zambia,country,Sub-Saharan Africa,-13.133897,27.849332,4957.55299314407,2004,1374,47,0,1224,0,0,0,0,51,25,0,0,1,26,0,0,0,0,0,0,0,0,0,0
GB,United Kingdom,country,Europe and Central Asia,55.378051,-3.435973,ZM,Zambia,country,Sub-Saharan Africa,-13.133897,27.849332,8169.75209834775,2004,217,14,0,3,104,1,0,12,5,0,0,0,3,16,48,4,35,0,7,0,0,0,0,0
TZ,Tanzania,country,Sub-Saharan Africa,-6.369028,34.888822,ZM,Zambia,country,Sub-Saharan Africa,-13.133897,27.849332,1078.32691907493,2004,3113,81,1352,9,1610,0,0,5,0,1,0,0,4,5,45,1,0,0,0,0,0,0,0,0
US,USA,country,North America,37.09024,-95.712891,ZM,Zambia,country,Sub-Saharan Africa,-13.133897,27.849332,13859.9541895252,2004,2442,1987,0,0,0,0,0,0,0,0,0,344,0,2,0,0,9,0,109,0,0,0,0,0
UY,Uruguay,country,Latin America and the Caribbean,-32.522779,-55.765835,ZM,Zambia,country,Sub-Saharan Africa,-13.133897,27.849332,8646.59597100282,2004,110,0,0,0,0,0,0,0,0,0,0,0,0,0,110,0,0,0,0,0,0,0,0,0
VN,Vietnam,country,East Asia and Pacific,14.058324,108.277199,ZM,Zambia,country,Sub-Saharan Africa,-13.133897,27.849332,9367.73448869186,2004,0,0,0,0,0,0,0,0,0,0,0,0,0,0,0,0,0,0,0,0,0,0,0,0
ZW,Zimbabwe,country,Sub-Saharan Africa,-19.015438,29.154857,ZM,Zambia,country,Sub-Saharan Africa,-13.133897,27.849332,669.441354107776,2004,27896,7124,2024,283,273,1,23,220,13245,1435,25,633,298,574,1594,16,0,0,128,0,0,0,0,0
AO,Angola,country,Sub-Saharan Africa,-11.202692,17.873887,ZM,Zambia,country,Sub-Saharan Africa,-13.133897,27.849332,1106.47820019251,2005,0,0,0,0,0,0,0,0,0,0,0,0,0,0,0,0,0,0,0,0,0,0,0,0
AR,Argentina,country,Latin America and the Caribbean,-38.416097,-63.616672,ZM,Zambia,country,Sub-Saharan Africa,-13.133897,27.849332,9240.7933685698,2005,143,91,0,0,0,0,0,0,0,0,0,0,0,0,0,0,0,52,0,0,0,0,0,0
AU,Australia,country,East Asia and Pacific,-25.274398,133.775136,ZM,Zambia,country,Sub-Saharan Africa,-13.133897,27.849332,10944.403072079,2005,30,0,0,0,0,0,0,0,0,0,0,0,0,0,0,30,0,0,0,0,0,0,0,0
AT,Austria,country,Europe and Central Asia,47.516231,14.550072,ZM,Zambia,country,Sub-Saharan Africa,-13.133897,27.849332,6879.89272701395,2005,0,0,0,0,0,0,0,0,0,0,0,0,0,0,0,0,0,0,0,0,0,0,0,0
BE,Belgium,country,Europe and Central Asia,50.503887,4.469936,ZM,Zambia,country,Sub-Saharan Africa,-13.133897,27.849332,7441.3519643069,2005,72,1,0,24,0,0,0,6,0,0,0,0,0,2,0,0,0,0,39,0,0,0,0,0
BW,Botswana,country,Sub-Saharan Africa,-22.328474,24.684866,ZM,Zambia,country,Sub-Saharan Africa,-13.133897,27.849332,1076.98127900816,2005,1175,164,0,4,0,0,0,0,0,0,0,29,0,8,8,962,0,0,0,0,0,0,0,0
BR,Brazil,country,Latin America and the Caribbean,-14.235004,-51.92528,ZM,Zambia,country,Sub-Saharan Africa,-13.133897,27.849332,8581.46282774675,2005,96,26,0,0,0,0,0,0,0,0,0,0,0,0,0,0,0,63,7,0,0,0,0,0
CA,Canada,country,North America,56.130366,-106.346771,ZM,Zambia,country,Sub-Saharan Africa,-13.133897,27.849332,13863.9705612056,2005,630,7,0,0,614,0,0,0,0,0,0,0,0,7,2,0,0,0,0,0,0,0,0,0
CL,Chile,country,Latin America and the Caribbean,-35.675147,-71.542969,ZM,Zambia,country,Sub-Saharan Africa,-13.133897,27.849332,9996.96425203702,2005,56,0,0,56,0,0,0,0,0,0,0,0,0,0,0,0,0,0,0,0,0,0,0,0
HK,Hong Kong,country,East Asia and Pacific,22.396428,114.109497,ZM,Zambia,country,Sub-Saharan Africa,-13.133897,27.849332,10196.3954516003,2005,5,4,0,0,0,0,0,0,0,0,0,0,0,1,0,0,0,0,0,0,0,0,0,0
CN,China,country,East Asia and Pacific,35.86166,104.195397,ZM,Zambia,country,Sub-Saharan Africa,-13.133897,27.849332,9679.35671965299,2005,42,8,0,0,0,1,0,4,0,0,0,0,0,28,0,1,0,0,0,0,0,0,0,0
TW,Taiwan,country,East Asia and Pacific,23.69781,120.960515,ZM,Zambia,country,Sub-Saharan Africa,-13.133897,27.849332,10912.851209361,2005,18,0,0,0,0,0,0,0,0,0,0,0,0,0,18,0,0,0,0,0,0,0,0,0
CR,Costa Rica,country,Latin America and the Caribbean,9.748917,-83.753428,ZM,Zambia,country,Sub-Saharan Africa,-13.133897,27.849332,12586.7719724039,2005,0,0,0,0,0,0,0,0,0,0,0,0,0,0,0,0,0,0,0,0,0,0,0,0
CD,"Congo, Dem. Rep.",country,Sub-Saharan Africa,-4.038333,21.758664,ZM,Zambia,country,Sub-Saharan Africa,-13.133897,27.849332,1213.92603506878,2005,212,210,0,2,0,0,0,0,0,0,0,0,0,0,0,0,0,0,0,0,0,0,0,0
DK,Denmark,country,Europe and Central Asia,56.26392,9.501785,ZM,Zambia,country,Sub-Saharan Africa,-13.133897,27.849332,7911.6737333496,2005,0,0,0,0,0,0,0,0,0,0,0,0,0,0,0,0,0,0,0,0,0,0,0,0
EG,Egypt,country,Middle East and North Africa,26.820553,30.802498,ZM,Zambia,country,Sub-Saharan Africa,-13.133897,27.849332,4459.15986524503,2005,640,13,0,11,0,0,0,14,284,0,0,0,0,21,273,22,0,0,2,0,0,0,0,0
ET,Ethiopia,country,Sub-Saharan Africa,9.145,40.489673,ZM,Zambia,country,Sub-Saharan Africa,-13.133897,27.849332,2846.62091884731,2005,0,0,0,0,0,0,0,0,0,0,0,0,0,0,0,0,0,0,0,0,0,0,0,0
FI,Finland,country,Europe and Central Asia,61.92411,25.748151,ZM,Zambia,country,Sub-Saharan Africa,-13.133897,27.849332,8357.45332463293,2005,0,0,0,0,0,0,0,0,0,0,0,0,0,0,0,0,0,0,0,0,0,0,0,0
FR,France,country,Europe and Central Asia,46.227638,2.213749,ZM,Zambia,country,Sub-Saharan Africa,-13.133897,27.849332,7089.40260178498,2005,60,26,0,0,0,0,0,0,8,0,0,0,0,0,0,22,0,0,4,0,0,0,0,0
DE,Germany,country,Europe and Central Asia,51.165691,10.451526,ZM,Zambia,country,Sub-Saharan Africa,-13.133897,27.849332,7354.12240550199,2005,6941,6938,0,0,0,0,0,0,0,0,0,1,0,2,0,0,6,0,0,0,0,0,0,0
GH,Ghana,country,Sub-Saharan Africa,7.946527,-1.023194,ZM,Zambia,country,Sub-Saharan Africa,-13.133897,27.849332,3962.03302093674,2005,1,0,1,0,0,0,0,0,0,0,0,0,0,0,0,0,0,0,0,0,0,0,0,0
IN,India,country,South Asia,20.593684,78.96288,ZM,Zambia,country,Sub-Saharan Africa,-13.133897,27.849332,6735.25115748534,2005,78,28,0,2,0,0,0,1,2,7,6,0,0,29,0,0,0,0,3,0,0,0,0,0
ID,Indonesia,country,East Asia and Pacific,-0.789275,113.921327,ZM,Zambia,country,Sub-Saharan Africa,-13.133897,27.849332,9572.9757814265,2005,0,0,0,0,0,0,0,0,0,0,0,0,0,0,0,0,0,0,0,0,0,0,0,0
IE,Ireland,country,Europe and Central Asia,53.41291,-8.24389,ZM,Zambia,country,Sub-Saharan Africa,-13.133897,27.849332,8164.86582817381,2005,44,0,0,0,0,0,0,0,0,0,0,0,0,33,0,0,0,0,11,0,0,0,0,0
IL,Israel,country,Middle East and North Africa,31.046051,34.851612,ZM,Zambia,country,Sub-Saharan Africa,-13.133897,27.849332,4974.78442666163,2005,2,0,0,0,0,0,0,0,0,0,0,0,0,2,0,0,0,0,0,0,0,0,0,0
IT,Italy,country,Europe and Central Asia,41.87194,12.56738,ZM,Zambia,country,Sub-Saharan Africa,-13.133897,27.849332,6320.74811651351,2005,5246,3522,0,0,1679,0,0,0,0,0,0,0,0,22,10,11,0,1,1,0,0,0,0,0
JP,Japan,country,East Asia and Pacific,36.204824,138.252924,ZM,Zambia,country,Sub-Saharan Africa,-13.133897,27.849332,12700.4500723335,2005,8,0,0,0,0,0,0,0,0,0,0,0,0,8,0,0,0,0,0,0,0,0,0,0
KE,Kenya,country,Sub-Saharan Africa,-0.023559,37.906193,ZM,Zambia,country,Sub-Saharan Africa,-13.133897,27.849332,1833.3509015412,2005,10900,660,0,323,0,0,0,0,0,0,7,0,86,552,9272,0,2,0,0,0,0,0,0,0
