sourceCode,sourceName,sourceGrouping,sourceRegion,sourceLat,sourceLong,destCode,destName,destGrouping,destRegion,destLat,destLong,distance,year,totalTons,cereals,roots,sugarCrops,pulses,nuts,oilCrops,vegetables,fruits,fibers,spices,fodderCrops,coffeeTea,tobaccoRubber,oilsFats,beverages,livestock,animalMeats,animalProducts,animalHides,nimalOther,pesticides,fertilizers,machinery
DZ,Algeria,country,Middle East and North Africa,28.033886,1.659626,ID,Indonesia,country,East Asia and Pacific,-0.789275,113.921327,12237.0743292596,1986,101,0,0,0,0,0,0,0,101,0,0,0,0,0,0,0,0,0,0,0,0,0,0,0
AR,Argentina,country,Latin America and the Caribbean,-38.416097,-63.616672,ID,Indonesia,country,East Asia and Pacific,-0.789275,113.921327,15665.8943196608,1986,139478,139300,0,0,38,0,0,140,0,0,0,0,0,0,0,0,0,0,0,0,0,0,0,0
AU,Australia,country,East Asia and Pacific,-25.274398,133.775136,ID,Indonesia,country,East Asia and Pacific,-0.789275,113.921327,3461.30835308332,1986,768086,697677,22,256,136,0,17,982,161,16203,1421,34355,37,524,1352,401,53,155,14387,0,0,0,0,0
AT,Austria,country,Europe and Central Asia,47.516231,14.550072,ID,Indonesia,country,East Asia and Pacific,-0.789275,113.921327,10786.7582508511,1986,996,204,2,19,0,0,0,5,15,670,3,0,0,12,30,0,0,0,36,0,0,0,0,0
BE,Belgium,country,Europe and Central Asia,50.503887,4.469936,ID,Indonesia,country,East Asia and Pacific,-0.789275,113.921327,11449.2836918632,1986,1571,0,1,6,0,0,0,12,14,111,0,179,9,23,14,15,0,0,1187,0,0,0,0,0
BR,Brazil,country,Latin America and the Caribbean,-14.235004,-51.92528,ID,Indonesia,country,East Asia and Pacific,-0.789275,113.921327,17750.4246236607,1986,64142,0,0,0,0,0,0,0,185,3094,0,60054,0,777,32,0,0,0,0,0,0,0,0,0
BN,Brunei Darussalam,country,,4.535277,114.727669,ID,Indonesia,country,East Asia and Pacific,-0.789275,113.921327,599.472541609892,1986,1100,0,0,0,0,0,1100,0,0,0,0,0,0,0,0,0,0,0,0,0,0,0,0,0
BG,Bulgaria,country,Europe and Central Asia,42.733883,25.48583,ID,Indonesia,country,East Asia and Pacific,-0.789275,113.921327,9950.47882303328,1986,0,0,0,0,0,0,0,0,0,0,0,0,0,0,0,0,0,0,0,0,0,0,0,0
KH,Cambodia,country,East Asia and Pacific,12.565679,104.990963,ID,Indonesia,country,East Asia and Pacific,-0.789275,113.921327,1784.22601087891,1986,20,20,0,0,0,0,0,0,0,0,0,0,0,0,0,0,0,0,0,0,0,0,0,0
CA,Canada,country,North America,56.130366,-106.346771,ID,Indonesia,country,East Asia and Pacific,-0.789275,113.921327,12900.7589703636,1986,249739,214324,0,0,205,0,48,90,36,39,0,34652,0,0,126,0,175,0,219,0,0,0,0,0
CF,Central African Rep.,country,Sub-Saharan Africa,6.611111,20.939444,ID,Indonesia,country,East Asia and Pacific,-0.789275,113.921327,10358.5844479579,1986,110,0,0,0,0,0,0,0,0,110,0,0,0,0,0,0,0,0,0,0,0,0,0,0
CL,Chile,country,Latin America and the Caribbean,-35.675147,-71.542969,ID,Indonesia,country,East Asia and Pacific,-0.789275,113.921327,15938.8600047203,1986,532,0,0,0,0,0,0,189,0,0,0,300,0,43,0,0,0,0,0,0,0,0,0,0
HK,Hong Kong,country,East Asia and Pacific,22.396428,114.109497,ID,Indonesia,country,East Asia and Pacific,-0.789275,113.921327,2581.10141824003,1986,9160,201,4,32,78,0,79,686,428,3634,50,2483,27,734,43,279,34,236,166,0,0,0,0,0
CN,China,country,East Asia and Pacific,35.86166,104.195397,ID,Indonesia,country,East Asia and Pacific,-0.789275,113.921327,4202.82765587934,1986,507152,6337,9,165,8125,0,331380,11231,347,65119,3620,75051,106,5446,127,21,0,55,13,0,0,0,0,0
TW,Taiwan,country,East Asia and Pacific,23.69781,120.960515,ID,Indonesia,country,East Asia and Pacific,-0.789275,113.921327,2830.21682941926,1986,23220,4473,0,2224,1298,0,337,1562,459,481,123,10879,16,945,320,48,269,12,43,0,0,0,0,0
CI,Ivory Coast,country,Sub-Saharan Africa,7.539989,-5.54708,ID,Indonesia,country,East Asia and Pacific,-0.789275,113.921327,13280.9184302216,1986,2480,0,0,0,0,0,0,0,0,2480,0,0,0,0,0,0,0,0,0,0,0,0,0,0
CZ,Czech Republic,country,Europe and Central Asia,49.817492,15.472962,ID,Indonesia,country,East Asia and Pacific,-0.789275,113.921327,10691.6844305351,1986,20,0,0,0,0,0,0,0,0,20,0,0,0,0,0,0,0,0,0,0,0,0,0,0
KP,"Korea, Dem. Rep.",country,East Asia and Pacific,40.339852,127.510093,ID,Indonesia,country,East Asia and Pacific,-0.789275,113.921327,4781.67904222699,1986,88,0,0,0,0,0,0,0,0,88,0,0,0,0,0,0,0,0,0,0,0,0,0,0
DK,Denmark,country,Europe and Central Asia,56.26392,9.501785,ID,Indonesia,country,East Asia and Pacific,-0.789275,113.921327,10977.4230185562,1986,273,0,0,3,0,0,0,2,0,0,0,0,0,162,6,0,34,2,98,0,0,0,0,0
EG,Egypt,country,Middle East and North Africa,26.820553,30.802498,ID,Indonesia,country,East Asia and Pacific,-0.789275,113.921327,9375.40807616481,1986,2594,0,0,0,0,0,0,0,0,584,2010,0,0,0,0,0,0,0,0,0,0,0,0,0
FI,Finland,country,Europe and Central Asia,61.92411,25.748151,ID,Indonesia,country,East Asia and Pacific,-0.789275,113.921327,10000.589548905,1986,784,0,0,0,0,0,0,0,0,0,0,0,0,0,0,0,0,0,784,0,0,0,0,0
FR,France,country,Europe and Central Asia,46.227638,2.213749,ID,Indonesia,country,East Asia and Pacific,-0.789275,113.921327,11734.6648161454,1986,26600,23714,87,586,0,0,0,31,0,3,0,375,0,987,15,331,132,0,461,0,10,0,0,0
GH,Ghana,country,Sub-Saharan Africa,7.946527,-1.023194,ID,Indonesia,country,East Asia and Pacific,-0.789275,113.921327,12780.2041160139,1986,149,0,0,0,0,0,0,0,0,149,0,0,0,0,0,0,0,0,0,0,0,0,0,0
GR,Greece,country,Europe and Central Asia,39.074208,21.824312,ID,Indonesia,country,East Asia and Pacific,-0.789275,113.921327,10255.3560508549,1986,61,0,0,0,0,0,0,0,0,0,0,0,0,61,0,0,0,0,0,0,0,0,0,0
GT,Guatemala,country,Latin America and the Caribbean,15.783471,-90.230759,ID,Indonesia,country,East Asia and Pacific,-0.789275,113.921327,16903.9674450547,1986,92,0,0,0,0,0,0,0,0,92,0,0,0,0,0,0,0,0,0,0,0,0,0,0
HU,Hungary,country,Europe and Central Asia,47.162494,19.503304,ID,Indonesia,country,East Asia and Pacific,-0.789275,113.921327,10417.4700368974,1986,3,0,0,0,0,0,0,0,2,0,0,0,0,1,0,0,0,0,0,0,0,0,0,0
IN,India,country,South Asia,20.593684,78.96288,ID,Indonesia,country,East Asia and Pacific,-0.789275,113.921327,4490.02273639644,1986,6102,3,0,0,0,0,880,33,0,2378,89,1484,0,1235,0,0,0,0,0,0,0,0,0,0
IR,Iran,country,Middle East and North Africa,32.427908,53.688046,ID,Indonesia,country,East Asia and Pacific,-0.789275,113.921327,7312.90037284249,1986,50,0,0,0,0,0,0,0,0,0,50,0,0,0,0,0,0,0,0,0,0,0,0,0
IQ,Iraq,country,Middle East and North Africa,33.223191,43.679291,ID,Indonesia,country,East Asia and Pacific,-0.789275,113.921327,8240.43138544311,1986,11,0,0,0,0,0,0,0,11,0,0,0,0,0,0,0,0,0,0,0,0,0,0,0
IE,Ireland,country,Europe and Central Asia,53.41291,-8.24389,ID,Indonesia,country,East Asia and Pacific,-0.789275,113.921327,12152.5454027726,1986,129,0,0,3,0,0,0,0,0,0,0,0,0,11,3,0,0,0,112,0,0,0,0,0
IL,Israel,country,Middle East and North Africa,31.046051,34.851612,ID,Indonesia,country,East Asia and Pacific,-0.789275,113.921327,9023.98965458597,1986,11,0,0,0,0,0,0,10,1,0,0,0,0,0,0,0,0,0,0,0,0,0,0,0
IT,Italy,country,Europe and Central Asia,41.87194,12.56738,ID,Indonesia,country,East Asia and Pacific,-0.789275,113.921327,11016.3839915023,1986,623,170,0,0,0,0,0,0,0,50,0,57,13,177,4,23,0,0,129,0,0,0,0,0
JP,Japan,country,East Asia and Pacific,36.204824,138.252924,ID,Indonesia,country,East Asia and Pacific,-0.789275,113.921327,4827.02443872358,1986,13443,3655,44,338,201,0,42,93,27,103,6,138,21,1214,7372,54,53,0,129,0,6,0,0,0
KE,Kenya,country,Sub-Saharan Africa,-0.023559,37.906193,ID,Indonesia,country,East Asia and Pacific,-0.789275,113.921327,8462.07962690451,1986,57,0,0,0,0,0,0,0,0,57,0,0,0,0,0,0,0,0,0,0,0,0,0,0
KW,Kuwait,country,Middle East and North Africa,29.31166,47.481766,ID,Indonesia,country,East Asia and Pacific,-0.789275,113.921327,7794.10520164378,1986,2411,0,0,0,0,0,0,0,2411,0,0,0,0,0,0,0,0,0,0,0,0,0,0,0
MG,Madagascar,country,Sub-Saharan Africa,-18.766947,46.869107,ID,Indonesia,country,East Asia and Pacific,-0.789275,113.921327,7576.92282374654,1986,2032,0,0,0,0,0,0,0,0,0,2032,0,0,0,0,0,0,0,0,0,0,0,0,0
MY,Malaysia,country,East Asia and Pacific,4.210484,101.975766,ID,Indonesia,country,East Asia and Pacific,-0.789275,113.921327,1440.61189452569,1986,33509,76,0,26213,0,0,904,0,0,0,0,10,4,445,5346,0,51,0,511,0,0,0,0,0
ML,Mali,country,Sub-Saharan Africa,17.570692,-3.996166,ID,Indonesia,country,East Asia and Pacific,-0.789275,113.921327,12999.2185839778,1986,149,0,0,0,0,0,0,0,0,149,0,0,0,0,0,0,0,0,0,0,0,0,0,0
MR,Mauritania,country,Sub-Saharan Africa,21.00789,-10.940835,ID,Indonesia,country,East Asia and Pacific,-0.789275,113.921327,13645.7035796884,1986,100,0,0,0,0,0,0,0,0,100,0,0,0,0,0,0,0,0,0,0,0,0,0,0
MX,Mexico,country,Latin America and the Caribbean,23.634501,-102.552784,ID,Indonesia,country,East Asia and Pacific,-0.789275,113.921327,15352.4170755379,1986,3023,0,0,0,0,0,0,0,0,3007,0,0,0,0,0,16,0,0,0,0,0,0,0,0
MA,Morocco,country,Middle East and North Africa,31.791702,-7.09262,ID,Indonesia,country,East Asia and Pacific,-0.789275,113.921327,12961.3214611377,1986,25,0,0,0,0,0,0,0,0,0,25,0,0,0,0,0,0,0,0,0,0,0,0,0
MZ,Mozambique,country,Sub-Saharan Africa,-18.665695,35.529562,ID,Indonesia,country,East Asia and Pacific,-0.789275,113.921327,8766.83097922704,1986,591,0,0,0,0,0,0,0,0,100,0,0,0,491,0,0,0,0,0,0,0,0,0,0
MM,Myanmar,country,East Asia and Pacific,21.913965,95.956223,ID,Indonesia,country,East Asia and Pacific,-0.789275,113.921327,3192.98621015308,1986,4737,420,0,0,0,0,0,0,0,0,0,4317,0,0,0,0,0,0,0,0,0,0,0,0
NL,Netherlands,country,Europe and Central Asia,52.132633,5.291266,ID,Indonesia,country,East Asia and Pacific,-0.789275,113.921327,11348.3157118067,1986,17287,1531,59,1950,707,10,0,403,227,1,0,6251,45,1165,1689,190,599,50,3006,3,0,0,0,0
NZ,New Zealand,country,East Asia and Pacific,-40.900557,174.885971,ID,Indonesia,country,East Asia and Pacific,-0.789275,113.921327,7561.27854515998,1986,72151,1260,0,1085,7248,0,0,505,20,16,0,44449,0,6,114,0,0,646,16802,0,0,0,0,0
NI,Nicaragua,country,Latin America and the Caribbean,12.865416,-85.207229,ID,Indonesia,country,East Asia and Pacific,-0.789275,113.921327,17535.618624703,1986,247,0,0,0,0,0,0,0,0,247,0,0,0,0,0,0,0,0,0,0,0,0,0,0
NO,Norway,country,Europe and Central Asia,60.472024,8.468946,ID,Indonesia,country,East Asia and Pacific,-0.789275,113.921327,10935.8125644022,1986,0,0,0,0,0,0,0,0,0,0,0,0,0,0,0,0,0,0,0,0,0,0,0,0
PK,Pakistan,country,South Asia,30.375321,69.345116,ID,Indonesia,country,East Asia and Pacific,-0.789275,113.921327,5854.28796923267,1986,35604,0,0,0,0,0,0,0,0,35604,0,0,0,0,0,0,0,0,0,0,0,0,0,0
PG,Papua New Guinea,country,East Asia and Pacific,-6.314993,143.95555,ID,Indonesia,country,East Asia and Pacific,-0.789275,113.921327,3391.75028819521,1986,988,0,0,0,0,0,985,0,0,0,0,0,0,3,0,0,0,0,0,0,0,0,0,0
PH,Philippines,country,East Asia and Pacific,12.879721,121.774017,ID,Indonesia,country,East Asia and Pacific,-0.789275,113.921327,1751.37024833425,1986,34620,209,0,0,0,0,30088,485,2,0,0,0,0,230,3450,0,0,0,156,0,0,0,0,0
PT,Portugal,country,Europe and Central Asia,39.399872,-8.224454,ID,Indonesia,country,East Asia and Pacific,-0.789275,113.921327,12782.3268839901,1986,1,0,0,0,0,0,0,0,0,0,0,0,0,1,0,0,0,0,0,0,0,0,0,0
KR,"Korea, Rep.",country,East Asia and Pacific,35.907757,127.766922,ID,Indonesia,country,East Asia and Pacific,-0.789275,113.921327,4330.00778247741,1986,1054,0,0,23,0,0,0,2,2,194,0,1,0,41,716,75,0,0,0,0,0,0,0,0
SA,Saudi Arabia,country,Middle East and North Africa,23.885942,45.079162,ID,Indonesia,country,East Asia and Pacific,-0.789275,113.921327,7911.45331804492,1986,79159,77371,0,0,0,0,0,0,1788,0,0,0,0,0,0,0,0,0,0,0,0,0,0,0
SN,Senegal,country,Sub-Saharan Africa,14.497401,-14.452362,ID,Indonesia,country,East Asia and Pacific,-0.789275,113.921327,14158.3465221717,1986,711,0,0,0,0,0,0,0,0,711,0,0,0,0,0,0,0,0,0,0,0,0,0,0
SG,Singapore,country,East Asia and Pacific,1.352083,103.819836,ID,Indonesia,country,East Asia and Pacific,-0.789275,113.921327,1149.4036999638,1986,23031,6402,91,845,643,5,1098,687,1098,44,683,5360,513,1021,2535,836,130,185,985,0,0,0,0,0
SO,Somalia,country,Sub-Saharan Africa,5.152149,46.199616,ID,Indonesia,country,East Asia and Pacific,-0.789275,113.921327,7558.06496812728,1986,34,0,0,0,0,0,0,0,0,0,0,0,0,34,0,0,0,0,0,0,0,0,0,0
ZA,S. Africa,country,Sub-Saharan Africa,-30.559482,22.937506,ID,Indonesia,country,East Asia and Pacific,-0.789275,113.921327,10068.3772915859,1986,278,0,0,0,0,0,0,0,0,276,0,0,0,2,0,0,0,0,0,0,0,0,0,0
ES,Spain,country,Europe and Central Asia,40.463667,-3.74922,ID,Indonesia,country,East Asia and Pacific,-0.789275,113.921327,12382.7992061042,1986,155,0,0,0,0,0,0,18,71,0,0,5,0,54,7,0,0,0,0,0,0,0,0,0
LK,Sri Lanka,country,South Asia,7.873054,80.771797,ID,Indonesia,country,East Asia and Pacific,-0.789275,113.921327,3803.62698150604,1986,0,0,0,0,0,0,0,0,0,0,0,0,0,0,0,0,0,0,0,0,0,0,0,0
SD,Sudan,country,Sub-Saharan Africa,12.862807,30.217636,ID,Indonesia,country,East Asia and Pacific,-0.789275,113.921327,9355.24272607025,1986,552,0,0,0,0,0,0,0,0,552,0,0,0,0,0,0,0,0,0,0,0,0,0,0
SE,Sweden,country,Europe and Central Asia,60.128161,18.643501,ID,Indonesia,country,East Asia and Pacific,-0.789275,113.921327,10387.3276030234,1986,1066,0,0,0,0,0,0,0,0,0,0,0,0,6,19,0,0,0,1041,0,0,0,0,0
CH,Switzerland,country,Europe and Central Asia,46.818188,8.227512,ID,Indonesia,country,East Asia and Pacific,-0.789275,113.921327,11271.3694163961,1986,1644,3,0,113,346,0,0,2,21,0,0,2,32,834,9,0,91,0,282,0,0,0,0,0
TH,Thailand,country,East Asia and Pacific,15.870032,100.992541,ID,Indonesia,country,East Asia and Pacific,-0.789275,113.921327,2336.58049517835,1986,123279,113547,0,156,5601,0,311,1525,6,170,489,207,0,1249,1,0,78,0,17,0,0,0,0,0
TR,Turkey,country,Europe and Central Asia,38.963745,35.243322,ID,Indonesia,country,East Asia and Pacific,-0.789275,113.921327,9097.27334314872,1986,923,0,0,0,0,0,0,59,0,0,63,0,0,801,0,0,0,0,0,0,0,0,0,0
GB,United Kingdom,country,Europe and Central Asia,55.378051,-3.435973,ID,Indonesia,country,East Asia and Pacific,-0.789275,113.921327,11778.4066263046,1986,4217,961,4,150,1482,0,4,9,8,10,0,26,16,467,516,149,72,0,415,0,0,0,0,0
TZ,Tanzania,country,Sub-Saharan Africa,-6.369028,34.888822,ID,Indonesia,country,East Asia and Pacific,-0.789275,113.921327,8795.67576146202,1986,1009,0,0,0,0,0,0,0,0,1009,0,0,0,0,0,0,0,0,0,0,0,0,0,0
US,USA,country,North America,37.09024,-95.712891,ID,Indonesia,country,East Asia and Pacific,-0.789275,113.921327,14978.5673165406,1986,817107,479654,143,174,110,26,53305,1596,825,41771,20,227074,69,6029,525,87,401,533,5166,0,0,0,0,0
RU,Russian Federation,country,Europe and Central Asia,61.52401,105.318756,ID,Indonesia,country,East Asia and Pacific,-0.789275,113.921327,6975.2549935928,1986,1610,0,0,0,0,0,0,0,0,1607,0,0,0,0,0,3,0,0,0,0,0,0,0,0
VN,Vietnam,country,East Asia and Pacific,14.058324,108.277199,ID,Indonesia,country,East Asia and Pacific,-0.789275,113.921327,1766.084707906,1986,10132,0,0,0,0,0,10132,0,0,0,0,0,0,0,0,0,0,0,0,0,0,0,0,0
BA,Bosnia & Herzegovina,country,Europe and Central Asia,43.915886,17.679076,ID,Indonesia,country,East Asia and Pacific,-0.789275,113.921327,10579.9459690121,1986,17,0,0,0,0,0,0,0,2,0,0,15,0,0,0,0,0,0,0,0,0,0,0,0
ZM,Zambia,country,Sub-Saharan Africa,-13.133897,27.849332,ID,Indonesia,country,East Asia and Pacific,-0.789275,113.921327,9572.9757814265,1986,443,0,0,0,0,0,0,0,0,0,0,0,0,443,0,0,0,0,0,0,0,0,0,0
ZW,Zimbabwe,country,Sub-Saharan Africa,-19.015438,29.154857,ID,Indonesia,country,East Asia and Pacific,-0.789275,113.921327,9439.34671079473,1986,1009,0,0,0,0,0,0,0,0,102,0,0,0,907,0,0,0,0,0,0,0,0,0,0
AL,Albania,country,Europe and Central Asia,41.153332,20.168331,ID,Indonesia,country,East Asia and Pacific,-0.789275,113.921327,10391.0979283025,1987,800,0,0,0,0,0,0,0,0,0,0,0,0,800,0,0,0,0,0,0,0,0,0,0
DZ,Algeria,country,Middle East and North Africa,28.033886,1.659626,ID,Indonesia,country,East Asia and Pacific,-0.789275,113.921327,12237.0743292596,1987,23,0,0,0,0,0,0,0,23,0,0,0,0,0,0,0,0,0,0,0,0,0,0,0
AR,Argentina,country,Latin America and the Caribbean,-38.416097,-63.616672,ID,Indonesia,country,East Asia and Pacific,-0.789275,113.921327,15665.8943196608,1987,286188,284492,0,0,0,0,0,0,0,1696,0,0,0,0,0,0,0,0,0,0,0,0,0,0
AU,Australia,country,East Asia and Pacific,-25.274398,133.775136,ID,Indonesia,country,East Asia and Pacific,-0.789275,113.921327,3461.30835308332,1987,739416,703171,33,275,0,0,15,675,231,9531,1140,9590,43,3219,870,617,39,57,9949,0,0,0,0,0
AT,Austria,country,Europe and Central Asia,47.516231,14.550072,ID,Indonesia,country,East Asia and Pacific,-0.789275,113.921327,10786.7582508511,1987,347,20,0,0,0,0,0,0,0,0,0,98,0,11,0,0,0,0,218,0,0,0,0,0
BD,Bangladesh,country,South Asia,23.684994,90.356331,ID,Indonesia,country,East Asia and Pacific,-0.789275,113.921327,3730.35439733117,1987,4380,0,0,0,0,0,0,0,0,4380,0,0,0,0,0,0,0,0,0,0,0,0,0,0
BE,Belgium,country,Europe and Central Asia,50.503887,4.469936,ID,Indonesia,country,East Asia and Pacific,-0.789275,113.921327,11449.2836918632,1987,3869,198,0,65,0,0,0,0,18,635,0,335,0,47,9,0,0,0,2562,0,0,0,0,0
BR,Brazil,country,Latin America and the Caribbean,-14.235004,-51.92528,ID,Indonesia,country,East Asia and Pacific,-0.789275,113.921327,17750.4246236607,1987,111322,0,0,70750,0,0,0,0,190,20773,0,18003,0,1169,379,0,0,0,58,0,0,0,0,0
BN,Brunei Darussalam,country,,4.535277,114.727669,ID,Indonesia,country,East Asia and Pacific,-0.789275,113.921327,599.472541609892,1987,50,0,0,0,0,0,0,0,0,50,0,0,0,0,0,0,0,0,0,0,0,0,0,0
CA,Canada,country,North America,56.130366,-106.346771,ID,Indonesia,country,East Asia and Pacific,-0.789275,113.921327,12900.7589703636,1987,326169,251806,0,198,91,0,0,578,23,99,0,42717,4,4,30570,0,230,27,52,0,0,0,0,0
CF,Central African Rep.,country,Sub-Saharan Africa,6.611111,20.939444,ID,Indonesia,country,East Asia and Pacific,-0.789275,113.921327,10358.5844479579,1987,50,0,0,0,0,0,0,0,0,50,0,0,0,0,0,0,0,0,0,0,0,0,0,0
CL,Chile,country,Latin America and the Caribbean,-35.675147,-71.542969,ID,Indonesia,country,East Asia and Pacific,-0.789275,113.921327,15938.8600047203,1987,92,0,0,0,0,0,0,84,0,0,0,0,0,8,0,0,0,0,0,0,0,0,0,0
HK,Hong Kong,country,East Asia and Pacific,22.396428,114.109497,ID,Indonesia,country,East Asia and Pacific,-0.789275,113.921327,2581.10141824003,1987,7567,272,19,135,146,0,73,189,129,4522,0,862,18,797,115,0,36,0,103,137,50,0,0,0
CN,China,country,East Asia and Pacific,35.86166,104.195397,ID,Indonesia,country,East Asia and Pacific,-0.789275,113.921327,4202.82765587934,1987,703754,51755,9,69,7795,0,272125,15621,406,69397,3231,280050,38,3055,98,6,0,0,98,1,0,0,0,0
TW,Taiwan,country,East Asia and Pacific,23.69781,120.960515,ID,Indonesia,country,East Asia and Pacific,-0.789275,113.921327,2830.21682941926,1987,18844,817,34,124,18,0,546,810,295,1209,39,13764,51,689,430,0,107,3,15,0,0,0,0,0
CI,Ivory Coast,country,Sub-Saharan Africa,7.539989,-5.54708,ID,Indonesia,country,East Asia and Pacific,-0.789275,113.921327,13280.9184302216,1987,1483,0,0,0,0,0,0,0,0,1483,0,0,0,0,0,0,0,0,0,0,0,0,0,0
CU,Cuba,country,Latin America and the Caribbean,21.521757,-77.781167,ID,Indonesia,country,East Asia and Pacific,-0.789275,113.921327,17403.1418748808,1987,24387,0,0,24384,0,0,0,0,0,0,0,0,0,3,0,0,0,0,0,0,0,0,0,0
KP,"Korea, Dem. Rep.",country,East Asia and Pacific,40.339852,127.510093,ID,Indonesia,country,East Asia and Pacific,-0.789275,113.921327,4781.67904222699,1987,0,0,0,0,0,0,0,0,0,0,0,0,0,0,0,0,0,0,0,0,0,0,0,0
DK,Denmark,country,Europe and Central Asia,56.26392,9.501785,ID,Indonesia,country,East Asia and Pacific,-0.789275,113.921327,10977.4230185562,1987,332,0,0,0,0,0,0,0,0,0,0,0,0,174,2,0,71,6,150,0,0,0,0,0
EG,Egypt,country,Middle East and North Africa,26.820553,30.802498,ID,Indonesia,country,East Asia and Pacific,-0.789275,113.921327,9375.40807616481,1987,2482,0,0,0,0,0,0,0,0,0,2482,0,0,0,0,0,0,0,0,0,0,0,0,0
FI,Finland,country,Europe and Central Asia,61.92411,25.748151,ID,Indonesia,country,East Asia and Pacific,-0.789275,113.921327,10000.589548905,1987,17,0,0,3,0,0,0,0,0,0,0,0,0,7,0,0,0,0,7,0,0,0,0,0
FR,France,country,Europe and Central Asia,46.227638,2.213749,ID,Indonesia,country,East Asia and Pacific,-0.789275,113.921327,11734.6648161454,1987,38136,35002,0,687,0,0,2,32,0,217,0,482,0,1001,10,254,301,0,389,0,60,0,0,0
GR,Greece,country,Europe and Central Asia,39.074208,21.824312,ID,Indonesia,country,East Asia and Pacific,-0.789275,113.921327,10255.3560508549,1987,153,0,0,0,0,0,0,0,0,0,0,0,0,153,0,0,0,0,0,0,0,0,0,0
GT,Guatemala,country,Latin America and the Caribbean,15.783471,-90.230759,ID,Indonesia,country,East Asia and Pacific,-0.789275,113.921327,16903.9674450547,1987,16500,0,0,16500,0,0,0,0,0,0,0,0,0,0,0,0,4,0,0,0,0,0,0,0
HU,Hungary,country,Europe and Central Asia,47.162494,19.503304,ID,Indonesia,country,East Asia and Pacific,-0.789275,113.921327,10417.4700368974,1987,31,0,0,0,0,0,0,0,0,0,0,19,0,0,0,0,0,0,12,0,0,0,0,0
IN,India,country,South Asia,20.593684,78.96288,ID,Indonesia,country,East Asia and Pacific,-0.789275,113.921327,4490.02273639644,1987,5642,0,0,0,0,0,11,4,0,4566,58,0,0,1003,0,0,0,0,0,0,0,0,0,0
IR,Iran,country,Middle East and North Africa,32.427908,53.688046,ID,Indonesia,country,East Asia and Pacific,-0.789275,113.921327,7312.90037284249,1987,329,0,0,0,0,0,0,0,0,0,329,0,0,0,0,0,0,0,0,0,0,0,0,0
IQ,Iraq,country,Middle East and North Africa,33.223191,43.679291,ID,Indonesia,country,East Asia and Pacific,-0.789275,113.921327,8240.43138544311,1987,1398,0,0,0,0,0,0,0,1292,0,106,0,0,0,0,0,0,0,0,0,0,0,0,0
IE,Ireland,country,Europe and Central Asia,53.41291,-8.24389,ID,Indonesia,country,East Asia and Pacific,-0.789275,113.921327,12152.5454027726,1987,871,0,0,0,0,0,0,0,0,0,0,0,0,26,0,0,0,0,845,0,0,0,0,0
IT,Italy,country,Europe and Central Asia,41.87194,12.56738,ID,Indonesia,country,East Asia and Pacific,-0.789275,113.921327,11016.3839915023,1987,491,148,0,36,0,0,30,14,0,0,0,31,24,103,9,0,0,0,96,0,0,0,0,0
JP,Japan,country,East Asia and Pacific,36.204824,138.252924,ID,Indonesia,country,East Asia and Pacific,-0.789275,113.921327,4827.02443872358,1987,7239,2835,63,105,5,0,28,45,21,28,5,490,36,782,2760,8,0,0,28,0,0,0,0,0
MG,Madagascar,country,Sub-Saharan Africa,-18.766947,46.869107,ID,Indonesia,country,East Asia and Pacific,-0.789275,113.921327,7576.92282374654,1987,1995,0,0,0,0,0,0,0,0,0,1995,0,0,0,0,0,0,0,0,0,0,0,0,0
MW,Malawi,country,Sub-Saharan Africa,-13.254308,34.301525,ID,Indonesia,country,East Asia and Pacific,-0.789275,113.921327,8873.98508572729,1987,2,0,0,0,0,0,0,0,0,0,0,0,0,2,0,0,0,0,0,0,0,0,0,0
MY,Malaysia,country,East Asia and Pacific,4.210484,101.975766,ID,Indonesia,country,East Asia and Pacific,-0.789275,113.921327,1440.61189452569,1987,162266,39,0,18307,0,0,0,31,14,0,0,174,173,138,142826,0,3,0,564,0,0,0,0,0
MX,Mexico,country,Latin America and the Caribbean,23.634501,-102.552784,ID,Indonesia,country,East Asia and Pacific,-0.789275,113.921327,15352.4170755379,1987,1718,0,0,0,0,0,0,0,0,1718,0,0,0,0,0,0,0,0,0,0,0,0,0,0
MZ,Mozambique,country,Sub-Saharan Africa,-18.665695,35.529562,ID,Indonesia,country,East Asia and Pacific,-0.789275,113.921327,8766.83097922704,1987,659,0,0,0,0,0,0,0,0,0,0,0,0,659,0,0,0,0,0,0,0,0,0,0
MM,Myanmar,country,East Asia and Pacific,21.913965,95.956223,ID,Indonesia,country,East Asia and Pacific,-0.789275,113.921327,3192.98621015308,1987,9336,9336,0,0,0,0,0,0,0,0,0,0,0,0,0,0,0,0,0,0,0,0,0,0
NL,Netherlands,country,Europe and Central Asia,52.132633,5.291266,ID,Indonesia,country,East Asia and Pacific,-0.789275,113.921327,11348.3157118067,1987,10565,1113,221,2064,0,0,5,931,49,1,6,203,52,1421,1567,169,499,25,2738,0,0,0,0,0
NZ,New Zealand,country,East Asia and Pacific,-40.900557,174.885971,ID,Indonesia,country,East Asia and Pacific,-0.789275,113.921327,7561.27854515998,1987,73667,562,36,823,6298,0,0,924,0,0,0,49366,0,188,133,0,0,450,14887,0,0,0,0,0
NI,Nicaragua,country,Latin America and the Caribbean,12.865416,-85.207229,ID,Indonesia,country,East Asia and Pacific,-0.789275,113.921327,17535.618624703,1987,112,0,0,0,0,0,0,0,0,112,0,0,0,0,0,0,0,0,0,0,0,0,0,0
PK,Pakistan,country,South Asia,30.375321,69.345116,ID,Indonesia,country,East Asia and Pacific,-0.789275,113.921327,5854.28796923267,1987,31283,0,0,0,0,0,0,0,0,31278,0,0,0,5,0,0,0,0,0,0,0,0,0,0
PG,Papua New Guinea,country,East Asia and Pacific,-6.314993,143.95555,ID,Indonesia,country,East Asia and Pacific,-0.789275,113.921327,3391.75028819521,1987,0,0,0,0,0,0,0,0,0,0,0,0,0,0,0,0,0,0,0,0,0,0,0,0
PY,Paraguay,country,Latin America and the Caribbean,-23.442503,-58.443832,ID,Indonesia,country,East Asia and Pacific,-0.789275,113.921327,17216.3158826116,1987,196,0,0,0,0,0,0,0,0,196,0,0,0,0,0,0,0,0,0,0,0,0,0,0
PH,Philippines,country,East Asia and Pacific,12.879721,121.774017,ID,Indonesia,country,East Asia and Pacific,-0.789275,113.921327,1751.37024833425,1987,94795,52002,0,3,0,0,31799,377,0,0,0,0,6000,75,4460,0,0,0,79,0,0,0,0,0
PL,Poland,country,Europe and Central Asia,51.919438,19.145136,ID,Indonesia,country,East Asia and Pacific,-0.789275,113.921327,10415.6828554256,1987,2,0,0,0,0,0,0,2,0,0,0,0,0,0,0,0,0,0,0,0,0,0,0,0
PT,Portugal,country,Europe and Central Asia,39.399872,-8.224454,ID,Indonesia,country,East Asia and Pacific,-0.789275,113.921327,12782.3268839901,1987,266,0,0,0,0,0,0,57,0,0,0,209,0,0,0,0,0,0,0,0,0,0,0,0
KR,"Korea, Rep.",country,East Asia and Pacific,35.907757,127.766922,ID,Indonesia,country,East Asia and Pacific,-0.789275,113.921327,4330.00778247741,1987,1358,8,0,3,0,0,1197,5,1,2,5,40,0,58,15,15,0,0,0,9,0,0,0,0
RO,Romania,country,Europe and Central Asia,45.943161,24.96676,ID,Indonesia,country,East Asia and Pacific,-0.789275,113.921327,10000.9808396908,1987,1,0,0,1,0,0,0,0,0,0,0,0,0,0,0,0,0,0,0,0,0,0,0,0
SA,Saudi Arabia,country,Middle East and North Africa,23.885942,45.079162,ID,Indonesia,country,East Asia and Pacific,-0.789275,113.921327,7911.45331804492,1987,227080,226664,0,0,0,0,0,0,0,396,20,0,0,0,0,0,0,0,0,0,0,0,0,0
SN,Senegal,country,Sub-Saharan Africa,14.497401,-14.452362,ID,Indonesia,country,East Asia and Pacific,-0.789275,113.921327,14158.3465221717,1987,101,0,0,0,0,0,0,0,0,101,0,0,0,0,0,0,0,0,0,0,0,0,0,0
SG,Singapore,country,East Asia and Pacific,1.352083,103.819836,ID,Indonesia,country,East Asia and Pacific,-0.789275,113.921327,1149.4036999638,1987,38437,5269,27,522,156,9,1750,521,404,0,257,3876,510,1628,22806,154,10,117,431,0,0,0,0,0
ZA,S. Africa,country,Sub-Saharan Africa,-30.559482,22.937506,ID,Indonesia,country,East Asia and Pacific,-0.789275,113.921327,10068.3772915859,1987,98,0,0,0,0,0,0,0,0,98,0,0,0,0,0,0,0,0,0,0,0,0,0,0
ES,Spain,country,Europe and Central Asia,40.463667,-3.74922,ID,Indonesia,country,East Asia and Pacific,-0.789275,113.921327,12382.7992061042,1987,343,0,0,11,0,0,0,0,0,300,0,8,0,6,18,0,18,0,0,0,0,0,0,0
LK,Sri Lanka,country,South Asia,7.873054,80.771797,ID,Indonesia,country,East Asia and Pacific,-0.789275,113.921327,3803.62698150604,1987,0,0,0,0,0,0,0,0,0,0,0,0,0,0,0,0,0,0,0,0,0,0,0,0
SD,Sudan,country,Sub-Saharan Africa,12.862807,30.217636,ID,Indonesia,country,East Asia and Pacific,-0.789275,113.921327,9355.24272607025,1987,1161,0,0,0,0,0,0,0,0,982,150,0,0,29,0,0,0,0,0,0,0,0,0,0
SE,Sweden,country,Europe and Central Asia,60.128161,18.643501,ID,Indonesia,country,East Asia and Pacific,-0.789275,113.921327,10387.3276030234,1987,916,0,0,0,0,0,0,0,0,0,0,0,0,5,213,0,0,0,698,0,0,0,0,0
CH,Switzerland,country,Europe and Central Asia,46.818188,8.227512,ID,Indonesia,country,East Asia and Pacific,-0.789275,113.921327,11271.3694163961,1987,1076,0,0,66,62,0,0,0,3,75,0,4,2,265,0,0,12,0,599,0,0,0,0,0
TH,Thailand,country,East Asia and Pacific,15.870032,100.992541,ID,Indonesia,country,East Asia and Pacific,-0.789275,113.921327,2336.58049517835,1987,179451,129995,30504,100,8015,0,1450,2064,349,132,132,4308,0,2210,3,0,1,0,189,0,0,0,0,0
TR,Turkey,country,Europe and Central Asia,38.963745,35.243322,ID,Indonesia,country,East Asia and Pacific,-0.789275,113.921327,9097.27334314872,1987,2074,0,0,0,0,0,0,160,0,0,145,0,0,1769,0,0,0,0,0,0,0,0,0,0
GB,United Kingdom,country,Europe and Central Asia,55.378051,-3.435973,ID,Indonesia,country,East Asia and Pacific,-0.789275,113.921327,11778.4066263046,1987,5304,544,0,84,0,0,0,8,4,0,6,147,38,144,410,230,224,0,3689,0,0,0,0,0
TZ,Tanzania,country,Sub-Saharan Africa,-6.369028,34.888822,ID,Indonesia,country,East Asia and Pacific,-0.789275,113.921327,8795.67576146202,1987,719,0,0,0,0,0,0,0,0,719,0,0,0,0,0,0,0,0,0,0,0,0,0,0
US,USA,country,North America,37.09024,-95.712891,ID,Indonesia,country,East Asia and Pacific,-0.789275,113.921327,14978.5673165406,1987,424152,267699,12,144,27,10,48594,979,695,63191,34,25164,66,10822,705,62,389,470,5478,0,0,0,0,0
RU,Russian Federation,country,Europe and Central Asia,61.52401,105.318756,ID,Indonesia,country,East Asia and Pacific,-0.789275,113.921327,6975.2549935928,1987,8031,0,0,0,0,0,0,0,0,7824,0,0,0,200,0,7,0,0,0,0,0,0,0,0
VN,Vietnam,country,East Asia and Pacific,14.058324,108.277199,ID,Indonesia,country,East Asia and Pacific,-0.789275,113.921327,1766.084707906,1987,17935,0,6643,0,99,0,10679,162,0,345,7,0,0,0,0,0,0,0,0,0,0,0,0,0
BA,Bosnia & Herzegovina,country,Europe and Central Asia,43.915886,17.679076,ID,Indonesia,country,East Asia and Pacific,-0.789275,113.921327,10579.9459690121,1987,6,0,0,0,0,0,0,0,0,0,0,6,0,0,0,0,0,0,0,0,0,0,0,0
ZM,Zambia,country,Sub-Saharan Africa,-13.133897,27.849332,ID,Indonesia,country,East Asia and Pacific,-0.789275,113.921327,9572.9757814265,1987,1207,0,0,0,0,0,0,0,0,0,0,0,0,1207,0,0,0,0,0,0,0,0,0,0
ZW,Zimbabwe,country,Sub-Saharan Africa,-19.015438,29.154857,ID,Indonesia,country,East Asia and Pacific,-0.789275,113.921327,9439.34671079473,1987,518,0,0,0,0,0,0,0,34,0,0,0,0,484,0,0,0,0,0,0,0,0,0,0
DZ,Algeria,country,Middle East and North Africa,28.033886,1.659626,ID,Indonesia,country,East Asia and Pacific,-0.789275,113.921327,12237.0743292596,1988,91,0,0,0,0,0,0,0,91,0,0,0,0,0,0,0,0,0,0,0,0,0,0,0
AR,Argentina,country,Latin America and the Caribbean,-38.416097,-63.616672,ID,Indonesia,country,East Asia and Pacific,-0.789275,113.921327,15665.8943196608,1988,227274,159308,0,0,0,0,60505,600,0,6325,536,0,0,0,0,0,0,0,0,0,0,0,0,0
AU,Australia,country,East Asia and Pacific,-25.274398,133.775136,ID,Indonesia,country,East Asia and Pacific,-0.789275,113.921327,3461.30835308332,1988,917160,875177,2,263,844,1,20,998,246,16882,2049,10788,53,314,770,243,51,145,8365,0,0,0,0,0
AT,Austria,country,Europe and Central Asia,47.516231,14.550072,ID,Indonesia,country,East Asia and Pacific,-0.789275,113.921327,10786.7582508511,1988,1064,0,0,0,0,0,0,14,0,0,2,2,0,43,0,0,0,0,1003,0,0,0,0,0
BD,Bangladesh,country,South Asia,23.684994,90.356331,ID,Indonesia,country,East Asia and Pacific,-0.789275,113.921327,3730.35439733117,1988,9,0,0,0,0,0,0,0,0,0,9,0,0,0,0,0,0,0,0,0,0,0,0,0
BE,Belgium,country,Europe and Central Asia,50.503887,4.469936,ID,Indonesia,country,East Asia and Pacific,-0.789275,113.921327,11449.2836918632,1988,4271,0,0,115,0,0,0,0,0,309,0,160,0,84,2,24,2,0,3577,0,0,0,0,0
BR,Brazil,country,Latin America and the Caribbean,-14.235004,-51.92528,ID,Indonesia,country,East Asia and Pacific,-0.789275,113.921327,17750.4246236607,1988,18452,0,0,12600,0,0,0,0,172,3674,199,35,0,808,334,0,0,0,630,0,0,0,0,0
BN,Brunei Darussalam,country,,4.535277,114.727669,ID,Indonesia,country,East Asia and Pacific,-0.789275,113.921327,599.472541609892,1988,792,0,0,0,0,0,693,0,0,99,0,0,0,0,0,0,0,0,0,0,0,0,0,0
KH,Cambodia,country,East Asia and Pacific,12.565679,104.990963,ID,Indonesia,country,East Asia and Pacific,-0.789275,113.921327,1784.22601087891,1988,34,34,0,0,0,0,0,0,0,0,0,0,0,0,0,0,0,0,0,0,0,0,0,0
CA,Canada,country,North America,56.130366,-106.346771,ID,Indonesia,country,East Asia and Pacific,-0.789275,113.921327,12900.7589703636,1988,235683,163755,0,0,83,0,20,694,6,299,0,27705,8,27,43050,7,141,26,3,0,0,0,0,0
CL,Chile,country,Latin America and the Caribbean,-35.675147,-71.542969,ID,Indonesia,country,East Asia and Pacific,-0.789275,113.921327,15938.8600047203,1988,29291,28848,0,0,0,0,0,0,0,433,0,0,0,10,0,0,0,0,0,0,0,0,0,0
HK,Hong Kong,country,East Asia and Pacific,22.396428,114.109497,ID,Indonesia,country,East Asia and Pacific,-0.789275,113.921327,2581.10141824003,1988,6052,97,0,101,947,0,42,229,245,1500,54,1758,29,914,83,3,408,14,36,0,0,0,0,0
CN,China,country,East Asia and Pacific,35.86166,104.195397,ID,Indonesia,country,East Asia and Pacific,-0.789275,113.921327,4202.82765587934,1988,589447,23269,8,26737,51063,0,298133,15988,299,43014,2529,125203,29,2805,268,15,0,7,80,0,0,0,0,0
TW,Taiwan,country,East Asia and Pacific,23.69781,120.960515,ID,Indonesia,country,East Asia and Pacific,-0.789275,113.921327,2830.21682941926,1988,65998,533,0,127,2454,0,1002,764,749,349,95,48515,45,1128,10185,1,9,30,21,0,0,0,0,0
CI,Ivory Coast,country,Sub-Saharan Africa,7.539989,-5.54708,ID,Indonesia,country,East Asia and Pacific,-0.789275,113.921327,13280.9184302216,1988,1350,0,0,0,0,0,0,0,0,1350,0,0,0,0,0,0,0,0,0,0,0,0,0,0
CU,Cuba,country,Latin America and the Caribbean,21.521757,-77.781167,ID,Indonesia,country,East Asia and Pacific,-0.789275,113.921327,17403.1418748808,1988,12600,0,0,12600,0,0,0,0,0,0,0,0,0,0,0,0,0,0,0,0,0,0,0,0
CZ,Czech Republic,country,Europe and Central Asia,49.817492,15.472962,ID,Indonesia,country,East Asia and Pacific,-0.789275,113.921327,10691.6844305351,1988,315,315,0,0,0,0,0,0,0,0,0,0,0,0,0,0,0,0,0,0,0,0,0,0
KP,"Korea, Dem. Rep.",country,East Asia and Pacific,40.339852,127.510093,ID,Indonesia,country,East Asia and Pacific,-0.789275,113.921327,4781.67904222699,1988,13438,0,0,0,0,0,13431,0,5,0,0,0,0,2,0,0,0,0,0,0,0,0,0,0
DK,Denmark,country,Europe and Central Asia,56.26392,9.501785,ID,Indonesia,country,East Asia and Pacific,-0.789275,113.921327,10977.4230185562,1988,396,0,0,3,0,0,0,0,0,34,0,38,0,170,20,0,0,0,131,0,0,0,0,0
EC,Ecuador,country,Latin America and the Caribbean,-1.831239,-78.183406,ID,Indonesia,country,East Asia and Pacific,-0.789275,113.921327,18658.9705893793,1988,17,0,0,0,0,0,0,0,17,0,0,0,0,0,0,0,0,0,0,0,0,0,0,0
EG,Egypt,country,Middle East and North Africa,26.820553,30.802498,ID,Indonesia,country,East Asia and Pacific,-0.789275,113.921327,9375.40807616481,1988,3722,0,0,0,0,0,7,0,0,0,3715,0,0,0,0,0,0,0,0,0,0,0,0,0
FI,Finland,country,Europe and Central Asia,61.92411,25.748151,ID,Indonesia,country,East Asia and Pacific,-0.789275,113.921327,10000.589548905,1988,135,0,0,135,0,0,0,0,0,0,0,0,0,0,0,0,0,0,0,0,0,0,0,0
FR,France,country,Europe and Central Asia,46.227638,2.213749,ID,Indonesia,country,East Asia and Pacific,-0.789275,113.921327,11734.6648161454,1988,20917,2878,0,418,0,0,7,105,3,308,0,630,0,756,15029,253,90,0,530,0,0,0,0,0
GR,Greece,country,Europe and Central Asia,39.074208,21.824312,ID,Indonesia,country,East Asia and Pacific,-0.789275,113.921327,10255.3560508549,1988,445,0,0,0,0,0,0,0,0,0,0,0,0,445,0,0,10,0,0,0,0,0,0,0
GT,Guatemala,country,Latin America and the Caribbean,15.783471,-90.230759,ID,Indonesia,country,East Asia and Pacific,-0.789275,113.921327,16903.9674450547,1988,15000,15000,0,0,0,0,0,0,0,0,0,0,0,0,0,0,9,0,0,0,0,0,0,0
IN,India,country,South Asia,20.593684,78.96288,ID,Indonesia,country,East Asia and Pacific,-0.789275,113.921327,4490.02273639644,1988,3051,0,0,0,0,0,26,38,0,85,26,752,0,162,1962,0,0,0,0,0,0,0,0,0
IR,Iran,country,Middle East and North Africa,32.427908,53.688046,ID,Indonesia,country,East Asia and Pacific,-0.789275,113.921327,7312.90037284249,1988,116,0,0,0,0,0,0,0,18,0,98,0,0,0,0,0,0,0,0,0,0,0,0,0
IQ,Iraq,country,Middle East and North Africa,33.223191,43.679291,ID,Indonesia,country,East Asia and Pacific,-0.789275,113.921327,8240.43138544311,1988,2100,0,0,0,0,0,0,0,2100,0,0,0,0,0,0,0,0,0,0,0,0,0,0,0
IE,Ireland,country,Europe and Central Asia,53.41291,-8.24389,ID,Indonesia,country,East Asia and Pacific,-0.789275,113.921327,12152.5454027726,1988,528,0,0,0,0,0,0,0,0,0,0,0,0,2,0,0,0,0,526,0,0,0,0,0
IL,Israel,country,Middle East and North Africa,31.046051,34.851612,ID,Indonesia,country,East Asia and Pacific,-0.789275,113.921327,9023.98965458597,1988,0,0,0,0,0,0,0,0,0,0,0,0,0,0,0,0,0,0,0,0,0,0,0,0
IT,Italy,country,Europe and Central Asia,41.87194,12.56738,ID,Indonesia,country,East Asia and Pacific,-0.789275,113.921327,11016.3839915023,1988,667,119,0,46,0,0,0,0,0,249,0,117,29,93,0,14,0,0,0,0,0,0,0,0
JP,Japan,country,East Asia and Pacific,36.204824,138.252924,ID,Indonesia,country,East Asia and Pacific,-0.789275,113.921327,4827.02443872358,1988,15977,5198,73,83,7,7,382,77,14,605,9,1439,22,860,6973,80,0,3,29,116,0,0,0,0
KW,Kuwait,country,Middle East and North Africa,29.31166,47.481766,ID,Indonesia,country,East Asia and Pacific,-0.789275,113.921327,7794.10520164378,1988,2,0,0,0,0,0,0,0,0,0,0,2,0,0,0,0,0,0,0,0,0,0,0,0
LY,Libya,country,Middle East and North Africa,26.3351,17.228331,ID,Indonesia,country,East Asia and Pacific,-0.789275,113.921327,10725.3283460739,1988,0,0,0,0,0,0,0,0,0,0,0,0,0,0,0,0,0,0,0,0,0,0,0,0
MW,Malawi,country,Sub-Saharan Africa,-13.254308,34.301525,ID,Indonesia,country,East Asia and Pacific,-0.789275,113.921327,8873.98508572729,1988,26,0,0,0,0,0,0,0,0,0,0,0,0,26,0,0,0,0,0,0,0,0,0,0
MY,Malaysia,country,East Asia and Pacific,4.210484,101.975766,ID,Indonesia,country,East Asia and Pacific,-0.789275,113.921327,1440.61189452569,1988,306180,83,0,18132,0,0,3,12,0,0,0,298,76,701,285825,0,19,0,1050,0,0,0,0,0
ML,Mali,country,Sub-Saharan Africa,17.570692,-3.996166,ID,Indonesia,country,East Asia and Pacific,-0.789275,113.921327,12999.2185839778,1988,421,0,0,0,0,0,0,0,0,421,0,0,0,0,0,0,0,0,0,0,0,0,0,0
MR,Mauritania,country,Sub-Saharan Africa,21.00789,-10.940835,ID,Indonesia,country,East Asia and Pacific,-0.789275,113.921327,13645.7035796884,1988,21,0,0,0,0,0,0,0,0,21,0,0,0,0,0,0,0,0,0,0,0,0,0,0
MX,Mexico,country,Latin America and the Caribbean,23.634501,-102.552784,ID,Indonesia,country,East Asia and Pacific,-0.789275,113.921327,15352.4170755379,1988,5895,0,0,0,0,0,0,0,0,2917,0,0,0,29,2944,5,0,0,0,0,0,0,0,0
MA,Morocco,country,Middle East and North Africa,31.791702,-7.09262,ID,Indonesia,country,East Asia and Pacific,-0.789275,113.921327,12961.3214611377,1988,8,0,0,0,0,0,0,5,0,0,0,0,0,0,0,0,0,0,3,0,0,0,0,0
MZ,Mozambique,country,Sub-Saharan Africa,-18.665695,35.529562,ID,Indonesia,country,East Asia and Pacific,-0.789275,113.921327,8766.83097922704,1988,2703,0,0,0,0,0,0,0,34,120,0,0,0,2549,0,0,0,0,0,0,0,0,0,0
MM,Myanmar,country,East Asia and Pacific,21.913965,95.956223,ID,Indonesia,country,East Asia and Pacific,-0.789275,113.921327,3192.98621015308,1988,70,0,0,0,70,0,0,0,0,0,0,0,0,0,0,0,0,0,0,0,0,0,0,0
NL,Netherlands,country,Europe and Central Asia,52.132633,5.291266,ID,Indonesia,country,East Asia and Pacific,-0.789275,113.921327,11348.3157118067,1988,23852,696,2,2142,0,0,4,798,57,220,0,299,93,1217,15877,147,37,23,2277,0,0,0,0,0
NZ,New Zealand,country,East Asia and Pacific,-40.900557,174.885971,ID,Indonesia,country,East Asia and Pacific,-0.789275,113.921327,7561.27854515998,1988,78751,5,17,524,8385,0,0,901,3,0,0,44998,0,163,294,0,0,566,22895,0,0,0,0,0
NG,Nigeria,country,Sub-Saharan Africa,9.081999,8.675277,ID,Indonesia,country,East Asia and Pacific,-0.789275,113.921327,11708.3556470658,1988,3,0,0,0,0,0,0,0,0,0,0,0,0,0,0,0,0,0,3,0,0,0,0,0
NO,Norway,country,Europe and Central Asia,60.472024,8.468946,ID,Indonesia,country,East Asia and Pacific,-0.789275,113.921327,10935.8125644022,1988,228,0,0,0,0,0,0,0,0,0,0,0,0,0,0,0,0,0,228,0,0,0,0,0
PK,Pakistan,country,South Asia,30.375321,69.345116,ID,Indonesia,country,East Asia and Pacific,-0.789275,113.921327,5854.28796923267,1988,36572,0,0,0,0,0,0,0,0,36572,0,0,0,0,0,0,0,0,0,0,0,0,0,0
PY,Paraguay,country,Latin America and the Caribbean,-23.442503,-58.443832,ID,Indonesia,country,East Asia and Pacific,-0.789275,113.921327,17216.3158826116,1988,226,0,0,0,0,0,0,0,0,226,0,0,0,0,0,0,0,0,0,0,0,0,0,0
PH,Philippines,country,East Asia and Pacific,12.879721,121.774017,ID,Indonesia,country,East Asia and Pacific,-0.789275,113.921327,1751.37024833425,1988,3204,5,0,0,0,0,1035,359,0,20,0,0,0,153,1600,0,0,0,32,0,0,0,0,0
PL,Poland,country,Europe and Central Asia,51.919438,19.145136,ID,Indonesia,country,East Asia and Pacific,-0.789275,113.921327,10415.6828554256,1988,1005,0,0,0,0,0,0,0,0,0,0,0,0,0,0,3,0,0,1002,0,0,0,0,0
KR,"Korea, Rep.",country,East Asia and Pacific,35.907757,127.766922,ID,Indonesia,country,East Asia and Pacific,-0.789275,113.921327,4330.00778247741,1988,35430,10,2,34813,0,0,64,2,0,376,0,28,9,72,4,45,0,0,2,3,0,0,0,0
RO,Romania,country,Europe and Central Asia,45.943161,24.96676,ID,Indonesia,country,East Asia and Pacific,-0.789275,113.921327,10000.9808396908,1988,0,0,0,0,0,0,0,0,0,0,0,0,0,0,0,0,0,0,0,0,0,0,0,0
SA,Saudi Arabia,country,Middle East and North Africa,23.885942,45.079162,ID,Indonesia,country,East Asia and Pacific,-0.789275,113.921327,7911.45331804492,1988,111459,110820,0,0,0,0,0,0,0,550,89,0,0,0,0,0,0,0,0,0,0,0,0,0
SN,Senegal,country,Sub-Saharan Africa,14.497401,-14.452362,ID,Indonesia,country,East Asia and Pacific,-0.789275,113.921327,14158.3465221717,1988,293,0,0,0,0,0,0,0,0,293,0,0,0,0,0,0,0,0,0,0,0,0,0,0
SG,Singapore,country,East Asia and Pacific,1.352083,103.819836,ID,Indonesia,country,East Asia and Pacific,-0.789275,113.921327,1149.4036999638,1988,47794,7434,37,12403,190,2,2610,460,839,135,117,2765,117,1571,18684,128,140,18,284,0,0,0,0,0
ZA,S. Africa,country,Sub-Saharan Africa,-30.559482,22.937506,ID,Indonesia,country,East Asia and Pacific,-0.789275,113.921327,10068.3772915859,1988,398,0,0,0,0,0,0,0,0,398,0,0,0,0,0,0,0,0,0,0,0,0,0,0
ES,Spain,country,Europe and Central Asia,40.463667,-3.74922,ID,Indonesia,country,East Asia and Pacific,-0.789275,113.921327,12382.7992061042,1988,181,0,0,167,0,0,0,0,0,0,0,0,0,0,14,0,0,0,0,0,0,0,0,0
LK,Sri Lanka,country,South Asia,7.873054,80.771797,ID,Indonesia,country,East Asia and Pacific,-0.789275,113.921327,3803.62698150604,1988,16,0,0,0,0,0,0,0,0,0,0,0,0,16,0,0,0,0,0,0,0,0,0,0
SD,Sudan,country,Sub-Saharan Africa,12.862807,30.217636,ID,Indonesia,country,East Asia and Pacific,-0.789275,113.921327,9355.24272607025,1988,676,0,0,0,0,0,0,0,0,676,0,0,0,0,0,0,0,0,0,0,0,0,0,0
SE,Sweden,country,Europe and Central Asia,60.128161,18.643501,ID,Indonesia,country,East Asia and Pacific,-0.789275,113.921327,10387.3276030234,1988,1697,0,0,0,0,0,0,63,0,0,0,73,0,0,151,0,0,0,1410,0,0,0,0,0
CH,Switzerland,country,Europe and Central Asia,46.818188,8.227512,ID,Indonesia,country,East Asia and Pacific,-0.789275,113.921327,11271.3694163961,1988,309,0,0,91,0,0,0,0,31,0,0,0,10,162,0,0,0,0,15,0,0,0,0,0
TH,Thailand,country,East Asia and Pacific,15.870032,100.992541,ID,Indonesia,country,East Asia and Pacific,-0.789275,113.921327,2336.58049517835,1988,303282,35346,243891,11114,8447,0,586,1813,0,36,152,1078,0,711,101,0,88,0,7,0,0,0,0,0
TR,Turkey,country,Europe and Central Asia,38.963745,35.243322,ID,Indonesia,country,East Asia and Pacific,-0.789275,113.921327,9097.27334314872,1988,33182,29900,0,0,1079,3,0,643,0,0,134,0,0,1423,0,0,0,0,0,0,0,0,0,0
AE,United Arab Emirates,country,Middle East and North Africa,23.424076,53.847818,ID,Indonesia,country,East Asia and Pacific,-0.789275,113.921327,7025.54887369428,1988,306,0,0,0,0,0,0,0,0,216,0,90,0,0,0,0,0,0,0,0,0,0,0,0
GB,United Kingdom,country,Europe and Central Asia,55.378051,-3.435973,ID,Indonesia,country,East Asia and Pacific,-0.789275,113.921327,11778.4066263046,1988,2121,560,0,87,0,0,3,3,4,48,0,237,29,116,297,211,18,0,526,0,0,0,0,0
TZ,Tanzania,country,Sub-Saharan Africa,-6.369028,34.888822,ID,Indonesia,country,East Asia and Pacific,-0.789275,113.921327,8795.67576146202,1988,1468,0,0,0,0,0,0,0,0,1458,0,0,0,10,0,0,3,0,0,0,0,0,0,0
US,USA,country,North America,37.09024,-95.712891,ID,Indonesia,country,East Asia and Pacific,-0.789275,113.921327,14978.5673165406,1988,454823,234892,116,807,583,11,114120,982,742,65486,34,18918,81,11191,598,229,370,467,5564,0,2,0,0,0
RU,Russian Federation,country,Europe and Central Asia,61.52401,105.318756,ID,Indonesia,country,East Asia and Pacific,-0.789275,113.921327,6975.2549935928,1988,11928,105,0,0,0,0,0,0,0,11823,0,0,0,0,0,0,0,0,0,0,0,0,0,0
VE,Venezuela,country,Latin America and the Caribbean,6.42375,-66.58973,ID,Indonesia,country,East Asia and Pacific,-0.789275,113.921327,19407.7189544742,1988,90,0,0,0,0,0,0,0,0,90,0,0,0,0,0,0,0,0,0,0,0,0,0,0
VN,Vietnam,country,East Asia and Pacific,14.058324,108.277199,ID,Indonesia,country,East Asia and Pacific,-0.789275,113.921327,1766.084707906,1988,21790,0,9489,0,222,0,10037,0,0,2042,0,0,0,0,0,0,0,0,0,0,0,0,0,0
BA,Bosnia & Herzegovina,country,Europe and Central Asia,43.915886,17.679076,ID,Indonesia,country,East Asia and Pacific,-0.789275,113.921327,10579.9459690121,1988,90,90,0,0,0,0,0,0,0,0,0,0,0,0,0,0,0,0,0,0,0,0,0,0
ZM,Zambia,country,Sub-Saharan Africa,-13.133897,27.849332,ID,Indonesia,country,East Asia and Pacific,-0.789275,113.921327,9572.9757814265,1988,28,0,0,0,0,0,0,0,0,0,0,0,0,28,0,0,0,0,0,0,0,0,0,0
ZW,Zimbabwe,country,Sub-Saharan Africa,-19.015438,29.154857,ID,Indonesia,country,East Asia and Pacific,-0.789275,113.921327,9439.34671079473,1988,1597,0,0,0,0,0,0,0,0,100,0,0,0,1497,0,0,0,0,0,0,0,0,0,0
DZ,Algeria,country,Middle East and North Africa,28.033886,1.659626,ID,Indonesia,country,East Asia and Pacific,-0.789275,113.921327,12237.0743292596,1989,39,0,0,0,0,0,0,0,10,0,0,0,0,0,0,29,0,0,0,0,0,0,0,0
AR,Argentina,country,Latin America and the Caribbean,-38.416097,-63.616672,ID,Indonesia,country,East Asia and Pacific,-0.789275,113.921327,15665.8943196608,1989,12753,9570,0,0,0,0,0,0,0,592,103,1957,0,483,0,0,0,0,48,0,0,0,0,0
AU,Australia,country,East Asia and Pacific,-25.274398,133.775136,ID,Indonesia,country,East Asia and Pacific,-0.789275,113.921327,3461.30835308332,1989,994218,928681,24,388,8,0,15,677,132,31264,2170,12346,54,8502,385,546,12,735,8176,115,0,0,0,0
AT,Austria,country,Europe and Central Asia,47.516231,14.550072,ID,Indonesia,country,East Asia and Pacific,-0.789275,113.921327,10786.7582508511,1989,516,0,0,16,0,0,0,0,10,160,0,0,0,6,45,0,0,0,279,0,0,0,0,0
BD,Bangladesh,country,South Asia,23.684994,90.356331,ID,Indonesia,country,East Asia and Pacific,-0.789275,113.921327,3730.35439733117,1989,58,0,0,0,0,0,0,0,0,0,15,0,0,43,0,0,0,0,0,0,0,0,0,0
BE,Belgium,country,Europe and Central Asia,50.503887,4.469936,ID,Indonesia,country,East Asia and Pacific,-0.789275,113.921327,11449.2836918632,1989,4479,751,0,19,0,0,0,0,0,109,0,132,0,86,156,16,0,0,3210,0,0,0,0,0
BJ,Benin,country,Sub-Saharan Africa,9.30769,2.315834,ID,Indonesia,country,East Asia and Pacific,-0.789275,113.921327,12405.6670474404,1989,75,0,0,0,0,0,0,0,0,75,0,0,0,0,0,0,0,0,0,0,0,0,0,0
BR,Brazil,country,Latin America and the Caribbean,-14.235004,-51.92528,ID,Indonesia,country,East Asia and Pacific,-0.789275,113.921327,17750.4246236607,1989,138778,0,0,33010,0,0,59575,0,162,30201,0,13885,0,1696,249,0,0,0,0,0,0,0,0,0
BG,Bulgaria,country,Europe and Central Asia,42.733883,25.48583,ID,Indonesia,country,East Asia and Pacific,-0.789275,113.921327,9950.47882303328,1989,31,0,0,0,0,0,0,0,0,0,31,0,0,0,0,0,0,0,0,0,0,0,0,0
BF,Burkina Faso,country,Sub-Saharan Africa,12.238333,-1.561593,ID,Indonesia,country,East Asia and Pacific,-0.789275,113.921327,12806.8538266893,1989,300,0,0,0,0,0,0,0,0,300,0,0,0,0,0,0,0,0,0,0,0,0,0,0
CM,Cameroon,country,Sub-Saharan Africa,7.369722,12.354722,ID,Indonesia,country,East Asia and Pacific,-0.789275,113.921327,11306.9397828883,1989,670,0,0,0,0,0,0,0,0,670,0,0,0,0,0,0,0,0,0,0,0,0,0,0
CA,Canada,country,North America,56.130366,-106.346771,ID,Indonesia,country,East Asia and Pacific,-0.789275,113.921327,12900.7589703636,1989,299437,273860,511,1,15,0,0,183,6,0,0,24638,7,24,56,0,17,0,136,0,0,0,0,0
CF,Central African Rep.,country,Sub-Saharan Africa,6.611111,20.939444,ID,Indonesia,country,East Asia and Pacific,-0.789275,113.921327,10358.5844479579,1989,36,0,0,0,0,0,0,0,0,36,0,0,0,0,0,0,0,0,0,0,0,0,0,0
TD,Chad,country,Sub-Saharan Africa,15.454166,18.732207,ID,Indonesia,country,East Asia and Pacific,-0.789275,113.921327,10598.9164684093,1989,519,0,0,0,0,0,0,0,0,519,0,0,0,0,0,0,0,0,0,0,0,0,0,0
CL,Chile,country,Latin America and the Caribbean,-35.675147,-71.542969,ID,Indonesia,country,East Asia and Pacific,-0.789275,113.921327,15938.8600047203,1989,2627,0,0,0,0,0,0,114,2,398,0,1911,0,155,47,0,0,0,0,0,0,0,0,0
HK,Hong Kong,country,East Asia and Pacific,22.396428,114.109497,ID,Indonesia,country,East Asia and Pacific,-0.789275,113.921327,2581.10141824003,1989,3567,193,0,127,5,0,46,113,67,736,10,1416,9,797,16,1,0,31,0,0,0,0,0,0
CN,China,country,East Asia and Pacific,35.86166,104.195397,ID,Indonesia,country,East Asia and Pacific,-0.789275,113.921327,4202.82765587934,1989,519730,25669,18,41621,7021,8,199948,19793,746,48433,2217,168338,341,5081,277,12,0,52,155,0,0,0,0,0
TW,Taiwan,country,East Asia and Pacific,23.69781,120.960515,ID,Indonesia,country,East Asia and Pacific,-0.789275,113.921327,2830.21682941926,1989,69921,165,1,104,38,3,731,730,523,1313,101,64062,34,1343,667,38,0,28,40,0,0,0,0,0
CO,Colombia,country,Latin America and the Caribbean,4.570868,-74.297333,ID,Indonesia,country,East Asia and Pacific,-0.789275,113.921327,19031.4717678808,1989,600,0,0,0,0,0,0,0,0,600,0,0,0,0,0,0,0,0,0,0,0,0,0,0
CI,Ivory Coast,country,Sub-Saharan Africa,7.539989,-5.54708,ID,Indonesia,country,East Asia and Pacific,-0.789275,113.921327,13280.9184302216,1989,6651,0,0,0,0,0,0,0,0,6651,0,0,0,0,0,0,0,0,0,0,0,0,0,0
CU,Cuba,country,Latin America and the Caribbean,21.521757,-77.781167,ID,Indonesia,country,East Asia and Pacific,-0.789275,113.921327,17403.1418748808,1989,24385,0,0,24385,0,0,0,0,0,0,0,0,0,0,0,0,0,0,0,0,0,0,0,0
CZ,Czech Republic,country,Europe and Central Asia,49.817492,15.472962,ID,Indonesia,country,East Asia and Pacific,-0.789275,113.921327,10691.6844305351,1989,1063,0,0,0,0,0,0,0,0,349,0,36,0,7,0,0,0,0,671,0,0,0,0,0
KP,"Korea, Dem. Rep.",country,East Asia and Pacific,40.339852,127.510093,ID,Indonesia,country,East Asia and Pacific,-0.789275,113.921327,4781.67904222699,1989,84,0,0,30,0,0,0,19,0,0,0,35,0,0,0,0,0,0,0,0,0,0,0,0
DK,Denmark,country,Europe and Central Asia,56.26392,9.501785,ID,Indonesia,country,East Asia and Pacific,-0.789275,113.921327,10977.4230185562,1989,1105,32,0,7,150,0,0,0,0,88,0,279,0,257,12,1,0,0,279,0,0,0,0,0
EG,Egypt,country,Middle East and North Africa,26.820553,30.802498,ID,Indonesia,country,East Asia and Pacific,-0.789275,113.921327,9375.40807616481,1989,1976,0,0,0,0,0,0,30,0,58,1886,0,0,0,0,0,0,2,0,0,0,0,0,0
FI,Finland,country,Europe and Central Asia,61.92411,25.748151,ID,Indonesia,country,East Asia and Pacific,-0.789275,113.921327,10000.589548905,1989,107,0,2,90,0,0,0,0,0,0,0,15,0,0,0,0,0,0,0,0,0,0,0,0
FR,France,country,Europe and Central Asia,46.227638,2.213749,ID,Indonesia,country,East Asia and Pacific,-0.789275,113.921327,11734.6648161454,1989,7577,3560,33,686,0,0,3,29,19,1,0,648,4,1072,40,275,72,0,1207,0,0,0,0,0
GA,Gabon,country,Sub-Saharan Africa,-0.803689,11.609444,ID,Indonesia,country,East Asia and Pacific,-0.789275,113.921327,11387.7763803947,1989,118,0,0,0,0,0,0,0,0,100,0,18,0,0,0,0,0,0,0,0,0,0,0,0
GH,Ghana,country,Sub-Saharan Africa,7.946527,-1.023194,ID,Indonesia,country,East Asia and Pacific,-0.789275,113.921327,12780.2041160139,1989,40,0,0,0,0,0,0,0,0,40,0,0,0,0,0,0,0,0,0,0,0,0,0,0
GR,Greece,country,Europe and Central Asia,39.074208,21.824312,ID,Indonesia,country,East Asia and Pacific,-0.789275,113.921327,10255.3560508549,1989,486,0,0,0,0,0,0,0,0,0,0,16,0,470,0,0,0,0,0,0,0,0,0,0
HU,Hungary,country,Europe and Central Asia,47.162494,19.503304,ID,Indonesia,country,East Asia and Pacific,-0.789275,113.921327,10417.4700368974,1989,130,0,0,0,0,0,0,0,0,0,0,76,0,0,0,0,0,0,54,0,0,0,0,0
IN,India,country,South Asia,20.593684,78.96288,ID,Indonesia,country,East Asia and Pacific,-0.789275,113.921327,4490.02273639644,1989,87081,0,0,0,80,0,2673,291,27,279,60,82180,0,1491,0,0,0,0,0,0,0,0,0,0
IR,Iran,country,Middle East and North Africa,32.427908,53.688046,ID,Indonesia,country,East Asia and Pacific,-0.789275,113.921327,7312.90037284249,1989,1267,0,0,0,0,0,0,0,18,0,1249,0,0,0,0,0,0,0,0,0,0,0,0,0
IQ,Iraq,country,Middle East and North Africa,33.223191,43.679291,ID,Indonesia,country,East Asia and Pacific,-0.789275,113.921327,8240.43138544311,1989,2959,0,0,0,0,0,0,0,2959,0,0,0,0,0,0,0,0,0,0,0,0,0,0,0
IE,Ireland,country,Europe and Central Asia,53.41291,-8.24389,ID,Indonesia,country,East Asia and Pacific,-0.789275,113.921327,12152.5454027726,1989,1742,0,0,0,0,0,0,0,0,0,0,0,0,187,0,0,0,0,1555,0,0,0,0,0
IT,Italy,country,Europe and Central Asia,41.87194,12.56738,ID,Indonesia,country,East Asia and Pacific,-0.789275,113.921327,11016.3839915023,1989,1283,146,0,449,0,0,0,0,0,115,0,80,30,209,32,26,0,1,195,0,0,0,0,0
JP,Japan,country,East Asia and Pacific,36.204824,138.252924,ID,Indonesia,country,East Asia and Pacific,-0.789275,113.921327,4827.02443872358,1989,22291,14011,24,547,5,2,30,224,78,848,86,3458,94,1029,1096,110,0,53,531,65,0,0,0,0
JO,Jordan,country,Middle East and North Africa,30.585164,36.238414,ID,Indonesia,country,East Asia and Pacific,-0.789275,113.921327,8886.32835353574,1989,4,0,0,0,0,0,0,0,0,0,0,0,0,4,0,0,0,0,0,0,0,0,0,0
KW,Kuwait,country,Middle East and North Africa,29.31166,47.481766,ID,Indonesia,country,East Asia and Pacific,-0.789275,113.921327,7794.10520164378,1989,40,0,0,0,0,0,0,0,0,0,40,0,0,0,0,0,0,0,0,0,0,0,0,0
LA,Lao PDR,country,East Asia and Pacific,19.85627,102.495496,ID,Indonesia,country,East Asia and Pacific,-0.789275,113.921327,2614.70499130012,1989,3,3,0,0,0,0,0,0,0,0,0,0,0,0,0,0,0,0,0,0,0,0,0,0
MW,Malawi,country,Sub-Saharan Africa,-13.254308,34.301525,ID,Indonesia,country,East Asia and Pacific,-0.789275,113.921327,8873.98508572729,1989,188,0,0,0,0,0,0,0,0,188,0,0,0,0,0,0,0,0,0,0,0,0,0,0
MY,Malaysia,country,East Asia and Pacific,4.210484,101.975766,ID,Indonesia,country,East Asia and Pacific,-0.789275,113.921327,1440.61189452569,1989,433862,12,0,29500,6,0,4,150,67,0,98,986,171,1296,400978,0,0,3,591,0,0,0,0,0
ML,Mali,country,Sub-Saharan Africa,17.570692,-3.996166,ID,Indonesia,country,East Asia and Pacific,-0.789275,113.921327,12999.2185839778,1989,297,0,0,0,0,0,0,0,0,297,0,0,0,0,0,0,0,0,0,0,0,0,0,0
MX,Mexico,country,Latin America and the Caribbean,23.634501,-102.552784,ID,Indonesia,country,East Asia and Pacific,-0.789275,113.921327,15352.4170755379,1989,11456,0,0,0,0,0,0,0,0,11449,0,0,0,0,0,7,0,0,0,0,0,0,0,0
MZ,Mozambique,country,Sub-Saharan Africa,-18.665695,35.529562,ID,Indonesia,country,East Asia and Pacific,-0.789275,113.921327,8766.83097922704,1989,901,0,0,0,0,0,0,0,0,272,0,0,0,629,0,0,0,0,0,0,0,0,0,0
MM,Myanmar,country,East Asia and Pacific,21.913965,95.956223,ID,Indonesia,country,East Asia and Pacific,-0.789275,113.921327,3192.98621015308,1989,487,0,0,0,58,0,4,0,0,0,0,423,2,0,0,0,0,0,0,0,0,0,0,0
NL,Netherlands,country,Europe and Central Asia,52.132633,5.291266,ID,Indonesia,country,East Asia and Pacific,-0.789275,113.921327,11348.3157118067,1989,12156,702,40,1478,3,0,4,1378,88,0,0,661,82,874,867,291,71,24,5664,0,0,0,0,0
NZ,New Zealand,country,East Asia and Pacific,-40.900557,174.885971,ID,Indonesia,country,East Asia and Pacific,-0.789275,113.921327,7561.27854515998,1989,66124,0,5,765,6367,0,0,1113,0,4,0,46032,1,55,261,0,0,883,10638,0,0,0,0,0
NO,Norway,country,Europe and Central Asia,60.472024,8.468946,ID,Indonesia,country,East Asia and Pacific,-0.789275,113.921327,10935.8125644022,1989,78,0,0,0,0,0,0,0,0,0,0,78,0,0,0,0,0,0,0,0,0,0,0,0
OM,Oman,country,Middle East and North Africa,21.512583,55.923255,ID,Indonesia,country,East Asia and Pacific,-0.789275,113.921327,6767.69700646654,1989,18,0,0,0,0,0,0,0,0,0,0,0,0,0,0,0,0,0,18,0,0,0,0,0
PK,Pakistan,country,South Asia,30.375321,69.345116,ID,Indonesia,country,East Asia and Pacific,-0.789275,113.921327,5854.28796923267,1989,45924,0,0,0,0,0,0,0,0,45924,0,0,0,0,0,0,0,0,0,0,0,0,0,0
PG,Papua New Guinea,country,East Asia and Pacific,-6.314993,143.95555,ID,Indonesia,country,East Asia and Pacific,-0.789275,113.921327,3391.75028819521,1989,28,0,0,0,0,0,0,28,0,0,0,0,0,0,0,0,0,0,0,0,0,0,0,0
PY,Paraguay,country,Latin America and the Caribbean,-23.442503,-58.443832,ID,Indonesia,country,East Asia and Pacific,-0.789275,113.921327,17216.3158826116,1989,111,0,0,0,0,0,0,0,0,111,0,0,0,0,0,0,0,0,0,0,0,0,0,0
PH,Philippines,country,East Asia and Pacific,12.879721,121.774017,ID,Indonesia,country,East Asia and Pacific,-0.789275,113.921327,1751.37024833425,1989,29718,16018,0,0,0,0,12974,571,0,88,0,3,0,64,0,0,0,0,0,0,0,0,0,0
PL,Poland,country,Europe and Central Asia,51.919438,19.145136,ID,Indonesia,country,East Asia and Pacific,-0.789275,113.921327,10415.6828554256,1989,60,0,0,0,0,0,0,0,0,0,0,0,0,0,0,0,0,0,60,0,0,0,0,0
PT,Portugal,country,Europe and Central Asia,39.399872,-8.224454,ID,Indonesia,country,East Asia and Pacific,-0.789275,113.921327,12782.3268839901,1989,2,0,0,0,0,0,0,0,0,0,0,0,0,2,0,0,0,0,0,0,0,0,0,0
KR,"Korea, Rep.",country,East Asia and Pacific,35.907757,127.766922,ID,Indonesia,country,East Asia and Pacific,-0.789275,113.921327,4330.00778247741,1989,33307,41,2,28655,55,0,11,31,130,2172,504,1543,0,75,3,85,0,0,0,0,0,0,0,0
SA,Saudi Arabia,country,Middle East and North Africa,23.885942,45.079162,ID,Indonesia,country,East Asia and Pacific,-0.789275,113.921327,7911.45331804492,1989,145793,144802,0,0,0,0,0,0,2,197,792,0,0,0,0,0,0,0,0,0,0,0,0,0
SN,Senegal,country,Sub-Saharan Africa,14.497401,-14.452362,ID,Indonesia,country,East Asia and Pacific,-0.789275,113.921327,14158.3465221717,1989,325,0,0,0,0,0,0,0,0,325,0,0,0,0,0,0,0,0,0,0,0,0,0,0
SG,Singapore,country,East Asia and Pacific,1.352083,103.819836,ID,Indonesia,country,East Asia and Pacific,-0.789275,113.921327,1149.4036999638,1989,38278,4496,72,1663,260,40,1220,951,1317,300,574,9055,136,1080,15400,536,0,222,835,121,0,0,0,0
ES,Spain,country,Europe and Central Asia,40.463667,-3.74922,ID,Indonesia,country,East Asia and Pacific,-0.789275,113.921327,12382.7992061042,1989,800,0,0,187,0,0,0,0,0,564,0,11,4,12,9,13,0,0,0,0,0,0,0,0
LK,Sri Lanka,country,South Asia,7.873054,80.771797,ID,Indonesia,country,East Asia and Pacific,-0.789275,113.921327,3803.62698150604,1989,16,0,0,0,0,0,0,0,0,0,0,0,0,16,0,0,0,0,0,0,0,0,0,0
SD,Sudan,country,Sub-Saharan Africa,12.862807,30.217636,ID,Indonesia,country,East Asia and Pacific,-0.789275,113.921327,9355.24272607025,1989,622,0,0,0,0,0,0,0,0,622,0,0,0,0,0,0,0,0,0,0,0,0,0,0
SE,Sweden,country,Europe and Central Asia,60.128161,18.643501,ID,Indonesia,country,East Asia and Pacific,-0.789275,113.921327,10387.3276030234,1989,715,0,0,0,0,0,0,201,0,0,0,17,0,40,69,0,0,0,388,0,0,0,0,0
CH,Switzerland,country,Europe and Central Asia,46.818188,8.227512,ID,Indonesia,country,East Asia and Pacific,-0.789275,113.921327,11271.3694163961,1989,648,0,0,14,0,0,1,0,38,422,0,4,27,133,0,0,0,0,9,0,0,0,0,0
TH,Thailand,country,East Asia and Pacific,15.870032,100.992541,ID,Indonesia,country,East Asia and Pacific,-0.789275,113.921327,2336.58049517835,1989,456578,255448,4,165279,14567,0,624,13419,123,122,237,4786,19,1800,148,0,3,2,0,0,0,0,0,0
TG,Togo,country,Sub-Saharan Africa,8.619543,0.824782,ID,Indonesia,country,East Asia and Pacific,-0.789275,113.921327,12573.1968391574,1989,318,0,0,0,0,0,0,16,0,302,0,0,0,0,0,0,0,0,0,0,0,0,0,0
TR,Turkey,country,Europe and Central Asia,38.963745,35.243322,ID,Indonesia,country,East Asia and Pacific,-0.789275,113.921327,9097.27334314872,1989,35631,33510,0,0,0,0,0,964,0,0,230,0,0,927,0,0,0,0,0,0,0,0,0,0
AE,United Arab Emirates,country,Middle East and North Africa,23.424076,53.847818,ID,Indonesia,country,East Asia and Pacific,-0.789275,113.921327,7025.54887369428,1989,262,0,0,0,0,0,0,0,0,0,0,262,0,0,0,0,0,0,0,0,0,0,0,0
GB,United Kingdom,country,Europe and Central Asia,55.378051,-3.435973,ID,Indonesia,country,East Asia and Pacific,-0.789275,113.921327,11778.4066263046,1989,79234,77218,0,11,0,0,4,16,70,199,0,514,25,131,692,234,16,17,103,0,0,0,0,0
TZ,Tanzania,country,Sub-Saharan Africa,-6.369028,34.888822,ID,Indonesia,country,East Asia and Pacific,-0.789275,113.921327,8795.67576146202,1989,1385,0,0,0,0,0,0,0,0,1385,0,0,0,0,0,0,0,0,0,0,0,0,0,0
US,USA,country,North America,37.09024,-95.712891,ID,Indonesia,country,East Asia and Pacific,-0.789275,113.921327,14978.5673165406,1989,572199,315815,1332,382,184,62,140095,945,1161,81744,23,11589,48,14999,682,210,231,363,2565,0,0,0,0,0
RU,Russian Federation,country,Europe and Central Asia,61.52401,105.318756,ID,Indonesia,country,East Asia and Pacific,-0.789275,113.921327,6975.2549935928,1989,16062,0,0,0,0,0,0,0,0,16062,0,0,0,0,0,0,0,0,0,0,0,0,0,0
VN,Vietnam,country,East Asia and Pacific,14.058324,108.277199,ID,Indonesia,country,East Asia and Pacific,-0.789275,113.921327,1766.084707906,1989,15245,4954,0,0,143,0,9001,451,0,635,8,0,53,0,0,0,0,0,0,0,0,0,0,0
BA,Bosnia & Herzegovina,country,Europe and Central Asia,43.915886,17.679076,ID,Indonesia,country,East Asia and Pacific,-0.789275,113.921327,10579.9459690121,1989,0,0,0,0,0,0,0,0,0,0,0,0,0,0,0,0,0,0,0,0,0,0,0,0
ZM,Zambia,country,Sub-Saharan Africa,-13.133897,27.849332,ID,Indonesia,country,East Asia and Pacific,-0.789275,113.921327,9572.9757814265,1989,39,0,0,0,0,0,0,0,0,0,0,0,0,39,0,0,0,0,0,0,0,0,0,0
ZW,Zimbabwe,country,Sub-Saharan Africa,-19.015438,29.154857,ID,Indonesia,country,East Asia and Pacific,-0.789275,113.921327,9439.34671079473,1989,18456,15900,0,0,0,0,0,0,69,100,0,0,0,2387,0,0,0,0,0,0,0,0,0,0
DZ,Algeria,country,Middle East and North Africa,28.033886,1.659626,ID,Indonesia,country,East Asia and Pacific,-0.789275,113.921327,12237.0743292596,1990,0,0,0,0,0,0,0,0,0,0,0,0,0,0,0,0,0,0,0,0,0,0,0,0
AR,Argentina,country,Latin America and the Caribbean,-38.416097,-63.616672,ID,Indonesia,country,East Asia and Pacific,-0.789275,113.921327,15665.8943196608,1990,296722,243404,0,0,0,0,45170,0,0,4520,0,2463,82,1083,0,0,0,0,0,0,0,0,0,0
AU,Australia,country,East Asia and Pacific,-25.274398,133.775136,ID,Indonesia,country,East Asia and Pacific,-0.789275,113.921327,3461.30835308332,1990,756976,656315,57,560,14,0,17,825,843,56151,691,17917,172,10165,745,1046,41,1658,9394,406,0,0,0,0
AT,Austria,country,Europe and Central Asia,47.516231,14.550072,ID,Indonesia,country,East Asia and Pacific,-0.789275,113.921327,10786.7582508511,1990,309,0,6,38,0,0,0,0,0,0,0,56,0,4,0,20,0,0,185,0,0,0,0,0
BD,Bangladesh,country,South Asia,23.684994,90.356331,ID,Indonesia,country,East Asia and Pacific,-0.789275,113.921327,3730.35439733117,1990,1950,0,0,0,0,0,0,0,0,1902,13,0,0,35,0,0,0,0,0,0,0,0,0,0
BE,Belgium,country,Europe and Central Asia,50.503887,4.469936,ID,Indonesia,country,East Asia and Pacific,-0.789275,113.921327,11449.2836918632,1990,2468,785,42,18,0,0,0,0,19,108,0,536,21,158,102,28,0,0,651,0,0,0,0,0
BJ,Benin,country,Sub-Saharan Africa,9.30769,2.315834,ID,Indonesia,country,East Asia and Pacific,-0.789275,113.921327,12405.6670474404,1990,430,0,0,0,0,0,0,0,0,430,0,0,0,0,0,0,0,0,0,0,0,0,0,0
BO,Bolivia,country,Latin America and the Caribbean,-16.290154,-63.588653,ID,Indonesia,country,East Asia and Pacific,-0.789275,113.921327,18116.653043458,1990,2,0,0,0,0,0,0,0,0,0,0,0,0,0,2,0,0,0,0,0,0,0,0,0
BR,Brazil,country,Latin America and the Caribbean,-14.235004,-51.92528,ID,Indonesia,country,East Asia and Pacific,-0.789275,113.921327,17750.4246236607,1990,118660,0,0,0,0,0,93900,0,146,22082,0,32,0,2490,0,10,0,0,0,0,0,0,0,0
BN,Brunei Darussalam,country,,4.535277,114.727669,ID,Indonesia,country,East Asia and Pacific,-0.789275,113.921327,599.472541609892,1990,75,0,0,0,0,0,0,0,0,75,0,0,0,0,0,0,0,0,0,0,0,0,0,0
BG,Bulgaria,country,Europe and Central Asia,42.733883,25.48583,ID,Indonesia,country,East Asia and Pacific,-0.789275,113.921327,9950.47882303328,1990,629,0,0,0,0,0,0,0,0,80,549,0,0,0,0,0,0,0,0,0,0,0,0,0
BF,Burkina Faso,country,Sub-Saharan Africa,12.238333,-1.561593,ID,Indonesia,country,East Asia and Pacific,-0.789275,113.921327,12806.8538266893,1990,1175,0,0,0,0,0,0,0,0,1175,0,0,0,0,0,0,0,0,0,0,0,0,0,0
CM,Cameroon,country,Sub-Saharan Africa,7.369722,12.354722,ID,Indonesia,country,East Asia and Pacific,-0.789275,113.921327,11306.9397828883,1990,200,0,0,0,0,0,0,0,0,200,0,0,0,0,0,0,0,0,0,0,0,0,0,0
CA,Canada,country,North America,56.130366,-106.346771,ID,Indonesia,country,East Asia and Pacific,-0.789275,113.921327,12900.7589703636,1990,271986,239990,568,3,0,0,0,74,191,36,0,30977,16,41,0,1,13,29,60,0,0,0,0,0
CF,Central African Rep.,country,Sub-Saharan Africa,6.611111,20.939444,ID,Indonesia,country,East Asia and Pacific,-0.789275,113.921327,10358.5844479579,1990,249,0,0,0,0,0,0,0,0,249,0,0,0,0,0,0,0,0,0,0,0,0,0,0
TD,Chad,country,Sub-Saharan Africa,15.454166,18.732207,ID,Indonesia,country,East Asia and Pacific,-0.789275,113.921327,10598.9164684093,1990,50056,0,0,0,0,0,0,0,0,50056,0,0,0,0,0,0,0,0,0,0,0,0,0,0
CL,Chile,country,Latin America and the Caribbean,-35.675147,-71.542969,ID,Indonesia,country,East Asia and Pacific,-0.789275,113.921327,15938.8600047203,1990,3170,0,0,0,0,0,0,0,19,36,0,2881,0,234,0,0,0,0,0,0,0,0,0,0
HK,Hong Kong,country,East Asia and Pacific,22.396428,114.109497,ID,Indonesia,country,East Asia and Pacific,-0.789275,113.921327,2581.10141824003,1990,7483,38,0,56,218,4,30,86,181,3484,63,1978,16,1214,44,0,0,67,4,0,0,0,0,0
CN,China,country,East Asia and Pacific,35.86166,104.195397,ID,Indonesia,country,East Asia and Pacific,-0.789275,113.921327,4202.82765587934,1990,553071,510,2,49218,24861,15,343850,18663,1618,35812,2258,60252,3103,11432,263,277,0,676,231,30,0,0,0,0
TW,Taiwan,country,East Asia and Pacific,23.69781,120.960515,ID,Indonesia,country,East Asia and Pacific,-0.789275,113.921327,2830.21682941926,1990,49607,184,0,18,6640,0,26,431,364,1025,44,38370,2,1025,1408,3,0,36,31,0,0,0,0,0
CI,Ivory Coast,country,Sub-Saharan Africa,7.539989,-5.54708,ID,Indonesia,country,East Asia and Pacific,-0.789275,113.921327,13280.9184302216,1990,8388,0,0,0,0,0,0,0,0,8388,0,0,0,0,0,0,0,0,0,0,0,0,0,0
CZ,Czech Republic,country,Europe and Central Asia,49.817492,15.472962,ID,Indonesia,country,East Asia and Pacific,-0.789275,113.921327,10691.6844305351,1990,4920,0,0,0,0,0,0,0,0,150,0,0,0,0,0,0,0,0,4770,0,0,0,0,0
KP,"Korea, Dem. Rep.",country,East Asia and Pacific,40.339852,127.510093,ID,Indonesia,country,East Asia and Pacific,-0.789275,113.921327,4781.67904222699,1990,2515,0,0,0,0,0,2478,0,0,0,0,36,0,1,0,0,0,0,0,0,0,0,0,0
DK,Denmark,country,Europe and Central Asia,56.26392,9.501785,ID,Indonesia,country,East Asia and Pacific,-0.789275,113.921327,10977.4230185562,1990,1043,0,0,0,0,0,0,0,5,0,0,564,3,171,99,0,0,0,201,0,0,0,0,0
EG,Egypt,country,Middle East and North Africa,26.820553,30.802498,ID,Indonesia,country,East Asia and Pacific,-0.789275,113.921327,9375.40807616481,1990,3414,0,0,0,0,0,0,0,0,0,3222,180,0,0,0,0,0,0,0,12,0,0,0,0
ET,Ethiopia,country,Sub-Saharan Africa,9.145,40.489673,ID,Indonesia,country,East Asia and Pacific,-0.789275,113.921327,8213.20522773201,1990,123,0,0,0,0,0,0,0,0,109,0,0,0,0,0,0,0,0,0,14,0,0,0,0
FI,Finland,country,Europe and Central Asia,61.92411,25.748151,ID,Indonesia,country,East Asia and Pacific,-0.789275,113.921327,10000.589548905,1990,7,0,0,4,0,0,0,0,0,0,0,0,0,0,0,0,0,3,0,0,0,0,0,0
FR,France,country,Europe and Central Asia,46.227638,2.213749,ID,Indonesia,country,East Asia and Pacific,-0.789275,113.921327,11734.6648161454,1990,8628,4634,0,1018,1,0,3,30,11,403,1,426,0,1222,16,241,25,16,606,0,0,0,0,0
GA,Gabon,country,Sub-Saharan Africa,-0.803689,11.609444,ID,Indonesia,country,East Asia and Pacific,-0.789275,113.921327,11387.7763803947,1990,906,0,0,0,0,0,0,0,0,906,0,0,0,0,0,0,0,0,0,0,0,0,0,0
GH,Ghana,country,Sub-Saharan Africa,7.946527,-1.023194,ID,Indonesia,country,East Asia and Pacific,-0.789275,113.921327,12780.2041160139,1990,300,0,0,0,0,0,0,0,0,0,0,0,0,300,0,0,0,0,0,0,0,0,0,0
GR,Greece,country,Europe and Central Asia,39.074208,21.824312,ID,Indonesia,country,East Asia and Pacific,-0.789275,113.921327,10255.3560508549,1990,2249,0,0,0,0,0,0,0,0,0,0,20,0,2229,0,0,0,0,0,0,0,0,0,0
GT,Guatemala,country,Latin America and the Caribbean,15.783471,-90.230759,ID,Indonesia,country,East Asia and Pacific,-0.789275,113.921327,16903.9674450547,1990,27054,0,0,27000,0,0,0,0,0,54,0,0,0,0,0,0,0,0,0,0,0,0,0,0
HN,Honduras,country,Latin America and the Caribbean,15.199999,-86.241905,ID,Indonesia,country,East Asia and Pacific,-0.789275,113.921327,17301.5703638189,1990,54,0,0,0,0,0,0,0,0,54,0,0,0,0,0,0,0,0,0,0,0,0,0,0
HU,Hungary,country,Europe and Central Asia,47.162494,19.503304,ID,Indonesia,country,East Asia and Pacific,-0.789275,113.921327,10417.4700368974,1990,86,22,0,0,0,0,0,0,0,0,0,10,0,0,0,0,0,0,54,0,0,0,0,0
IN,India,country,South Asia,20.593684,78.96288,ID,Indonesia,country,East Asia and Pacific,-0.789275,113.921327,4490.02273639644,1990,140437,0,0,0,0,0,500,52,0,18143,127,120013,0,1568,34,0,0,0,0,0,0,0,0,0
IR,Iran,country,Middle East and North Africa,32.427908,53.688046,ID,Indonesia,country,East Asia and Pacific,-0.789275,113.921327,7312.90037284249,1990,4779,0,0,0,0,0,0,0,1983,0,2796,0,0,0,0,0,0,0,0,0,0,0,0,0
IQ,Iraq,country,Middle East and North Africa,33.223191,43.679291,ID,Indonesia,country,East Asia and Pacific,-0.789275,113.921327,8240.43138544311,1990,7834,0,0,0,0,0,7,0,7662,0,0,0,0,165,0,0,0,0,0,0,0,0,0,0
IE,Ireland,country,Europe and Central Asia,53.41291,-8.24389,ID,Indonesia,country,East Asia and Pacific,-0.789275,113.921327,12152.5454027726,1990,762,0,0,0,0,0,0,0,0,0,0,0,0,250,0,0,0,0,496,16,0,0,0,0
IT,Italy,country,Europe and Central Asia,41.87194,12.56738,ID,Indonesia,country,East Asia and Pacific,-0.789275,113.921327,11016.3839915023,1990,819,44,0,160,0,0,0,5,7,256,0,70,33,230,2,12,0,0,0,0,0,0,0,0
JP,Japan,country,East Asia and Pacific,36.204824,138.252924,ID,Indonesia,country,East Asia and Pacific,-0.789275,113.921327,4827.02443872358,1990,23544,19173,17,208,507,0,15,74,123,730,66,1302,46,824,269,94,0,23,47,26,0,0,0,0
JO,Jordan,country,Middle East and North Africa,30.585164,36.238414,ID,Indonesia,country,East Asia and Pacific,-0.789275,113.921327,8886.32835353574,1990,0,0,0,0,0,0,0,0,0,0,0,0,0,0,0,0,0,0,0,0,0,0,0,0
KW,Kuwait,country,Middle East and North Africa,29.31166,47.481766,ID,Indonesia,country,East Asia and Pacific,-0.789275,113.921327,7794.10520164378,1990,0,0,0,0,0,0,0,0,0,0,0,0,0,0,0,0,0,0,0,0,0,0,0,0
LY,Libya,country,Middle East and North Africa,26.3351,17.228331,ID,Indonesia,country,East Asia and Pacific,-0.789275,113.921327,10725.3283460739,1990,323,0,0,0,323,0,0,0,0,0,0,0,0,0,0,0,0,0,0,0,0,0,0,0
MW,Malawi,country,Sub-Saharan Africa,-13.254308,34.301525,ID,Indonesia,country,East Asia and Pacific,-0.789275,113.921327,8873.98508572729,1990,323,0,0,0,0,0,0,0,0,100,0,0,0,223,0,0,0,0,0,0,0,0,0,0
MY,Malaysia,country,East Asia and Pacific,4.210484,101.975766,ID,Indonesia,country,East Asia and Pacific,-0.789275,113.921327,1440.61189452569,1990,33031,58,2,28814,6,3,125,193,74,24,149,1223,107,948,693,0,0,8,601,3,0,0,0,0
ML,Mali,country,Sub-Saharan Africa,17.570692,-3.996166,ID,Indonesia,country,East Asia and Pacific,-0.789275,113.921327,12999.2185839778,1990,861,0,0,0,0,0,0,0,0,861,0,0,0,0,0,0,0,0,0,0,0,0,0,0
MX,Mexico,country,Latin America and the Caribbean,23.634501,-102.552784,ID,Indonesia,country,East Asia and Pacific,-0.789275,113.921327,15352.4170755379,1990,2710,0,0,0,0,0,0,0,0,2542,0,0,0,164,0,4,0,0,0,0,0,0,0,0
MZ,Mozambique,country,Sub-Saharan Africa,-18.665695,35.529562,ID,Indonesia,country,East Asia and Pacific,-0.789275,113.921327,8766.83097922704,1990,1186,0,0,0,0,0,0,0,0,173,0,0,304,709,0,0,0,0,0,0,0,0,0,0
MM,Myanmar,country,East Asia and Pacific,21.913965,95.956223,ID,Indonesia,country,East Asia and Pacific,-0.789275,113.921327,3192.98621015308,1990,1327,0,0,0,86,0,143,0,0,0,0,1098,0,0,0,0,0,0,0,0,0,0,0,0
NL,Netherlands,country,Europe and Central Asia,52.132633,5.291266,ID,Indonesia,country,East Asia and Pacific,-0.789275,113.921327,11348.3157118067,1990,11604,584,26,1842,336,0,155,1409,105,6,4,534,90,1230,1540,298,21,66,3379,0,0,0,0,0
NZ,New Zealand,country,East Asia and Pacific,-40.900557,174.885971,ID,Indonesia,country,East Asia and Pacific,-0.789275,113.921327,7561.27854515998,1990,79354,80,14,874,8949,0,0,1387,221,0,0,52318,0,103,285,4,0,1430,13689,0,0,0,0,0
NI,Nicaragua,country,Latin America and the Caribbean,12.865416,-85.207229,ID,Indonesia,country,East Asia and Pacific,-0.789275,113.921327,17535.618624703,1990,33,0,0,0,0,0,0,0,0,33,0,0,0,0,0,0,0,0,0,0,0,0,0,0
NO,Norway,country,Europe and Central Asia,60.472024,8.468946,ID,Indonesia,country,East Asia and Pacific,-0.789275,113.921327,10935.8125644022,1990,149,0,0,0,0,0,0,0,0,0,0,148,0,0,0,0,0,0,1,0,0,0,0,0
PK,Pakistan,country,South Asia,30.375321,69.345116,ID,Indonesia,country,East Asia and Pacific,-0.789275,113.921327,5854.28796923267,1990,32089,0,0,0,0,0,0,0,0,32043,0,0,0,46,0,0,0,0,0,0,0,0,0,0
PG,Papua New Guinea,country,East Asia and Pacific,-6.314993,143.95555,ID,Indonesia,country,East Asia and Pacific,-0.789275,113.921327,3391.75028819521,1990,514,0,0,0,375,0,0,13,0,0,0,0,126,0,0,0,0,0,0,0,0,0,0,0
PY,Paraguay,country,Latin America and the Caribbean,-23.442503,-58.443832,ID,Indonesia,country,East Asia and Pacific,-0.789275,113.921327,17216.3158826116,1990,66076,65379,0,0,0,0,0,0,0,697,0,0,0,0,0,0,0,0,0,0,0,0,0,0
PE,Peru,country,Latin America and the Caribbean,-9.189967,-75.015152,ID,Indonesia,country,East Asia and Pacific,-0.789275,113.921327,18548.9357740644,1990,20,0,0,0,0,0,0,0,0,20,0,0,0,0,0,0,0,0,0,0,0,0,0,0
PH,Philippines,country,East Asia and Pacific,12.879721,121.774017,ID,Indonesia,country,East Asia and Pacific,-0.789275,113.921327,1751.37024833425,1990,7782,8,0,4150,0,0,2,2804,73,222,0,36,0,460,17,0,0,0,10,0,0,0,0,0
PL,Poland,country,Europe and Central Asia,51.919438,19.145136,ID,Indonesia,country,East Asia and Pacific,-0.789275,113.921327,10415.6828554256,1990,1974,0,0,0,0,0,0,0,0,0,0,54,0,0,0,0,0,0,1920,0,0,0,0,0
PT,Portugal,country,Europe and Central Asia,39.399872,-8.224454,ID,Indonesia,country,East Asia and Pacific,-0.789275,113.921327,12782.3268839901,1990,17,0,0,0,0,0,0,0,0,0,0,0,0,7,0,10,0,0,0,0,0,0,0,0
KR,"Korea, Rep.",country,East Asia and Pacific,35.907757,127.766922,ID,Indonesia,country,East Asia and Pacific,-0.789275,113.921327,4330.00778247741,1990,84244,95,2,82200,0,0,3,57,611,822,13,7,12,349,13,53,0,0,4,3,0,0,0,0
SA,Saudi Arabia,country,Middle East and North Africa,23.885942,45.079162,ID,Indonesia,country,East Asia and Pacific,-0.789275,113.921327,7911.45331804492,1990,227628,227000,0,0,0,0,0,0,63,565,0,0,0,0,0,0,0,0,0,0,0,0,0,0
SN,Senegal,country,Sub-Saharan Africa,14.497401,-14.452362,ID,Indonesia,country,East Asia and Pacific,-0.789275,113.921327,14158.3465221717,1990,598,0,0,0,0,0,0,0,0,598,0,0,0,0,0,0,0,0,0,0,0,0,0,0
SL,Sierra Leone,country,Sub-Saharan Africa,8.460555,-11.779889,ID,Indonesia,country,East Asia and Pacific,-0.789275,113.921327,13958.670479759,1990,50,0,0,0,0,0,0,0,0,50,0,0,0,0,0,0,0,0,0,0,0,0,0,0
SG,Singapore,country,East Asia and Pacific,1.352083,103.819836,ID,Indonesia,country,East Asia and Pacific,-0.789275,113.921327,1149.4036999638,1990,59349,4989,80,760,179,31,1292,835,2161,668,202,14577,573,1305,28881,431,0,1097,1281,7,0,0,0,0
ES,Spain,country,Europe and Central Asia,40.463667,-3.74922,ID,Indonesia,country,East Asia and Pacific,-0.789275,113.921327,12382.7992061042,1990,958,0,19,496,0,0,0,0,0,0,0,6,3,403,28,0,0,3,0,0,0,0,0,0
LK,Sri Lanka,country,South Asia,7.873054,80.771797,ID,Indonesia,country,East Asia and Pacific,-0.789275,113.921327,3803.62698150604,1990,147,0,0,0,0,0,0,0,0,0,0,0,0,147,0,0,0,0,0,0,0,0,0,0
SD,Sudan,country,Sub-Saharan Africa,12.862807,30.217636,ID,Indonesia,country,East Asia and Pacific,-0.789275,113.921327,9355.24272607025,1990,468,0,0,0,0,0,0,0,0,449,0,0,0,19,0,0,0,0,0,0,0,0,0,0
SR,Suriname,country,Latin America and the Caribbean,3.919305,-56.027783,ID,Indonesia,country,East Asia and Pacific,-0.789275,113.921327,18866.6868411068,1990,40,0,0,0,0,0,0,0,0,0,0,0,0,40,0,0,0,0,0,0,0,0,0,0
SE,Sweden,country,Europe and Central Asia,60.128161,18.643501,ID,Indonesia,country,East Asia and Pacific,-0.789275,113.921327,10387.3276030234,1990,93,0,0,0,0,0,0,0,0,0,0,0,0,0,78,0,0,0,15,0,0,0,0,0
CH,Switzerland,country,Europe and Central Asia,46.818188,8.227512,ID,Indonesia,country,East Asia and Pacific,-0.789275,113.921327,11271.3694163961,1990,526,0,0,92,0,0,0,3,59,0,0,4,10,154,0,3,0,0,201,0,0,0,0,0
TH,Thailand,country,East Asia and Pacific,15.870032,100.992541,ID,Indonesia,country,East Asia and Pacific,-0.789275,113.921327,2336.58049517835,1990,173942,46877,0,86396,20618,0,539,9324,2113,2824,34,3233,0,1763,202,0,27,16,3,0,0,0,0,0
TG,Togo,country,Sub-Saharan Africa,8.619543,0.824782,ID,Indonesia,country,East Asia and Pacific,-0.789275,113.921327,12573.1968391574,1990,466,0,0,0,0,0,0,0,0,466,0,0,0,0,0,0,0,0,0,0,0,0,0,0
TN,Tunisia,country,Middle East and North Africa,33.886917,9.537499,ID,Indonesia,country,East Asia and Pacific,-0.789275,113.921327,11393.5381357283,1990,16,0,0,0,0,0,12,0,0,0,0,0,0,0,4,0,0,0,0,0,0,0,0,0
TR,Turkey,country,Europe and Central Asia,38.963745,35.243322,ID,Indonesia,country,East Asia and Pacific,-0.789275,113.921327,9097.27334314872,1990,4170,0,0,0,0,0,0,1247,0,49,0,0,2310,564,0,0,0,0,0,0,0,0,0,0
UG,Uganda,country,Sub-Saharan Africa,1.373333,32.290275,ID,Indonesia,country,East Asia and Pacific,-0.789275,113.921327,9089.61396711869,1990,188,0,0,0,0,0,0,0,0,0,0,0,0,188,0,0,0,0,0,0,0,0,0,0
AE,United Arab Emirates,country,Middle East and North Africa,23.424076,53.847818,ID,Indonesia,country,East Asia and Pacific,-0.789275,113.921327,7025.54887369428,1990,6,0,0,0,0,0,0,0,6,0,0,0,0,0,0,0,0,0,0,0,0,0,0,0
GB,United Kingdom,country,Europe and Central Asia,55.378051,-3.435973,ID,Indonesia,country,East Asia and Pacific,-0.789275,113.921327,11778.4066263046,1990,37347,33227,21,273,80,0,21,236,603,49,0,428,73,271,839,337,2,370,519,0,0,0,0,0
TZ,Tanzania,country,Sub-Saharan Africa,-6.369028,34.888822,ID,Indonesia,country,East Asia and Pacific,-0.789275,113.921327,8795.67576146202,1990,2336,0,0,0,0,0,0,0,0,2014,0,0,0,322,0,0,0,0,0,0,0,0,0,0
US,USA,country,North America,37.09024,-95.712891,ID,Indonesia,country,East Asia and Pacific,-0.789275,113.921327,14978.5673165406,1990,496837,260670,2002,632,54,100,60391,913,3120,102760,7,37500,116,25336,706,208,254,1112,1154,56,0,0,0,0
RU,Russian Federation,country,Europe and Central Asia,61.52401,105.318756,ID,Indonesia,country,East Asia and Pacific,-0.789275,113.921327,6975.2549935928,1990,5437,0,0,0,0,0,0,0,0,5437,0,0,0,0,0,0,0,0,0,0,0,0,0,0
VN,Vietnam,country,East Asia and Pacific,14.058324,108.277199,ID,Indonesia,country,East Asia and Pacific,-0.789275,113.921327,1766.084707906,1990,55828,3520,0,0,250,0,50079,731,0,1000,13,0,225,10,0,0,0,0,0,0,0,0,0,0
BA,Bosnia & Herzegovina,country,Europe and Central Asia,43.915886,17.679076,ID,Indonesia,country,East Asia and Pacific,-0.789275,113.921327,10579.9459690121,1990,347,0,0,0,0,0,0,0,0,0,0,0,0,318,0,0,0,0,29,0,0,0,0,0
ZM,Zambia,country,Sub-Saharan Africa,-13.133897,27.849332,ID,Indonesia,country,East Asia and Pacific,-0.789275,113.921327,9572.9757814265,1990,108,0,0,0,0,0,0,0,0,50,0,0,0,58,0,0,0,0,0,0,0,0,0,0
ZW,Zimbabwe,country,Sub-Saharan Africa,-19.015438,29.154857,ID,Indonesia,country,East Asia and Pacific,-0.789275,113.921327,9439.34671079473,1990,5076,0,0,0,0,0,0,0,120,250,0,0,0,4706,0,0,0,0,0,0,0,0,0,0
DZ,Algeria,country,Middle East and North Africa,28.033886,1.659626,ID,Indonesia,country,East Asia and Pacific,-0.789275,113.921327,12237.0743292596,1991,16,0,0,0,0,0,0,0,16,0,0,0,0,0,0,0,0,0,0,0,0,0,0,0
AR,Argentina,country,Latin America and the Caribbean,-38.416097,-63.616672,ID,Indonesia,country,East Asia and Pacific,-0.789275,113.921327,15665.8943196608,1991,467218,451119,0,0,0,0,0,0,0,12011,0,4078,0,10,0,0,0,0,0,0,0,0,0,0
AU,Australia,country,East Asia and Pacific,-25.274398,133.775136,ID,Indonesia,country,East Asia and Pacific,-0.789275,113.921327,3461.30835308332,1991,993051,867210,97,550,988,14,59,2253,4940,75778,456,15666,421,631,1251,1333,2,2719,17395,1290,0,0,0,0
AT,Austria,country,Europe and Central Asia,47.516231,14.550072,ID,Indonesia,country,East Asia and Pacific,-0.789275,113.921327,10786.7582508511,1991,762,0,0,43,0,0,0,0,0,0,0,0,0,25,0,0,0,0,694,0,0,0,0,0
BD,Bangladesh,country,South Asia,23.684994,90.356331,ID,Indonesia,country,East Asia and Pacific,-0.789275,113.921327,3730.35439733117,1991,5435,0,0,0,0,0,0,0,0,5435,0,0,0,0,0,0,0,0,0,0,0,0,0,0
BE,Belgium,country,Europe and Central Asia,50.503887,4.469936,ID,Indonesia,country,East Asia and Pacific,-0.789275,113.921327,11449.2836918632,1991,7794,1967,103,356,0,0,0,0,19,160,0,1290,29,1530,141,0,0,0,2199,0,0,0,0,0
BJ,Benin,country,Sub-Saharan Africa,9.30769,2.315834,ID,Indonesia,country,East Asia and Pacific,-0.789275,113.921327,12405.6670474404,1991,1356,0,0,0,0,0,0,0,0,1356,0,0,0,0,0,0,0,0,0,0,0,0,0,0
BR,Brazil,country,Latin America and the Caribbean,-14.235004,-51.92528,ID,Indonesia,country,East Asia and Pacific,-0.789275,113.921327,17750.4246236607,1991,35283,0,0,0,103,0,0,0,283,33082,0,266,0,1521,0,0,0,10,0,18,0,0,0,0
BN,Brunei Darussalam,country,,4.535277,114.727669,ID,Indonesia,country,East Asia and Pacific,-0.789275,113.921327,599.472541609892,1991,7,0,0,0,0,0,0,0,0,0,7,0,0,0,0,0,0,0,0,0,0,0,0,0
BG,Bulgaria,country,Europe and Central Asia,42.733883,25.48583,ID,Indonesia,country,East Asia and Pacific,-0.789275,113.921327,9950.47882303328,1991,329,0,0,0,0,0,0,0,0,0,329,0,0,0,0,0,0,0,0,0,0,0,0,0
BF,Burkina Faso,country,Sub-Saharan Africa,12.238333,-1.561593,ID,Indonesia,country,East Asia and Pacific,-0.789275,113.921327,12806.8538266893,1991,350,0,0,0,0,0,0,0,0,350,0,0,0,0,0,0,0,0,0,0,0,0,0,0
CM,Cameroon,country,Sub-Saharan Africa,7.369722,12.354722,ID,Indonesia,country,East Asia and Pacific,-0.789275,113.921327,11306.9397828883,1991,1449,0,0,0,0,0,0,0,0,1449,0,0,0,0,0,0,0,0,0,0,0,0,0,0
CA,Canada,country,North America,56.130366,-106.346771,ID,Indonesia,country,East Asia and Pacific,-0.789275,113.921327,12900.7589703636,1991,466462,439715,1050,2,0,0,0,233,18,398,0,25042,4,0,0,0,8,0,0,0,0,0,0,0
CF,Central African Rep.,country,Sub-Saharan Africa,6.611111,20.939444,ID,Indonesia,country,East Asia and Pacific,-0.789275,113.921327,10358.5844479579,1991,350,0,0,0,0,0,0,0,0,350,0,0,0,0,0,0,0,0,0,0,0,0,0,0
CL,Chile,country,Latin America and the Caribbean,-35.675147,-71.542969,ID,Indonesia,country,East Asia and Pacific,-0.789275,113.921327,15938.8600047203,1991,872,0,0,0,0,0,0,22,265,150,0,271,0,164,0,0,0,0,0,0,0,0,0,0
HK,Hong Kong,country,East Asia and Pacific,22.396428,114.109497,ID,Indonesia,country,East Asia and Pacific,-0.789275,113.921327,2581.10141824003,1991,21303,5797,1172,67,18,15,55,91,255,8915,33,3436,16,1177,59,88,0,102,7,0,0,0,0,0
CN,China,country,East Asia and Pacific,35.86166,104.195397,ID,Indonesia,country,East Asia and Pacific,-0.789275,113.921327,4202.82765587934,1991,976052,178246,4,337,23732,42,495731,20502,2487,35265,2722,201742,64,12823,403,107,0,1608,169,68,0,0,0,0
TW,Taiwan,country,East Asia and Pacific,23.69781,120.960515,ID,Indonesia,country,East Asia and Pacific,-0.789275,113.921327,2830.21682941926,1991,30516,10214,0,5,0,0,17,218,1125,1301,3,15343,2,1192,1005,35,0,28,8,20,0,0,0,0
CI,Ivory Coast,country,Sub-Saharan Africa,7.539989,-5.54708,ID,Indonesia,country,East Asia and Pacific,-0.789275,113.921327,13280.9184302216,1991,7488,0,0,0,0,0,0,0,0,7185,0,0,303,0,0,0,0,0,0,0,0,0,0,0
CZ,Czech Republic,country,Europe and Central Asia,49.817492,15.472962,ID,Indonesia,country,East Asia and Pacific,-0.789275,113.921327,10691.6844305351,1991,5971,0,0,0,0,0,0,0,0,0,0,0,0,0,0,0,0,0,5971,0,0,0,0,0
KP,"Korea, Dem. Rep.",country,East Asia and Pacific,40.339852,127.510093,ID,Indonesia,country,East Asia and Pacific,-0.789275,113.921327,4781.67904222699,1991,1635,0,0,0,98,0,320,3,104,0,32,1078,0,0,0,0,0,0,0,0,0,0,0,0
DK,Denmark,country,Europe and Central Asia,56.26392,9.501785,ID,Indonesia,country,East Asia and Pacific,-0.789275,113.921327,10977.4230185562,1991,751,5,0,3,0,0,0,0,0,18,0,2,0,217,16,0,0,19,471,0,0,0,0,0
EG,Egypt,country,Middle East and North Africa,26.820553,30.802498,ID,Indonesia,country,East Asia and Pacific,-0.789275,113.921327,9375.40807616481,1991,1794,0,0,0,0,0,0,0,507,0,1284,0,0,3,0,0,0,0,0,0,0,0,0,0
ET,Ethiopia,country,Sub-Saharan Africa,9.145,40.489673,ID,Indonesia,country,East Asia and Pacific,-0.789275,113.921327,8213.20522773201,1991,28,0,0,0,0,0,0,0,0,0,0,0,0,0,0,0,0,0,0,28,0,0,0,0
FR,France,country,Europe and Central Asia,46.227638,2.213749,ID,Indonesia,country,East Asia and Pacific,-0.789275,113.921327,11734.6648161454,1991,14699,3403,0,7172,0,0,0,43,17,425,4,630,23,1087,179,29,28,39,1648,0,0,0,0,0
GA,Gabon,country,Sub-Saharan Africa,-0.803689,11.609444,ID,Indonesia,country,East Asia and Pacific,-0.789275,113.921327,11387.7763803947,1991,1566,0,0,0,0,0,0,0,0,1565,0,0,0,0,0,1,0,0,0,0,0,0,0,0
DE,Germany,country,Europe and Central Asia,51.165691,10.451526,ID,Indonesia,country,East Asia and Pacific,-0.789275,113.921327,11022.8715293398,1991,13331,123,296,7105,0,2,0,78,93,299,0,716,15,559,902,39,31,0,3104,0,0,0,0,0
GR,Greece,country,Europe and Central Asia,39.074208,21.824312,ID,Indonesia,country,East Asia and Pacific,-0.789275,113.921327,10255.3560508549,1991,2476,0,0,0,0,0,0,0,0,0,0,0,0,2476,0,0,0,0,0,0,0,0,0,0
GT,Guatemala,country,Latin America and the Caribbean,15.783471,-90.230759,ID,Indonesia,country,East Asia and Pacific,-0.789275,113.921327,16903.9674450547,1991,76,0,0,0,0,0,0,0,0,76,0,0,0,0,0,0,0,0,0,0,0,0,0,0
HN,Honduras,country,Latin America and the Caribbean,15.199999,-86.241905,ID,Indonesia,country,East Asia and Pacific,-0.789275,113.921327,17301.5703638189,1991,54,0,0,0,0,0,0,0,0,54,0,0,0,0,0,0,0,0,0,0,0,0,0,0
HU,Hungary,country,Europe and Central Asia,47.162494,19.503304,ID,Indonesia,country,East Asia and Pacific,-0.789275,113.921327,10417.4700368974,1991,144,0,0,0,0,0,0,0,0,0,0,44,0,0,0,0,4,0,100,0,0,0,0,0
IN,India,country,South Asia,20.593684,78.96288,ID,Indonesia,country,East Asia and Pacific,-0.789275,113.921327,4490.02273639644,1991,344119,42850,0,64915,3,0,0,0,2,9100,308,225120,0,1821,0,0,0,0,0,0,0,0,0,0
IR,Iran,country,Middle East and North Africa,32.427908,53.688046,ID,Indonesia,country,East Asia and Pacific,-0.789275,113.921327,7312.90037284249,1991,5000,0,0,0,0,0,0,0,2686,0,2228,0,0,86,0,0,0,0,0,0,0,0,0,0
IQ,Iraq,country,Middle East and North Africa,33.223191,43.679291,ID,Indonesia,country,East Asia and Pacific,-0.789275,113.921327,8240.43138544311,1991,66,0,0,0,0,0,0,0,66,0,0,0,0,0,0,0,0,0,0,0,0,0,0,0
IE,Ireland,country,Europe and Central Asia,53.41291,-8.24389,ID,Indonesia,country,East Asia and Pacific,-0.789275,113.921327,12152.5454027726,1991,10769,0,0,1,0,0,0,0,0,0,0,8467,0,609,0,0,0,320,1372,0,0,0,0,0
IT,Italy,country,Europe and Central Asia,41.87194,12.56738,ID,Indonesia,country,East Asia and Pacific,-0.789275,113.921327,11016.3839915023,1991,2046,59,0,391,0,0,0,8,0,0,0,144,20,1331,31,0,0,0,6,56,0,0,0,0
JP,Japan,country,East Asia and Pacific,36.204824,138.252924,ID,Indonesia,country,East Asia and Pacific,-0.789275,113.921327,4827.02443872358,1991,19642,13913,5,213,242,5,8,157,325,1182,7,2299,40,872,163,92,0,6,113,0,0,0,0,0
JO,Jordan,country,Middle East and North Africa,30.585164,36.238414,ID,Indonesia,country,East Asia and Pacific,-0.789275,113.921327,8886.32835353574,1991,0,0,0,0,0,0,0,0,0,0,0,0,0,0,0,0,0,0,0,0,0,0,0,0
KE,Kenya,country,Sub-Saharan Africa,-0.023559,37.906193,ID,Indonesia,country,East Asia and Pacific,-0.789275,113.921327,8462.07962690451,1991,9,0,0,0,0,0,0,0,0,9,0,0,0,0,0,0,0,0,0,0,0,0,0,0
LB,Lebanon,country,Middle East and North Africa,33.854721,35.862285,ID,Indonesia,country,East Asia and Pacific,-0.789275,113.921327,8967.13004073954,1991,281,0,0,0,0,0,0,0,0,0,0,0,0,281,0,0,0,0,0,0,0,0,0,0
LR,Liberia,country,Sub-Saharan Africa,6.428055,-9.429499,ID,Indonesia,country,East Asia and Pacific,-0.789275,113.921327,13716.3520507776,1991,50,0,0,0,0,0,0,0,0,50,0,0,0,0,0,0,0,0,0,0,0,0,0,0
LY,Libya,country,Middle East and North Africa,26.3351,17.228331,ID,Indonesia,country,East Asia and Pacific,-0.789275,113.921327,10725.3283460739,1991,64,21,0,0,0,0,0,0,0,0,0,0,0,0,43,0,0,0,0,0,0,0,0,0
MW,Malawi,country,Sub-Saharan Africa,-13.254308,34.301525,ID,Indonesia,country,East Asia and Pacific,-0.789275,113.921327,8873.98508572729,1991,48,0,0,0,0,0,0,0,0,0,0,0,0,48,0,0,0,0,0,0,0,0,0,0
MY,Malaysia,country,East Asia and Pacific,4.210484,101.975766,ID,Indonesia,country,East Asia and Pacific,-0.789275,113.921327,1440.61189452569,1991,46086,163,0,579,337,2,117,844,63,42,312,617,445,1476,40379,51,0,29,630,0,0,0,0,0
ML,Mali,country,Sub-Saharan Africa,17.570692,-3.996166,ID,Indonesia,country,East Asia and Pacific,-0.789275,113.921327,12999.2185839778,1991,5278,0,0,0,0,0,0,0,0,5278,0,0,0,0,0,0,0,0,0,0,0,0,0,0
MX,Mexico,country,Latin America and the Caribbean,23.634501,-102.552784,ID,Indonesia,country,East Asia and Pacific,-0.789275,113.921327,15352.4170755379,1991,3470,0,0,0,0,0,0,0,0,3043,0,0,0,421,0,6,0,0,0,0,0,0,0,0
MZ,Mozambique,country,Sub-Saharan Africa,-18.665695,35.529562,ID,Indonesia,country,East Asia and Pacific,-0.789275,113.921327,8766.83097922704,1991,452,0,0,0,0,0,0,0,0,185,0,0,189,78,0,0,0,0,0,0,0,0,0,0
MM,Myanmar,country,East Asia and Pacific,21.913965,95.956223,ID,Indonesia,country,East Asia and Pacific,-0.789275,113.921327,3192.98621015308,1991,5786,0,0,0,5424,0,254,0,4,0,100,0,0,4,0,0,0,0,0,0,0,0,0,0
NL,Netherlands,country,Europe and Central Asia,52.132633,5.291266,ID,Indonesia,country,East Asia and Pacific,-0.789275,113.921327,11348.3157118067,1991,11987,475,355,1643,411,0,0,1311,142,0,6,1004,137,1102,1313,297,17,39,3749,3,0,0,0,0
NZ,New Zealand,country,East Asia and Pacific,-40.900557,174.885971,ID,Indonesia,country,East Asia and Pacific,-0.789275,113.921327,7561.27854515998,1991,93754,137,9,1104,9060,0,0,1527,251,99,2,60664,0,11,303,2,0,3071,17466,48,0,0,0,0
NI,Nicaragua,country,Latin America and the Caribbean,12.865416,-85.207229,ID,Indonesia,country,East Asia and Pacific,-0.789275,113.921327,17535.618624703,1991,100,0,0,0,0,0,0,0,0,100,0,0,0,0,0,0,0,0,0,0,0,0,0,0
NG,Nigeria,country,Sub-Saharan Africa,9.081999,8.675277,ID,Indonesia,country,East Asia and Pacific,-0.789275,113.921327,11708.3556470658,1991,973,0,0,0,0,0,0,0,0,973,0,0,0,0,0,0,0,0,0,0,0,0,0,0
NO,Norway,country,Europe and Central Asia,60.472024,8.468946,ID,Indonesia,country,East Asia and Pacific,-0.789275,113.921327,10935.8125644022,1991,144,0,0,0,0,0,0,0,0,0,0,144,0,0,0,0,0,0,0,0,0,0,0,0
PK,Pakistan,country,South Asia,30.375321,69.345116,ID,Indonesia,country,East Asia and Pacific,-0.789275,113.921327,5854.28796923267,1991,26448,530,0,0,0,0,0,0,0,23713,0,0,0,192,2013,0,0,0,0,0,0,0,0,0
PG,Papua New Guinea,country,East Asia and Pacific,-6.314993,143.95555,ID,Indonesia,country,East Asia and Pacific,-0.789275,113.921327,3391.75028819521,1991,5,0,0,0,0,0,0,2,0,0,0,0,0,3,0,0,0,0,0,0,0,0,0,0
PY,Paraguay,country,Latin America and the Caribbean,-23.442503,-58.443832,ID,Indonesia,country,East Asia and Pacific,-0.789275,113.921327,17216.3158826116,1991,2413,0,0,0,0,0,0,0,0,2413,0,0,0,0,0,0,0,0,0,0,0,0,0,0
PE,Peru,country,Latin America and the Caribbean,-9.189967,-75.015152,ID,Indonesia,country,East Asia and Pacific,-0.789275,113.921327,18548.9357740644,1991,329,0,0,0,0,0,0,0,0,329,0,0,0,0,0,0,0,0,0,0,0,0,0,0
PH,Philippines,country,East Asia and Pacific,12.879721,121.774017,ID,Indonesia,country,East Asia and Pacific,-0.789275,113.921327,1751.37024833425,1991,29052,22394,0,0,0,33,0,2718,111,334,0,20,23,407,3000,0,0,0,12,0,0,0,0,0
PL,Poland,country,Europe and Central Asia,51.919438,19.145136,ID,Indonesia,country,East Asia and Pacific,-0.789275,113.921327,10415.6828554256,1991,8024,0,0,0,0,0,0,0,0,0,0,0,0,0,0,0,0,0,8024,0,0,0,0,0
PT,Portugal,country,Europe and Central Asia,39.399872,-8.224454,ID,Indonesia,country,East Asia and Pacific,-0.789275,113.921327,12782.3268839901,1991,17,0,0,0,0,0,0,0,0,0,0,0,0,4,0,13,0,0,0,0,0,0,0,0
QA,Qatar,country,Middle East and North Africa,25.354826,51.183884,ID,Indonesia,country,East Asia and Pacific,-0.789275,113.921327,7338.21855402515,1991,15,1,0,0,0,0,0,0,14,0,0,0,0,0,0,0,0,0,0,0,0,0,0,0
KR,"Korea, Rep.",country,East Asia and Pacific,35.907757,127.766922,ID,Indonesia,country,East Asia and Pacific,-0.789275,113.921327,4330.00778247741,1991,16223,183,0,13861,0,0,501,29,376,203,1,0,16,674,41,235,0,9,51,43,0,0,0,0
RO,Romania,country,Europe and Central Asia,45.943161,24.96676,ID,Indonesia,country,East Asia and Pacific,-0.789275,113.921327,10000.9808396908,1991,793,0,0,0,0,0,0,0,0,0,793,0,0,0,0,0,0,0,0,0,0,0,0,0
SA,Saudi Arabia,country,Middle East and North Africa,23.885942,45.079162,ID,Indonesia,country,East Asia and Pacific,-0.789275,113.921327,7911.45331804492,1991,261453,261000,0,0,0,0,0,0,24,429,0,0,0,0,0,0,0,0,0,0,0,0,0,0
SN,Senegal,country,Sub-Saharan Africa,14.497401,-14.452362,ID,Indonesia,country,East Asia and Pacific,-0.789275,113.921327,14158.3465221717,1991,494,0,0,0,0,0,0,0,0,494,0,0,0,0,0,0,0,0,0,0,0,0,0,0
SG,Singapore,country,East Asia and Pacific,1.352083,103.819836,ID,Indonesia,country,East Asia and Pacific,-0.789275,113.921327,1149.4036999638,1991,47354,4986,47,1866,1354,69,695,1187,2848,534,322,7388,516,1545,20705,1041,22,1182,1058,11,0,0,0,0
ES,Spain,country,Europe and Central Asia,40.463667,-3.74922,ID,Indonesia,country,East Asia and Pacific,-0.789275,113.921327,12382.7992061042,1991,898,0,0,587,0,0,0,0,0,0,0,27,11,245,12,3,0,0,0,13,0,0,0,0
LK,Sri Lanka,country,South Asia,7.873054,80.771797,ID,Indonesia,country,East Asia and Pacific,-0.789275,113.921327,3803.62698150604,1991,13880,0,0,0,0,0,0,0,0,0,0,13828,0,52,0,0,0,0,0,0,0,0,0,0
SE,Sweden,country,Europe and Central Asia,60.128161,18.643501,ID,Indonesia,country,East Asia and Pacific,-0.789275,113.921327,10387.3276030234,1991,40354,40000,0,0,0,0,0,0,0,193,0,0,0,10,56,0,0,0,60,35,0,0,0,0
CH,Switzerland,country,Europe and Central Asia,46.818188,8.227512,ID,Indonesia,country,East Asia and Pacific,-0.789275,113.921327,11271.3694163961,1991,1911,6,0,23,0,0,0,1,74,1138,0,10,64,180,0,0,0,0,415,0,0,0,0,0
TH,Thailand,country,East Asia and Pacific,15.870032,100.992541,ID,Indonesia,country,East Asia and Pacific,-0.789275,113.921327,2336.58049517835,1991,413882,153331,12962,216205,15286,0,583,10557,652,500,83,1513,7,1044,345,609,0,0,38,167,0,0,0,0
TG,Togo,country,Sub-Saharan Africa,8.619543,0.824782,ID,Indonesia,country,East Asia and Pacific,-0.789275,113.921327,12573.1968391574,1991,160,0,0,0,0,0,0,10,0,150,0,0,0,0,0,0,0,0,0,0,0,0,0,0
TN,Tunisia,country,Middle East and North Africa,33.886917,9.537499,ID,Indonesia,country,East Asia and Pacific,-0.789275,113.921327,11393.5381357283,1991,0,0,0,0,0,0,0,0,0,0,0,0,0,0,0,0,0,0,0,0,0,0,0,0
TR,Turkey,country,Europe and Central Asia,38.963745,35.243322,ID,Indonesia,country,East Asia and Pacific,-0.789275,113.921327,9097.27334314872,1991,115906,111946,0,2085,0,0,0,1115,0,213,91,0,0,418,0,38,0,0,0,0,0,0,0,0
UG,Uganda,country,Sub-Saharan Africa,1.373333,32.290275,ID,Indonesia,country,East Asia and Pacific,-0.789275,113.921327,9089.61396711869,1991,112,0,0,0,0,0,0,0,0,0,0,0,0,112,0,0,0,0,0,0,0,0,0,0
GB,United Kingdom,country,Europe and Central Asia,55.378051,-3.435973,ID,Indonesia,country,East Asia and Pacific,-0.789275,113.921327,11778.4066263046,1991,7968,369,0,416,0,8,0,83,193,516,5,4717,26,420,668,103,37,33,411,0,0,0,0,0
TZ,Tanzania,country,Sub-Saharan Africa,-6.369028,34.888822,ID,Indonesia,country,East Asia and Pacific,-0.789275,113.921327,8795.67576146202,1991,1450,0,0,0,0,0,0,0,0,1412,0,0,0,38,0,0,0,0,0,0,0,0,0,0
US,USA,country,North America,37.09024,-95.712891,ID,Indonesia,country,East Asia and Pacific,-0.789275,113.921327,14978.5673165406,1991,379752,80335,2179,741,25,92,85710,1247,8781,130084,37,33714,288,31149,847,484,189,1236,1765,1038,0,0,0,0
UY,Uruguay,country,Latin America and the Caribbean,-32.522779,-55.765835,ID,Indonesia,country,East Asia and Pacific,-0.789275,113.921327,16173.9099253167,1991,148,0,0,0,0,0,0,0,0,148,0,0,0,0,0,0,0,0,0,0,0,0,0,0
RU,Russian Federation,country,Europe and Central Asia,61.52401,105.318756,ID,Indonesia,country,East Asia and Pacific,-0.789275,113.921327,6975.2549935928,1991,1856,0,0,0,0,0,0,0,0,1842,0,0,0,0,0,0,0,0,14,0,0,0,0,0
VE,Venezuela,country,Latin America and the Caribbean,6.42375,-66.58973,ID,Indonesia,country,East Asia and Pacific,-0.789275,113.921327,19407.7189544742,1991,27,0,0,0,0,0,0,0,0,0,27,0,0,0,0,0,0,0,0,0,0,0,0,0
VN,Vietnam,country,East Asia and Pacific,14.058324,108.277199,ID,Indonesia,country,East Asia and Pacific,-0.789275,113.921327,1766.084707906,1991,307893,104557,0,0,7755,0,194670,100,0,450,116,0,0,8,0,0,0,0,237,0,0,0,0,0
YE,Yemen,country,Middle East and North Africa,15.552727,48.516388,ID,Indonesia,country,East Asia and Pacific,-0.789275,113.921327,7413.29823183377,1991,22,0,0,0,0,0,22,0,0,0,0,0,0,0,0,0,0,0,0,0,0,0,0,0
BA,Bosnia & Herzegovina,country,Europe and Central Asia,43.915886,17.679076,ID,Indonesia,country,East Asia and Pacific,-0.789275,113.921327,10579.9459690121,1991,6,0,0,0,0,0,0,0,0,0,0,0,0,6,0,0,0,0,0,0,0,0,0,0
ZW,Zimbabwe,country,Sub-Saharan Africa,-19.015438,29.154857,ID,Indonesia,country,East Asia and Pacific,-0.789275,113.921327,9439.34671079473,1991,4898,0,0,0,0,0,0,0,16,139,0,0,0,4743,0,0,0,0,0,0,0,0,0,0
DZ,Algeria,country,Middle East and North Africa,28.033886,1.659626,ID,Indonesia,country,East Asia and Pacific,-0.789275,113.921327,12237.0743292596,1992,16,0,0,0,0,0,0,0,16,0,0,0,0,0,0,0,0,0,0,0,0,0,0,0
AR,Argentina,country,Latin America and the Caribbean,-38.416097,-63.616672,ID,Indonesia,country,East Asia and Pacific,-0.789275,113.921327,15665.8943196608,1992,466031,318044,0,0,0,0,145596,0,0,2191,0,200,0,0,0,0,0,0,0,0,0,0,0,0
AU,Australia,country,East Asia and Pacific,-25.274398,133.775136,ID,Indonesia,country,East Asia and Pacific,-0.789275,113.921327,3461.30835308332,1992,1065203,872540,178,6133,1258,63,64,2801,16131,107008,2101,29351,600,318,1614,1173,4,6393,15752,1725,0,0,0,0
AT,Austria,country,Europe and Central Asia,47.516231,14.550072,ID,Indonesia,country,East Asia and Pacific,-0.789275,113.921327,10786.7582508511,1992,1976,0,0,0,0,0,0,0,16,0,5,0,0,23,0,0,0,0,1932,0,0,0,0,0
BD,Bangladesh,country,South Asia,23.684994,90.356331,ID,Indonesia,country,East Asia and Pacific,-0.789275,113.921327,3730.35439733117,1992,23853,0,0,0,0,0,0,0,0,23853,0,0,0,0,0,0,0,0,0,0,0,0,0,0
BE,Belgium,country,Europe and Central Asia,50.503887,4.469936,ID,Indonesia,country,East Asia and Pacific,-0.789275,113.921327,11449.2836918632,1992,4830,299,30,492,0,3,0,0,11,1246,0,534,184,289,69,20,0,0,1653,0,0,0,0,0
BJ,Benin,country,Sub-Saharan Africa,9.30769,2.315834,ID,Indonesia,country,East Asia and Pacific,-0.789275,113.921327,12405.6670474404,1992,1384,0,0,0,0,0,0,0,0,1384,0,0,0,0,0,0,0,0,0,0,0,0,0,0
BR,Brazil,country,Latin America and the Caribbean,-14.235004,-51.92528,ID,Indonesia,country,East Asia and Pacific,-0.789275,113.921327,17750.4246236607,1992,43239,0,0,0,0,0,0,0,259,8295,0,33578,6,930,13,0,0,0,0,158,0,0,0,0
BG,Bulgaria,country,Europe and Central Asia,42.733883,25.48583,ID,Indonesia,country,East Asia and Pacific,-0.789275,113.921327,9950.47882303328,1992,547,0,0,0,0,0,0,0,0,60,435,52,0,0,0,0,0,0,0,0,0,0,0,0
BF,Burkina Faso,country,Sub-Saharan Africa,12.238333,-1.561593,ID,Indonesia,country,East Asia and Pacific,-0.789275,113.921327,12806.8538266893,1992,199,0,0,0,0,0,0,0,0,199,0,0,0,0,0,0,0,0,0,0,0,0,0,0
KH,Cambodia,country,East Asia and Pacific,12.565679,104.990963,ID,Indonesia,country,East Asia and Pacific,-0.789275,113.921327,1784.22601087891,1992,0,0,0,0,0,0,0,0,0,0,0,0,0,0,0,0,0,0,0,0,0,0,0,0
CM,Cameroon,country,Sub-Saharan Africa,7.369722,12.354722,ID,Indonesia,country,East Asia and Pacific,-0.789275,113.921327,11306.9397828883,1992,542,0,0,0,0,0,0,0,0,542,0,0,0,0,0,0,0,0,0,0,0,0,0,0
CA,Canada,country,North America,56.130366,-106.346771,ID,Indonesia,country,East Asia and Pacific,-0.789275,113.921327,12900.7589703636,1992,833413,810036,1480,0,448,0,0,255,509,94,0,20348,8,153,0,0,0,64,18,0,0,0,0,0
CL,Chile,country,Latin America and the Caribbean,-35.675147,-71.542969,ID,Indonesia,country,East Asia and Pacific,-0.789275,113.921327,15938.8600047203,1992,1212,0,0,0,0,0,3,59,840,265,0,17,0,21,1,0,0,6,0,0,0,0,0,0
HK,Hong Kong,country,East Asia and Pacific,22.396428,114.109497,ID,Indonesia,country,East Asia and Pacific,-0.789275,113.921327,2581.10141824003,1992,18711,129,143,5016,41,0,2126,2171,372,2015,49,4211,13,2164,80,85,0,78,0,18,0,0,0,0
CN,China,country,East Asia and Pacific,35.86166,104.195397,ID,Indonesia,country,East Asia and Pacific,-0.789275,113.921327,4202.82765587934,1992,518939,132506,657,8486,13513,97,256325,23651,3841,39145,878,23191,76,14092,272,91,0,1909,209,0,0,0,0,0
TW,Taiwan,country,East Asia and Pacific,23.69781,120.960515,ID,Indonesia,country,East Asia and Pacific,-0.789275,113.921327,2830.21682941926,1992,34924,365,0,2,0,40,22741,208,2263,1309,8,5687,0,858,1179,9,0,28,6,221,0,0,0,0
