sourceCode,sourceName,sourceGrouping,sourceRegion,sourceLat,sourceLong,destCode,destName,destGrouping,destRegion,destLat,destLong,distance,year,totalTons,cereals,roots,sugarCrops,pulses,nuts,oilCrops,vegetables,fruits,fibers,spices,fodderCrops,coffeeTea,tobaccoRubber,oilsFats,beverages,livestock,animalMeats,animalProducts,animalHides,nimalOther,pesticides,fertilizers,machinery
AL,Albania,country,Europe and Central Asia,41.153332,20.168331,EG,Egypt,country,Middle East and North Africa,26.820553,30.802498,1869.85145551779,1986,159,0,0,0,0,0,0,0,0,0,0,0,0,159,0,0,0,0,0,0,0,0,0,0
AR,Argentina,country,Latin America and the Caribbean,-38.416097,-63.616672,EG,Egypt,country,Middle East and North Africa,26.820553,30.802498,12192.397394083,1986,123881,62999,0,0,0,0,0,0,0,0,0,0,0,2333,58302,0,0,247,0,0,0,0,0,0
AU,Australia,country,East Asia and Pacific,-25.274398,133.775136,EG,Egypt,country,Middle East and North Africa,26.820553,30.802498,12462.2319801187,1986,1807795,1805812,0,0,0,0,0,0,0,1551,0,0,0,24,0,0,0,408,0,0,0,0,0,0
AT,Austria,country,Europe and Central Asia,47.516231,14.550072,EG,Egypt,country,Middle East and North Africa,26.820553,30.802498,2705.35404651056,1986,798,0,0,0,0,0,0,0,0,0,0,5,8,21,302,0,3,447,15,0,0,0,0,0
BD,Bangladesh,country,South Asia,23.684994,90.356331,EG,Egypt,country,Middle East and North Africa,26.820553,30.802498,5951.20804631553,1986,11532,0,0,0,0,0,0,0,0,9518,0,0,1922,92,0,0,0,0,0,0,0,0,0,0
BE,Belgium,country,Europe and Central Asia,50.503887,4.469936,EG,Egypt,country,Middle East and North Africa,26.820553,30.802498,3454.43979258168,1986,94522,38128,0,14411,0,0,0,0,0,56,0,36926,0,379,119,0,0,1241,3262,0,0,0,0,0
BR,Brazil,country,Latin America and the Caribbean,-14.235004,-51.92528,EG,Egypt,country,Middle East and North Africa,26.820553,30.802498,10028.012642647,1986,129794,21065,0,24500,0,0,0,0,0,0,136,38000,2072,507,29543,0,0,13971,0,0,0,0,0,0
BG,Bulgaria,country,Europe and Central Asia,42.733883,25.48583,EG,Egypt,country,Middle East and North Africa,26.820553,30.802498,1835.92432650592,1986,2767,0,0,0,0,0,0,0,0,0,0,0,0,28,2739,0,0,0,0,0,0,0,0,0
CM,Cameroon,country,Sub-Saharan Africa,7.369722,12.354722,EG,Egypt,country,Middle East and North Africa,26.820553,30.802498,2913.8446597704,1986,2,0,0,0,0,0,0,0,0,0,0,0,0,2,0,0,0,0,0,0,0,0,0,0
CA,Canada,country,North America,56.130366,-106.346771,EG,Egypt,country,Middle East and North Africa,26.820553,30.802498,9954.90844208778,1986,242833,231545,0,0,0,0,8975,0,0,0,0,500,0,801,512,0,0,0,500,0,0,0,0,0
HK,Hong Kong,country,East Asia and Pacific,22.396428,114.109497,EG,Egypt,country,Middle East and North Africa,26.820553,30.802498,8287.74431451014,1986,148,0,0,0,0,0,0,0,0,3,0,0,0,145,0,0,0,0,0,0,0,0,0,0
CN,China,country,East Asia and Pacific,35.86166,104.195397,EG,Egypt,country,Middle East and North Africa,26.820553,30.802498,6890.50630390918,1986,24087,0,0,0,0,0,3113,0,0,2518,56,0,3795,669,13773,0,0,163,0,0,0,0,0,0
CO,Colombia,country,Latin America and the Caribbean,4.570868,-74.297333,EG,Egypt,country,Middle East and North Africa,26.820553,30.802498,11275.5945750993,1986,50,0,0,0,0,0,0,0,0,0,0,0,50,0,0,0,0,0,0,0,0,0,0,0
CI,Ivory Coast,country,Sub-Saharan Africa,7.539989,-5.54708,EG,Egypt,country,Middle East and North Africa,26.820553,30.802498,4395.73378933376,1986,507,0,0,0,0,0,0,0,0,0,0,0,507,0,0,0,0,0,0,0,0,0,0,0
CU,Cuba,country,Latin America and the Caribbean,21.521757,-77.781167,EG,Egypt,country,Middle East and North Africa,26.820553,30.802498,10651.5631684535,1986,34926,0,0,34867,0,0,0,0,0,0,0,0,0,59,0,0,0,0,0,0,0,0,0,0
CY,Cyprus,country,Europe and Central Asia,35.126413,33.429859,EG,Egypt,country,Middle East and North Africa,26.820553,30.802498,957.886476065658,1986,6146,0,0,0,0,0,0,0,0,0,0,0,190,249,5697,0,0,0,10,0,0,0,0,0
CZ,Czech Republic,country,Europe and Central Asia,49.817492,15.472962,EG,Egypt,country,Middle East and North Africa,26.820553,30.802498,2876.1400991165,1986,325,0,0,0,0,0,0,0,0,0,0,0,0,0,0,0,0,0,325,0,0,0,0,0
DK,Denmark,country,Europe and Central Asia,56.26392,9.501785,EG,Egypt,country,Middle East and North Africa,26.820553,30.802498,3693.24391219974,1986,40001,0,411,0,0,0,0,0,3,0,0,31009,0,139,281,0,0,1814,6344,0,0,0,0,0
DJ,Djibouti,country,Middle East and North Africa,11.825138,42.590275,EG,Egypt,country,Middle East and North Africa,26.820553,30.802498,2075.39224053789,1986,15,0,0,0,0,0,0,0,0,0,0,0,0,15,0,0,0,0,0,0,0,0,0,0
GQ,Equatorial Guinea,country,Sub-Saharan Africa,1.650801,10.267895,EG,Egypt,country,Middle East and North Africa,26.820553,30.802498,3558.3343730824,1986,0,0,0,0,0,0,0,0,0,0,0,0,0,0,0,0,0,0,0,0,0,0,0,0
ET,Ethiopia,country,Sub-Saharan Africa,9.145,40.489673,EG,Egypt,country,Middle East and North Africa,26.820553,30.802498,2216.38557950388,1986,1409,0,0,0,0,0,0,0,0,0,0,0,0,0,0,0,0,0,0,1409,0,0,0,0
FI,Finland,country,Europe and Central Asia,61.92411,25.748151,EG,Egypt,country,Middle East and North Africa,26.820553,30.802498,3925.78779986235,1986,3562,0,0,0,0,0,0,0,0,0,0,0,0,0,0,0,0,3339,223,0,0,0,0,0
FR,France,country,Europe and Central Asia,46.227638,2.213749,EG,Egypt,country,Middle East and North Africa,26.820553,30.802498,3315.47283349949,1986,616680,521458,807,51711,0,0,0,4,0,0,60,10112,53,403,842,265,556,20713,10252,0,0,0,0,0
GH,Ghana,country,Sub-Saharan Africa,7.946527,-1.023194,EG,Egypt,country,Middle East and North Africa,26.820553,30.802498,3960.24052553777,1986,1016,0,0,0,0,0,0,0,0,0,0,0,1016,0,0,0,0,0,0,0,0,0,0,0
GR,Greece,country,Europe and Central Asia,39.074208,21.824312,EG,Egypt,country,Middle East and North Africa,26.820553,30.802498,1599.25422928541,1986,29404,293,0,11,0,13,10632,14765,0,0,1,750,0,2756,182,0,0,0,0,1,0,0,0,0
GT,Guatemala,country,Latin America and the Caribbean,15.783471,-90.230759,EG,Egypt,country,Middle East and North Africa,26.820553,30.802498,12096.3205420716,1986,2,0,0,0,0,0,0,0,0,0,2,0,0,0,0,0,0,0,0,0,0,0,0,0
GW,Guinea-Bissau,country,Sub-Saharan Africa,11.803749,-15.180413,EG,Egypt,country,Middle East and North Africa,26.820553,30.802498,5079.36490534037,1986,0,0,0,0,0,0,0,0,0,0,0,0,0,0,0,0,0,0,0,0,0,0,0,0
HU,Hungary,country,Europe and Central Asia,47.162494,19.503304,EG,Egypt,country,Middle East and North Africa,26.820553,30.802498,2471.23854743199,1986,3112,17,0,0,0,0,0,0,0,0,0,0,0,30,0,0,50,2920,145,0,0,0,0,0
IS,Iceland,country,Europe and Central Asia,64.963051,-19.020835,EG,Egypt,country,Middle East and North Africa,26.820553,30.802498,5485.02969987773,1986,9,0,0,0,0,0,0,0,0,0,0,0,0,9,0,0,0,0,0,0,0,0,0,0
IN,India,country,South Asia,20.593684,78.96288,EG,Egypt,country,Middle East and North Africa,26.820553,30.802498,4929.07571829965,1986,15100,15,0,0,0,0,0,0,0,0,1873,0,10054,2116,0,0,0,1042,0,0,0,0,0,0
ID,Indonesia,country,East Asia and Pacific,-0.789275,113.921327,EG,Egypt,country,Middle East and North Africa,26.820553,30.802498,9375.40807616481,1986,429,0,0,0,0,0,0,0,0,0,50,0,205,174,0,0,0,0,0,0,0,0,0,0
IQ,Iraq,country,Middle East and North Africa,33.223191,43.679291,EG,Egypt,country,Middle East and North Africa,26.820553,30.802498,1429.52198776899,1986,262,0,0,0,0,0,0,0,262,0,0,0,0,0,0,0,0,0,0,0,0,0,0,0
IE,Ireland,country,Europe and Central Asia,53.41291,-8.24389,EG,Egypt,country,Middle East and North Africa,26.820553,30.802498,4359.11107429444,1986,44919,0,2085,0,0,0,0,0,0,0,0,0,0,1521,0,0,0,40845,468,0,0,0,0,0
IL,Israel,country,Middle East and North Africa,31.046051,34.851612,EG,Egypt,country,Middle East and North Africa,26.820553,30.802498,613.779687934423,1986,3317,0,0,0,0,0,0,0,0,0,0,720,0,9,2307,0,191,0,281,0,0,0,0,0
IT,Italy,country,Europe and Central Asia,41.87194,12.56738,EG,Egypt,country,Middle East and North Africa,26.820553,30.802498,2360.0272509652,1986,139009,100974,16,12,0,0,0,4473,56,17,0,11884,3,5740,15794,0,60,0,40,0,0,0,0,0
JP,Japan,country,East Asia and Pacific,36.204824,138.252924,EG,Egypt,country,Middle East and North Africa,26.820553,30.802498,9696.1079625791,1986,245,0,0,107,0,0,0,7,0,0,0,0,36,39,40,16,0,0,0,0,0,0,0,0
JO,Jordan,country,Middle East and North Africa,30.585164,36.238414,EG,Egypt,country,Middle East and North Africa,26.820553,30.802498,676.088710764274,1986,4364,0,500,0,0,0,0,468,2887,0,0,0,0,173,0,236,0,100,0,0,0,0,0,0
KE,Kenya,country,Sub-Saharan Africa,-0.023559,37.906193,EG,Egypt,country,Middle East and North Africa,26.820553,30.802498,3083.62508462516,1986,4558,0,0,0,0,0,0,0,0,0,0,0,4558,0,0,0,0,0,0,0,0,0,0,0
KW,Kuwait,country,Middle East and North Africa,29.31166,47.481766,EG,Egypt,country,Middle East and North Africa,26.820553,30.802498,1660.18186060356,1986,5,0,0,0,0,0,0,0,0,0,0,0,0,0,0,0,0,0,5,0,0,0,0,0
LB,Lebanon,country,Middle East and North Africa,33.854721,35.862285,EG,Egypt,country,Middle East and North Africa,26.820553,30.802498,921.317507558426,1986,3579,0,0,0,505,0,0,0,0,0,200,0,0,2874,0,0,0,0,0,0,0,0,0,0
MG,Madagascar,country,Sub-Saharan Africa,-18.766947,46.869107,EG,Egypt,country,Middle East and North Africa,26.820553,30.802498,5363.18301178549,1986,5,0,0,0,0,0,0,0,0,0,5,0,0,0,0,0,0,0,0,0,0,0,0,0
MW,Malawi,country,Sub-Saharan Africa,-13.254308,34.301525,EG,Egypt,country,Middle East and North Africa,26.820553,30.802498,4477.13205763116,1986,1798,0,0,0,0,0,0,0,0,0,0,0,0,1798,0,0,0,0,0,0,0,0,0,0
MY,Malaysia,country,East Asia and Pacific,4.210484,101.975766,EG,Egypt,country,Middle East and North Africa,26.820553,30.802498,7938.90606344638,1986,6879,0,0,0,0,0,0,0,0,0,0,0,0,1084,5795,0,0,0,0,0,0,0,0,0
MT,Malta,country,Middle East and North Africa,35.937496,14.375416,EG,Egypt,country,Middle East and North Africa,26.820553,30.802498,1857.9258341146,1986,60,0,0,0,0,0,0,0,0,0,0,0,0,60,0,0,0,0,0,0,0,0,0,0
MX,Mexico,country,Latin America and the Caribbean,23.634501,-102.552784,EG,Egypt,country,Middle East and North Africa,26.820553,30.802498,12507.6318527222,1986,1716,0,0,0,0,0,1650,0,0,0,55,0,0,11,0,0,0,0,0,0,0,0,0,0
MA,Morocco,country,Middle East and North Africa,31.791702,-7.09262,EG,Egypt,country,Middle East and North Africa,26.820553,30.802498,3701.31056824399,1986,8,0,0,0,0,0,0,0,0,0,0,0,0,8,0,0,0,0,0,0,0,0,0,0
MZ,Mozambique,country,Sub-Saharan Africa,-18.665695,35.529562,EG,Egypt,country,Middle East and North Africa,26.820553,30.802498,5089.17821247839,1986,30,0,0,0,0,0,0,0,30,0,0,0,0,0,0,0,0,0,0,0,0,0,0,0
NL,Netherlands,country,Europe and Central Asia,52.132633,5.291266,EG,Egypt,country,Middle East and North Africa,26.820553,30.802498,3531.6048959239,1986,98670,1386,16457,19,0,0,2024,0,8,0,0,15068,986,3398,30907,0,1955,11708,16709,0,0,0,0,0
NZ,New Zealand,country,East Asia and Pacific,-40.900557,174.885971,EG,Egypt,country,Middle East and North Africa,26.820553,30.802498,16399.7029091802,1986,4043,0,0,19,0,0,0,0,0,299,0,0,0,0,0,0,0,3536,189,0,0,0,0,0
NI,Nicaragua,country,Latin America and the Caribbean,12.865416,-85.207229,EG,Egypt,country,Middle East and North Africa,26.820553,30.802498,11835.8764902549,1986,1,0,0,0,0,0,0,0,0,0,0,0,0,1,0,0,0,0,0,0,0,0,0,0
NG,Nigeria,country,Sub-Saharan Africa,9.081999,8.675277,EG,Egypt,country,Middle East and North Africa,26.820553,30.802498,3053.78229246333,1986,2,0,0,0,0,0,0,0,0,0,0,0,0,2,0,0,0,0,0,0,0,0,0,0
OM,Oman,country,Middle East and North Africa,21.512583,55.923255,EG,Egypt,country,Middle East and North Africa,26.820553,30.802498,2614.05376902867,1986,3,0,0,0,0,0,0,0,0,0,0,0,0,3,0,0,0,0,0,0,0,0,0,0
PH,Philippines,country,East Asia and Pacific,12.879721,121.774017,EG,Egypt,country,Middle East and North Africa,26.820553,30.802498,9470.68544680989,1986,754,0,0,0,0,0,35,0,0,180,0,0,0,539,0,0,0,0,0,0,0,0,0,0
PL,Poland,country,Europe and Central Asia,51.919438,19.145136,EG,Egypt,country,Middle East and North Africa,26.820553,30.802498,2960.10739320744,1986,104672,0,0,99960,0,0,0,0,0,0,0,1666,0,4,0,0,0,3042,0,0,0,0,0,0
PT,Portugal,country,Europe and Central Asia,39.399872,-8.224454,EG,Egypt,country,Middle East and North Africa,26.820553,30.802498,3863.1736818731,1986,3897,0,0,0,0,0,0,0,0,0,0,0,0,0,3424,0,0,0,473,0,0,0,0,0
KR,"Korea, Rep.",country,East Asia and Pacific,35.907757,127.766922,EG,Egypt,country,Middle East and North Africa,26.820553,30.802498,8884.0127742979,1986,0,0,0,0,0,0,0,0,0,0,0,0,0,0,0,0,0,0,0,0,0,0,0,0
RO,Romania,country,Europe and Central Asia,45.943161,24.96676,EG,Egypt,country,Middle East and North Africa,26.820553,30.802498,2190.47454238944,1986,33900,0,0,12411,0,0,0,0,0,0,0,0,0,39,17024,0,0,2706,1720,0,0,0,0,0
LC,St. Lucia,country,Latin America and the Caribbean,13.909444,-60.978893,EG,Egypt,country,Middle East and North Africa,26.820553,30.802498,9498.14120795844,1986,20,0,0,0,0,0,0,0,0,0,0,0,0,20,0,0,0,0,0,0,0,0,0,0
SA,Saudi Arabia,country,Middle East and North Africa,23.885942,45.079162,EG,Egypt,country,Middle East and North Africa,26.820553,30.802498,1471.96097543156,1986,74424,74243,0,0,0,0,0,33,0,0,0,0,52,62,12,0,16,0,22,0,0,0,0,0
SN,Senegal,country,Sub-Saharan Africa,14.497401,-14.452362,EG,Egypt,country,Middle East and North Africa,26.820553,30.802498,4881.19698408667,1986,60,0,0,0,0,0,0,0,0,0,0,0,0,0,0,0,0,0,0,60,0,0,0,0
SG,Singapore,country,East Asia and Pacific,1.352083,103.819836,EG,Egypt,country,Middle East and North Africa,26.820553,30.802498,8266.83230129849,1986,19001,0,0,0,0,0,0,0,0,2601,1722,0,100,4015,10563,0,0,0,0,0,0,0,0,0
SO,Somalia,country,Sub-Saharan Africa,5.152149,46.199616,EG,Egypt,country,Middle East and North Africa,26.820553,30.802498,2914.01023195474,1986,0,0,0,0,0,0,0,0,0,0,0,0,0,0,0,0,0,0,0,0,0,0,0,0
ZA,S. Africa,country,Sub-Saharan Africa,-30.559482,22.937506,EG,Egypt,country,Middle East and North Africa,26.820553,30.802498,6442.10810948244,1986,3,0,0,0,0,0,0,0,0,0,0,0,0,3,0,0,0,0,0,0,0,0,0,0
ES,Spain,country,Europe and Central Asia,40.463667,-3.74922,EG,Egypt,country,Middle East and North Africa,26.820553,30.802498,3514.08997283512,1986,38281,0,0,21900,0,27,118,31,0,0,40,15020,0,1076,63,0,0,0,6,0,0,0,0,0
LK,Sri Lanka,country,South Asia,7.873054,80.771797,EG,Egypt,country,Middle East and North Africa,26.820553,30.802498,5668.43485244707,1986,33438,28,0,0,0,0,201,0,0,0,57,0,33058,94,0,0,0,0,0,0,0,0,0,0
SD,Sudan,country,Sub-Saharan Africa,12.862807,30.217636,EG,Egypt,country,Middle East and North Africa,26.820553,30.802498,1554.96730449106,1986,17987,0,0,0,431,0,9709,147,3481,0,0,1200,0,1043,0,0,25,0,0,1976,0,0,0,0
SE,Sweden,country,Europe and Central Asia,60.128161,18.643501,EG,Egypt,country,Middle East and North Africa,26.820553,30.802498,3822.0481088077,1986,101,0,0,0,0,0,0,0,0,0,0,0,0,41,0,0,0,0,60,0,0,0,0,0
CH,Switzerland,country,Europe and Central Asia,46.818188,8.227512,EG,Egypt,country,Middle East and North Africa,26.820553,30.802498,2978.7215865603,1986,32918,19,0,4010,0,0,1080,0,0,0,0,4000,547,23,22595,0,0,0,644,0,0,0,0,0
SY,Syrian Arab Rep.,country,Middle East and North Africa,34.802075,38.996815,EG,Egypt,country,Middle East and North Africa,26.820553,30.802498,1183.58751413298,1986,12407,9167,0,0,2000,0,0,0,0,0,0,0,51,1189,0,0,0,0,0,0,0,0,0,0
TH,Thailand,country,East Asia and Pacific,15.870032,100.992541,EG,Egypt,country,Middle East and North Africa,26.820553,30.802498,7294.19144358834,1986,52916,42807,0,0,0,0,0,0,35,1492,0,0,0,8582,0,0,0,0,0,0,0,0,0,0
TN,Tunisia,country,Middle East and North Africa,33.886917,9.537499,EG,Egypt,country,Middle East and North Africa,26.820553,30.802498,2183.65796795948,1986,1,0,0,0,0,0,0,0,0,0,0,0,0,1,0,0,0,0,0,0,0,0,0,0
TR,Turkey,country,Europe and Central Asia,38.963745,35.243322,EG,Egypt,country,Middle East and North Africa,26.820553,30.802498,1413.54872030114,1986,81160,20889,0,0,49983,223,0,1385,411,0,1422,0,0,2128,4719,0,0,0,0,0,0,0,0,0
UG,Uganda,country,Sub-Saharan Africa,1.373333,32.290275,EG,Egypt,country,Middle East and North Africa,26.820553,30.802498,2837.23278294888,1986,486,0,0,0,0,0,0,0,0,0,0,0,378,12,0,0,0,0,0,96,0,0,0,0
GB,United Kingdom,country,Europe and Central Asia,55.378051,-3.435973,EG,Egypt,country,Middle East and North Africa,26.820553,30.802498,4204.60279341227,1986,144765,4,5839,53728,1033,0,0,0,35,35,0,7922,189,234,72709,0,7,2095,942,0,0,0,0,0
TZ,Tanzania,country,Sub-Saharan Africa,-6.369028,34.888822,EG,Egypt,country,Middle East and North Africa,26.820553,30.802498,3720.83567807843,1986,268,0,0,0,0,0,0,0,0,0,10,0,20,238,0,0,0,0,0,0,0,0,0,0
US,USA,country,North America,37.09024,-95.712891,EG,Egypt,country,Middle East and North Africa,26.820553,30.802498,10988.7012592759,1986,3730100,2796089,0,17110,11466,0,43999,16,17,78,0,236739,4,18898,541751,0,39,52571,11362,0,0,0,0,0
UY,Uruguay,country,Latin America and the Caribbean,-32.522779,-55.765835,EG,Egypt,country,Middle East and North Africa,26.820553,30.802498,11287.0203937478,1986,10,0,0,0,0,0,0,0,0,0,0,0,0,10,0,0,0,0,0,0,0,0,0,0
BA,Bosnia & Herzegovina,country,Europe and Central Asia,43.915886,17.679076,EG,Egypt,country,Middle East and North Africa,26.820553,30.802498,2238.76229734916,1986,11038,0,0,0,0,0,0,0,0,0,0,0,0,0,10728,0,11,153,157,0,0,0,0,0
ZW,Zimbabwe,country,Sub-Saharan Africa,-19.015438,29.154857,EG,Egypt,country,Middle East and North Africa,26.820553,30.802498,5105.54003845792,1986,0,0,0,0,0,0,0,0,0,0,0,0,0,0,0,0,0,0,0,0,0,0,0,0
AL,Albania,country,Europe and Central Asia,41.153332,20.168331,EG,Egypt,country,Middle East and North Africa,26.820553,30.802498,1869.85145551779,1987,2367,0,0,0,0,0,0,0,0,0,0,0,0,2367,0,0,0,0,0,0,0,0,0,0
AR,Argentina,country,Latin America and the Caribbean,-38.416097,-63.616672,EG,Egypt,country,Middle East and North Africa,26.820553,30.802498,12192.397394083,1987,24086,0,0,0,0,0,0,0,0,0,0,0,0,1186,22900,0,0,0,0,0,0,0,0,0
AU,Australia,country,East Asia and Pacific,-25.274398,133.775136,EG,Egypt,country,Middle East and North Africa,26.820553,30.802498,12462.2319801187,1987,1450023,1431530,0,0,15667,0,37,0,0,2636,0,0,0,38,0,0,0,86,29,0,0,0,0,0
AT,Austria,country,Europe and Central Asia,47.516231,14.550072,EG,Egypt,country,Middle East and North Africa,26.820553,30.802498,2705.35404651056,1987,3717,0,0,0,0,0,0,0,0,0,0,0,25,5,0,0,0,108,3579,0,0,0,0,0
BH,Bahrain,country,Middle East and North Africa,25.930414,50.637772,EG,Egypt,country,Middle East and North Africa,26.820553,30.802498,1978.67867275917,1987,2,0,0,0,0,0,0,0,0,0,0,0,0,2,0,0,0,0,0,0,0,0,0,0
BD,Bangladesh,country,South Asia,23.684994,90.356331,EG,Egypt,country,Middle East and North Africa,26.820553,30.802498,5951.20804631553,1987,7103,0,0,0,0,0,0,0,0,6799,0,0,304,0,0,0,0,0,0,0,0,0,0,0
BE,Belgium,country,Europe and Central Asia,50.503887,4.469936,EG,Egypt,country,Middle East and North Africa,26.820553,30.802498,3454.43979258168,1987,55072,258,10055,13951,0,0,2034,0,0,0,0,19854,0,249,1117,0,17,1752,5802,0,0,0,0,0
BR,Brazil,country,Latin America and the Caribbean,-14.235004,-51.92528,EG,Egypt,country,Middle East and North Africa,26.820553,30.802498,10028.012642647,1987,99311,0,0,27000,0,0,0,0,0,0,50,23000,1087,1157,46364,0,0,648,5,0,0,0,0,0
CA,Canada,country,North America,56.130366,-106.346771,EG,Egypt,country,Middle East and North Africa,26.820553,30.802498,9954.90844208778,1987,219876,206222,0,0,490,0,2996,0,0,0,0,9313,0,265,0,0,25,0,590,0,0,0,0,0
HK,Hong Kong,country,East Asia and Pacific,22.396428,114.109497,EG,Egypt,country,Middle East and North Africa,26.820553,30.802498,8287.74431451014,1987,85,0,0,0,0,0,0,0,0,0,0,0,0,85,0,0,0,0,0,0,0,0,0,0
CN,China,country,East Asia and Pacific,35.86166,104.195397,EG,Egypt,country,Middle East and North Africa,26.820553,30.802498,6890.50630390918,1987,27551,0,0,0,0,0,8651,0,0,3251,26,0,1271,310,13815,0,0,227,0,0,0,0,0,0
CG,"Congo, Rep.",country,Sub-Saharan Africa,-0.228021,15.827659,EG,Egypt,country,Middle East and North Africa,26.820553,30.802498,3411.73192312879,1987,125,0,0,0,0,0,0,0,0,0,0,0,125,0,0,0,0,0,0,0,0,0,0,0
CR,Costa Rica,country,Latin America and the Caribbean,9.748917,-83.753428,EG,Egypt,country,Middle East and North Africa,26.820553,30.802498,11889.4911991381,1987,50,0,0,0,0,0,0,0,0,0,0,0,50,0,0,0,0,0,0,0,0,0,0,0
CI,Ivory Coast,country,Sub-Saharan Africa,7.539989,-5.54708,EG,Egypt,country,Middle East and North Africa,26.820553,30.802498,4395.73378933376,1987,1013,0,0,0,0,0,0,0,0,0,0,0,1013,0,0,0,0,0,0,0,0,0,0,0
CU,Cuba,country,Latin America and the Caribbean,21.521757,-77.781167,EG,Egypt,country,Middle East and North Africa,26.820553,30.802498,10651.5631684535,1987,59004,0,0,59000,0,0,0,0,0,0,0,0,0,4,0,0,0,0,0,0,0,0,0,0
CY,Cyprus,country,Europe and Central Asia,35.126413,33.429859,EG,Egypt,country,Middle East and North Africa,26.820553,30.802498,957.886476065658,1987,13116,0,0,0,0,0,0,0,0,0,200,19,0,314,12553,0,0,0,30,0,0,0,0,0
CZ,Czech Republic,country,Europe and Central Asia,49.817492,15.472962,EG,Egypt,country,Middle East and North Africa,26.820553,30.802498,2876.1400991165,1987,50377,0,111,48243,0,0,0,0,0,0,0,0,0,1,0,0,0,0,2022,0,0,0,0,0
DK,Denmark,country,Europe and Central Asia,56.26392,9.501785,EG,Egypt,country,Middle East and North Africa,26.820553,30.802498,3693.24391219974,1987,34994,0,0,0,0,0,0,158,0,0,0,12626,0,681,0,0,225,4330,17199,0,0,0,0,0
EC,Ecuador,country,Latin America and the Caribbean,-1.831239,-78.183406,EG,Egypt,country,Middle East and North Africa,26.820553,30.802498,11992.9541170827,1987,200,0,0,0,0,0,0,0,0,0,0,0,200,0,0,0,0,0,0,0,0,0,0,0
ET,Ethiopia,country,Sub-Saharan Africa,9.145,40.489673,EG,Egypt,country,Middle East and North Africa,26.820553,30.802498,2216.38557950388,1987,151,0,0,0,0,0,0,0,0,0,0,0,0,0,0,0,0,0,0,151,0,0,0,0
FI,Finland,country,Europe and Central Asia,61.92411,25.748151,EG,Egypt,country,Middle East and North Africa,26.820553,30.802498,3925.78779986235,1987,4234,0,0,0,0,0,0,0,0,0,0,0,0,0,0,0,0,3983,251,0,0,0,0,0
FR,France,country,Europe and Central Asia,46.227638,2.213749,EG,Egypt,country,Middle East and North Africa,26.820553,30.802498,3315.47283349949,1987,796192,648494,1542,95335,0,0,3039,37,12,6,199,15455,199,457,1153,0,328,18465,11799,0,0,0,0,0
GI,Gibraltar,country,Europe and Central Asia,36.137741,-5.345374,EG,Egypt,country,Middle East and North Africa,26.820553,30.802498,3562.00741313575,1987,5457,0,0,0,0,0,0,0,0,0,0,0,0,0,5457,0,0,0,0,0,0,0,0,0
GR,Greece,country,Europe and Central Asia,39.074208,21.824312,EG,Egypt,country,Middle East and North Africa,26.820553,30.802498,1599.25422928541,1987,98395,73158,0,0,0,0,385,15025,40,0,0,0,0,3974,5812,0,119,1,0,0,0,0,0,0
GN,Guinea,country,Sub-Saharan Africa,9.945587,-9.696645,EG,Egypt,country,Middle East and North Africa,26.820553,30.802498,4644.85408276509,1987,35,0,0,0,0,0,0,0,0,0,0,0,35,0,0,0,0,0,0,0,0,0,0,0
GW,Guinea-Bissau,country,Sub-Saharan Africa,11.803749,-15.180413,EG,Egypt,country,Middle East and North Africa,26.820553,30.802498,5079.36490534037,1987,2,0,0,0,0,0,0,0,0,0,0,0,0,2,0,0,0,0,0,0,0,0,0,0
HU,Hungary,country,Europe and Central Asia,47.162494,19.503304,EG,Egypt,country,Middle East and North Africa,26.820553,30.802498,2471.23854743199,1987,4729,0,0,0,0,0,0,0,0,0,0,10,0,1,0,0,39,4704,14,0,0,0,0,0
IS,Iceland,country,Europe and Central Asia,64.963051,-19.020835,EG,Egypt,country,Middle East and North Africa,26.820553,30.802498,5485.02969987773,1987,3197,0,2014,0,0,0,0,0,0,0,0,0,0,0,0,0,0,1183,0,0,0,0,0,0
IN,India,country,South Asia,20.593684,78.96288,EG,Egypt,country,Middle East and North Africa,26.820553,30.802498,4929.07571829965,1987,15208,0,0,0,0,130,0,0,0,9,831,0,9052,4876,0,0,0,310,0,0,0,0,0,0
ID,Indonesia,country,East Asia and Pacific,-0.789275,113.921327,EG,Egypt,country,Middle East and North Africa,26.820553,30.802498,9375.40807616481,1987,5505,0,0,0,0,0,0,0,0,0,61,0,5400,44,0,0,0,0,0,0,0,0,0,0
IR,Iran,country,Middle East and North Africa,32.427908,53.688046,EG,Egypt,country,Middle East and North Africa,26.820553,30.802498,2295.70132592549,1987,17,0,0,0,0,0,0,0,17,0,0,0,0,0,0,0,0,0,0,0,0,0,0,0
IE,Ireland,country,Europe and Central Asia,53.41291,-8.24389,EG,Egypt,country,Middle East and North Africa,26.820553,30.802498,4359.11107429444,1987,41086,0,3682,0,0,0,0,0,0,29,0,0,0,1585,0,0,0,31452,4338,0,0,0,0,0
IL,Israel,country,Middle East and North Africa,31.046051,34.851612,EG,Egypt,country,Middle East and North Africa,26.820553,30.802498,613.779687934423,1987,1379,0,0,0,0,0,0,0,0,0,0,190,0,27,0,0,355,0,1162,0,0,0,0,0
IT,Italy,country,Europe and Central Asia,41.87194,12.56738,EG,Egypt,country,Middle East and North Africa,26.820553,30.802498,2360.0272509652,1987,206556,164097,0,0,0,22,10,2159,402,446,0,8604,0,6251,24558,0,189,0,7,0,0,0,0,0
JM,Jamaica,country,Latin America and the Caribbean,18.109581,-77.297508,EG,Egypt,country,Middle East and North Africa,26.820553,30.802498,10807.0101608639,1987,1,0,0,0,0,0,0,0,0,0,0,0,0,1,0,0,0,0,0,0,0,0,0,0
JP,Japan,country,East Asia and Pacific,36.204824,138.252924,EG,Egypt,country,Middle East and North Africa,26.820553,30.802498,9696.1079625791,1987,676,0,0,0,0,0,0,0,0,23,0,0,0,653,0,0,0,0,0,0,0,0,0,0
JO,Jordan,country,Middle East and North Africa,30.585164,36.238414,EG,Egypt,country,Middle East and North Africa,26.820553,30.802498,676.088710764274,1987,28609,25960,0,17,0,0,0,195,0,0,0,1521,90,51,455,274,0,46,0,0,0,0,0,0
KE,Kenya,country,Sub-Saharan Africa,-0.023559,37.906193,EG,Egypt,country,Middle East and North Africa,26.820553,30.802498,3083.62508462516,1987,2975,0,0,0,0,0,1000,0,0,0,0,0,1975,0,0,0,0,0,0,0,0,0,0,0
KW,Kuwait,country,Middle East and North Africa,29.31166,47.481766,EG,Egypt,country,Middle East and North Africa,26.820553,30.802498,1660.18186060356,1987,33,0,0,0,0,12,0,15,0,0,0,0,0,0,0,0,0,0,6,0,0,0,0,0
LB,Lebanon,country,Middle East and North Africa,33.854721,35.862285,EG,Egypt,country,Middle East and North Africa,26.820553,30.802498,921.317507558426,1987,4245,325,0,0,102,12,0,0,1338,0,102,0,14,2255,0,0,0,0,97,0,0,0,0,0
MG,Madagascar,country,Sub-Saharan Africa,-18.766947,46.869107,EG,Egypt,country,Middle East and North Africa,26.820553,30.802498,5363.18301178549,1987,119,0,0,0,0,0,0,0,0,0,0,0,119,0,0,0,0,0,0,0,0,0,0,0
MW,Malawi,country,Sub-Saharan Africa,-13.254308,34.301525,EG,Egypt,country,Middle East and North Africa,26.820553,30.802498,4477.13205763116,1987,2479,0,0,0,0,0,0,0,0,0,0,0,0,2479,0,0,0,0,0,0,0,0,0,0
MY,Malaysia,country,East Asia and Pacific,4.210484,101.975766,EG,Egypt,country,Middle East and North Africa,26.820553,30.802498,7938.90606344638,1987,19833,0,0,0,0,0,0,0,0,0,0,0,36,1766,18031,0,0,0,0,0,0,0,0,0
MX,Mexico,country,Latin America and the Caribbean,23.634501,-102.552784,EG,Egypt,country,Middle East and North Africa,26.820553,30.802498,12507.6318527222,1987,2048,0,0,0,0,0,2000,0,0,0,21,0,0,27,0,0,0,0,0,0,0,0,0,0
MZ,Mozambique,country,Sub-Saharan Africa,-18.665695,35.529562,EG,Egypt,country,Middle East and North Africa,26.820553,30.802498,5089.17821247839,1987,140,0,0,0,0,0,0,0,140,0,0,0,0,0,0,0,0,0,0,0,0,0,0,0
NL,Netherlands,country,Europe and Central Asia,52.132633,5.291266,EG,Egypt,country,Middle East and North Africa,26.820553,30.802498,3531.6048959239,1987,103222,11,17159,26475,0,0,35,0,25,18,0,14677,865,3220,9056,0,8463,10048,21633,0,0,0,0,0
NZ,New Zealand,country,East Asia and Pacific,-40.900557,174.885971,EG,Egypt,country,Middle East and North Africa,26.820553,30.802498,16399.7029091802,1987,7844,0,0,1500,0,0,0,0,0,632,0,0,0,0,0,0,0,2349,3363,0,0,0,0,0
NI,Nicaragua,country,Latin America and the Caribbean,12.865416,-85.207229,EG,Egypt,country,Middle East and North Africa,26.820553,30.802498,11835.8764902549,1987,0,0,0,0,0,0,0,0,0,0,0,0,0,0,0,0,0,0,0,0,0,0,0,0
NG,Nigeria,country,Sub-Saharan Africa,9.081999,8.675277,EG,Egypt,country,Middle East and North Africa,26.820553,30.802498,3053.78229246333,1987,4,0,0,0,0,0,0,0,0,0,0,0,0,4,0,0,0,0,0,0,0,0,0,0
OM,Oman,country,Middle East and North Africa,21.512583,55.923255,EG,Egypt,country,Middle East and North Africa,26.820553,30.802498,2614.05376902867,1987,6,0,0,0,0,0,0,0,0,0,0,0,0,6,0,0,0,0,0,0,0,0,0,0
PK,Pakistan,country,South Asia,30.375321,69.345116,EG,Egypt,country,Middle East and North Africa,26.820553,30.802498,3769.93029474242,1987,0,0,0,0,0,0,0,0,0,0,0,0,0,0,0,0,15,0,0,0,0,0,0,0
PE,Peru,country,Latin America and the Caribbean,-9.189967,-75.015152,EG,Egypt,country,Middle East and North Africa,26.820553,30.802498,12043.8068828948,1987,100,0,0,0,0,0,0,0,0,0,0,0,100,0,0,0,0,0,0,0,0,0,0,0
PH,Philippines,country,East Asia and Pacific,12.879721,121.774017,EG,Egypt,country,Middle East and North Africa,26.820553,30.802498,9470.68544680989,1987,928,0,0,0,0,0,157,0,66,154,0,0,0,440,111,0,0,0,0,0,0,0,0,0
PL,Poland,country,Europe and Central Asia,51.919438,19.145136,EG,Egypt,country,Middle East and North Africa,26.820553,30.802498,2960.10739320744,1987,15206,0,0,11954,0,0,0,0,0,0,0,0,0,2,0,0,0,0,3250,0,0,0,0,0
PT,Portugal,country,Europe and Central Asia,39.399872,-8.224454,EG,Egypt,country,Middle East and North Africa,26.820553,30.802498,3863.1736818731,1987,500,0,0,0,0,0,0,0,0,0,0,0,0,1,0,0,0,0,499,0,0,0,0,0
RO,Romania,country,Europe and Central Asia,45.943161,24.96676,EG,Egypt,country,Middle East and North Africa,26.820553,30.802498,2190.47454238944,1987,69135,0,0,48403,0,0,0,0,0,0,0,0,0,223,9750,0,0,3102,7657,0,0,0,0,0
SA,Saudi Arabia,country,Middle East and North Africa,23.885942,45.079162,EG,Egypt,country,Middle East and North Africa,26.820553,30.802498,1471.96097543156,1987,36026,34704,23,0,0,0,1000,0,0,0,0,0,176,96,20,0,0,0,7,0,0,0,0,0
SG,Singapore,country,East Asia and Pacific,1.352083,103.819836,EG,Egypt,country,Middle East and North Africa,26.820553,30.802498,8266.83230129849,1987,11994,0,0,0,0,0,20,0,0,0,872,0,542,5022,5538,0,0,0,0,0,0,0,0,0
SO,Somalia,country,Sub-Saharan Africa,5.152149,46.199616,EG,Egypt,country,Middle East and North Africa,26.820553,30.802498,2914.01023195474,1987,111,0,0,0,0,0,0,0,0,0,0,0,0,111,0,0,0,0,0,0,0,0,0,0
ES,Spain,country,Europe and Central Asia,40.463667,-3.74922,EG,Egypt,country,Middle East and North Africa,26.820553,30.802498,3514.08997283512,1987,5576,0,0,4302,0,255,0,0,0,0,0,86,8,581,35,0,0,0,309,0,0,0,0,0
LK,Sri Lanka,country,South Asia,7.873054,80.771797,EG,Egypt,country,Middle East and North Africa,26.820553,30.802498,5668.43485244707,1987,33783,0,0,0,0,0,1810,0,387,0,39,0,31509,38,0,0,0,0,0,0,0,0,0,0
SD,Sudan,country,Sub-Saharan Africa,12.862807,30.217636,EG,Egypt,country,Middle East and North Africa,26.820553,30.802498,1554.96730449106,1987,16450,21,0,0,46,0,11770,0,1939,0,25,1732,0,833,0,0,0,0,0,84,0,0,0,0
SE,Sweden,country,Europe and Central Asia,60.128161,18.643501,EG,Egypt,country,Middle East and North Africa,26.820553,30.802498,3822.0481088077,1987,1357,0,0,0,0,0,0,0,0,0,0,0,0,24,33,0,0,0,1300,0,0,0,0,0
CH,Switzerland,country,Europe and Central Asia,46.818188,8.227512,EG,Egypt,country,Middle East and North Africa,26.820553,30.802498,2978.7215865603,1987,110618,79,0,14730,0,0,2171,0,0,0,0,7051,38,458,85481,110,0,0,500,0,0,0,0,0
SY,Syrian Arab Rep.,country,Middle East and North Africa,34.802075,38.996815,EG,Egypt,country,Middle East and North Africa,26.820553,30.802498,1183.58751413298,1987,210,0,0,0,0,0,0,0,0,0,0,0,0,210,0,0,0,0,0,0,0,0,0,0
TH,Thailand,country,East Asia and Pacific,15.870032,100.992541,EG,Egypt,country,Middle East and North Africa,26.820553,30.802498,7294.19144358834,1987,40494,39682,0,0,0,0,0,0,0,0,0,0,0,812,0,0,0,0,0,0,0,0,0,0
TN,Tunisia,country,Middle East and North Africa,33.886917,9.537499,EG,Egypt,country,Middle East and North Africa,26.820553,30.802498,2183.65796795948,1987,20,0,0,0,0,0,0,0,0,0,0,0,0,0,0,0,0,0,20,0,0,0,0,0
TR,Turkey,country,Europe and Central Asia,38.963745,35.243322,EG,Egypt,country,Middle East and North Africa,26.820553,30.802498,1413.54872030114,1987,97814,22092,0,0,57744,504,0,372,1528,0,293,0,0,818,14463,0,0,0,0,0,0,0,0,0
UG,Uganda,country,Sub-Saharan Africa,1.373333,32.290275,EG,Egypt,country,Middle East and North Africa,26.820553,30.802498,2837.23278294888,1987,172,0,0,0,0,0,0,0,0,0,0,0,166,6,0,0,0,0,0,0,0,0,0,0
GB,United Kingdom,country,Europe and Central Asia,55.378051,-3.435973,EG,Egypt,country,Middle East and North Africa,26.820553,30.802498,4204.60279341227,1987,64562,0,6491,20640,4302,0,0,0,202,0,0,4645,281,235,18619,0,84,3051,6096,0,0,0,0,0
TZ,Tanzania,country,Sub-Saharan Africa,-6.369028,34.888822,EG,Egypt,country,Middle East and North Africa,26.820553,30.802498,3720.83567807843,1987,151,0,0,0,0,0,0,0,0,0,0,0,1,150,0,0,0,0,0,0,0,0,0,0
US,USA,country,North America,37.09024,-95.712891,EG,Egypt,country,Middle East and North Africa,26.820553,30.802498,10988.7012592759,1987,2646569,2074635,0,12505,0,46,54884,5,9,125,0,176766,26,16594,249651,0,61,60920,403,0,0,0,0,0
UY,Uruguay,country,Latin America and the Caribbean,-32.522779,-55.765835,EG,Egypt,country,Middle East and North Africa,26.820553,30.802498,11287.0203937478,1987,19,0,0,0,0,0,0,0,0,0,0,0,0,19,0,0,0,0,0,0,0,0,0,0
RU,Russian Federation,country,Europe and Central Asia,61.52401,105.318756,EG,Egypt,country,Middle East and North Africa,26.820553,30.802498,6603.76084333782,1987,8,0,0,0,0,0,0,0,0,0,0,0,0,0,8,0,0,0,0,0,0,0,0,0
BA,Bosnia & Herzegovina,country,Europe and Central Asia,43.915886,17.679076,EG,Egypt,country,Middle East and North Africa,26.820553,30.802498,2238.76229734916,1987,7527,0,0,0,0,0,0,0,0,0,0,0,0,742,6381,0,0,52,352,0,0,0,0,0
ZM,Zambia,country,Sub-Saharan Africa,-13.133897,27.849332,EG,Egypt,country,Middle East and North Africa,26.820553,30.802498,4459.15986524503,1987,23,0,0,0,0,0,0,0,0,0,0,0,0,23,0,0,0,0,0,0,0,0,0,0
ZW,Zimbabwe,country,Sub-Saharan Africa,-19.015438,29.154857,EG,Egypt,country,Middle East and North Africa,26.820553,30.802498,5105.54003845792,1987,87,0,0,0,0,0,9,0,0,0,0,0,0,0,0,0,0,72,6,0,0,0,0,0
AL,Albania,country,Europe and Central Asia,41.153332,20.168331,EG,Egypt,country,Middle East and North Africa,26.820553,30.802498,1869.85145551779,1988,14005,0,0,0,0,0,0,0,0,1,0,0,0,14003,0,0,0,0,1,0,0,0,0,0
AR,Argentina,country,Latin America and the Caribbean,-38.416097,-63.616672,EG,Egypt,country,Middle East and North Africa,26.820553,30.802498,12192.397394083,1988,265987,231092,0,0,0,0,0,0,0,0,0,0,0,378,28720,0,0,5797,0,0,0,0,0,0
AU,Australia,country,East Asia and Pacific,-25.274398,133.775136,EG,Egypt,country,Middle East and North Africa,26.820553,30.802498,12462.2319801187,1988,1601041,1591093,0,0,0,0,0,0,0,2649,0,0,0,144,7069,0,0,86,0,0,0,0,0,0
AT,Austria,country,Europe and Central Asia,47.516231,14.550072,EG,Egypt,country,Middle East and North Africa,26.820553,30.802498,2705.35404651056,1988,955,1,0,0,0,0,0,0,0,0,0,0,8,9,243,0,0,34,660,0,0,0,0,0
BD,Bangladesh,country,South Asia,23.684994,90.356331,EG,Egypt,country,Middle East and North Africa,26.820553,30.802498,5951.20804631553,1988,18142,0,0,0,0,0,0,0,0,14840,0,0,3302,0,0,0,0,0,0,0,0,0,0,0
BE,Belgium,country,Europe and Central Asia,50.503887,4.469936,EG,Egypt,country,Middle East and North Africa,26.820553,30.802498,3454.43979258168,1988,96585,144,0,75163,0,0,0,0,0,0,0,12126,0,225,253,0,0,4312,4362,0,0,0,0,0
BR,Brazil,country,Latin America and the Caribbean,-14.235004,-51.92528,EG,Egypt,country,Middle East and North Africa,26.820553,30.802498,10028.012642647,1988,104912,53,0,63545,0,0,0,0,0,0,14,18000,1626,732,4467,0,0,16475,0,0,0,0,0,0
BG,Bulgaria,country,Europe and Central Asia,42.733883,25.48583,EG,Egypt,country,Middle East and North Africa,26.820553,30.802498,1835.92432650592,1988,153,0,0,0,0,0,0,122,3,0,0,0,0,28,0,0,0,0,0,0,0,0,0,0
CA,Canada,country,North America,56.130366,-106.346771,EG,Egypt,country,Middle East and North Africa,26.820553,30.802498,9954.90844208778,1988,81543,74940,0,0,0,0,1991,0,0,0,0,0,0,3468,0,0,0,0,450,694,0,0,0,0
HK,Hong Kong,country,East Asia and Pacific,22.396428,114.109497,EG,Egypt,country,Middle East and North Africa,26.820553,30.802498,8287.74431451014,1988,196,0,0,0,0,0,10,0,0,0,17,0,50,119,0,0,0,0,0,0,0,0,0,0
CN,China,country,East Asia and Pacific,35.86166,104.195397,EG,Egypt,country,Middle East and North Africa,26.820553,30.802498,6890.50630390918,1988,7998,0,0,0,0,0,1103,3,0,27,62,0,2283,323,3938,0,0,259,0,0,0,0,0,0
KM,Comoros,country,Sub-Saharan Africa,-11.875001,43.872219,EG,Egypt,country,Middle East and North Africa,26.820553,30.802498,4533.42531637132,1988,0,0,0,0,0,0,0,0,0,0,0,0,0,0,0,0,0,0,0,0,0,0,0,0
CG,"Congo, Rep.",country,Sub-Saharan Africa,-0.228021,15.827659,EG,Egypt,country,Middle East and North Africa,26.820553,30.802498,3411.73192312879,1988,35,0,0,0,0,0,0,0,0,0,0,0,33,2,0,0,0,0,0,0,0,0,0,0
CR,Costa Rica,country,Latin America and the Caribbean,9.748917,-83.753428,EG,Egypt,country,Middle East and North Africa,26.820553,30.802498,11889.4911991381,1988,28,0,0,0,0,0,0,0,0,0,0,0,0,28,0,0,0,0,0,0,0,0,0,0
CI,Ivory Coast,country,Sub-Saharan Africa,7.539989,-5.54708,EG,Egypt,country,Middle East and North Africa,26.820553,30.802498,4395.73378933376,1988,8,0,0,0,0,0,0,0,0,0,0,0,0,8,0,0,0,0,0,0,0,0,0,0
CU,Cuba,country,Latin America and the Caribbean,21.521757,-77.781167,EG,Egypt,country,Middle East and North Africa,26.820553,30.802498,10651.5631684535,1988,23367,0,0,23364,0,0,0,0,0,0,0,0,0,3,0,0,0,0,0,0,0,0,0,0
CY,Cyprus,country,Europe and Central Asia,35.126413,33.429859,EG,Egypt,country,Middle East and North Africa,26.820553,30.802498,957.886476065658,1988,2884,0,0,0,0,0,0,0,75,0,0,0,0,314,2485,0,0,0,10,0,0,0,0,0
CZ,Czech Republic,country,Europe and Central Asia,49.817492,15.472962,EG,Egypt,country,Middle East and North Africa,26.820553,30.802498,2876.1400991165,1988,3249,0,0,0,0,0,0,0,0,0,0,0,0,6,0,0,0,0,3243,0,0,0,0,0
DK,Denmark,country,Europe and Central Asia,56.26392,9.501785,EG,Egypt,country,Middle East and North Africa,26.820553,30.802498,3693.24391219974,1988,32159,0,0,1000,0,0,0,0,0,0,0,11779,0,296,60,0,0,3464,15560,0,0,0,0,0
DJ,Djibouti,country,Middle East and North Africa,11.825138,42.590275,EG,Egypt,country,Middle East and North Africa,26.820553,30.802498,2075.39224053789,1988,51,0,0,0,0,0,0,0,0,0,0,0,0,51,0,0,0,0,0,0,0,0,0,0
GQ,Equatorial Guinea,country,Sub-Saharan Africa,1.650801,10.267895,EG,Egypt,country,Middle East and North Africa,26.820553,30.802498,3558.3343730824,1988,4,0,0,0,0,0,0,0,0,0,0,0,0,4,0,0,0,0,0,0,0,0,0,0
FI,Finland,country,Europe and Central Asia,61.92411,25.748151,EG,Egypt,country,Middle East and North Africa,26.820553,30.802498,3925.78779986235,1988,2863,0,0,0,0,0,0,0,0,0,0,0,0,0,0,0,0,2863,0,0,0,0,0,0
FR,France,country,Europe and Central Asia,46.227638,2.213749,EG,Egypt,country,Middle East and North Africa,26.820553,30.802498,3315.47283349949,1988,1071215,799168,1724,226495,0,0,0,0,17,0,54,12848,256,425,943,0,90,19307,9978,0,0,0,0,0
GI,Gibraltar,country,Europe and Central Asia,36.137741,-5.345374,EG,Egypt,country,Middle East and North Africa,26.820553,30.802498,3562.00741313575,1988,324,0,0,324,0,0,0,0,0,0,0,0,0,0,0,0,0,0,0,0,0,0,0,0
GR,Greece,country,Europe and Central Asia,39.074208,21.824312,EG,Egypt,country,Middle East and North Africa,26.820553,30.802498,1599.25422928541,1988,21742,7996,0,0,0,0,61,6421,0,0,0,0,0,7110,109,0,0,45,0,0,0,0,0,0
GT,Guatemala,country,Latin America and the Caribbean,15.783471,-90.230759,EG,Egypt,country,Middle East and North Africa,26.820553,30.802498,12096.3205420716,1988,42,0,0,0,0,0,0,0,0,0,42,0,0,0,0,0,0,0,0,0,0,0,0,0
HU,Hungary,country,Europe and Central Asia,47.162494,19.503304,EG,Egypt,country,Middle East and North Africa,26.820553,30.802498,2471.23854743199,1988,3606,0,0,0,0,0,0,54,0,0,0,92,0,0,1100,0,33,2337,23,0,0,0,0,0
IN,India,country,South Asia,20.593684,78.96288,EG,Egypt,country,Middle East and North Africa,26.820553,30.802498,4929.07571829965,1988,18869,0,0,0,0,31,0,0,0,0,1303,3636,11020,2879,0,0,0,0,0,0,0,0,0,0
ID,Indonesia,country,East Asia and Pacific,-0.789275,113.921327,EG,Egypt,country,Middle East and North Africa,26.820553,30.802498,9375.40807616481,1988,12613,0,0,0,0,0,0,0,0,0,72,0,12374,167,0,0,0,0,0,0,0,0,0,0
IQ,Iraq,country,Middle East and North Africa,33.223191,43.679291,EG,Egypt,country,Middle East and North Africa,26.820553,30.802498,1429.52198776899,1988,585,0,0,0,0,0,0,0,0,585,0,0,0,0,0,0,0,0,0,0,0,0,0,0
IE,Ireland,country,Europe and Central Asia,53.41291,-8.24389,EG,Egypt,country,Middle East and North Africa,26.820553,30.802498,4359.11107429444,1988,28564,0,2839,0,0,0,0,0,0,0,0,5,0,5847,0,0,0,10208,9665,0,0,0,0,0
IL,Israel,country,Middle East and North Africa,31.046051,34.851612,EG,Egypt,country,Middle East and North Africa,26.820553,30.802498,613.779687934423,1988,882,0,0,0,0,0,0,0,0,0,0,180,45,20,0,0,270,0,637,0,0,0,0,0
IT,Italy,country,Europe and Central Asia,41.87194,12.56738,EG,Egypt,country,Middle East and North Africa,26.820553,30.802498,2360.0272509652,1988,122259,105016,0,519,0,114,0,828,73,0,0,6550,0,5628,3091,14,208,338,88,0,0,0,0,0
JP,Japan,country,East Asia and Pacific,36.204824,138.252924,EG,Egypt,country,Middle East and North Africa,26.820553,30.802498,9696.1079625791,1988,247,0,0,184,0,0,0,0,0,0,36,0,0,27,0,0,0,0,0,0,0,0,0,0
JO,Jordan,country,Middle East and North Africa,30.585164,36.238414,EG,Egypt,country,Middle East and North Africa,26.820553,30.802498,676.088710764274,1988,912,0,0,0,0,0,0,500,0,0,140,17,0,1,91,63,0,80,20,0,0,0,0,0
KE,Kenya,country,Sub-Saharan Africa,-0.023559,37.906193,EG,Egypt,country,Middle East and North Africa,26.820553,30.802498,3083.62508462516,1988,6809,0,0,0,0,0,0,0,0,0,0,0,6809,0,0,0,0,0,0,0,0,0,0,0
KW,Kuwait,country,Middle East and North Africa,29.31166,47.481766,EG,Egypt,country,Middle East and North Africa,26.820553,30.802498,1660.18186060356,1988,2,0,0,0,0,0,0,0,0,0,0,0,0,2,0,0,0,0,0,0,0,0,0,0
LB,Lebanon,country,Middle East and North Africa,33.854721,35.862285,EG,Egypt,country,Middle East and North Africa,26.820553,30.802498,921.317507558426,1988,24672,8934,0,0,0,30,26,0,0,0,0,12965,0,2243,0,0,0,0,474,0,0,0,0,0
MW,Malawi,country,Sub-Saharan Africa,-13.254308,34.301525,EG,Egypt,country,Middle East and North Africa,26.820553,30.802498,4477.13205763116,1988,2404,0,0,0,0,0,0,0,0,0,0,0,0,2401,0,0,0,0,3,0,0,0,0,0
MY,Malaysia,country,East Asia and Pacific,4.210484,101.975766,EG,Egypt,country,Middle East and North Africa,26.820553,30.802498,7938.90606344638,1988,29539,0,0,0,0,0,0,0,31,0,10,0,18,1165,28315,0,0,0,0,0,0,0,0,0
MX,Mexico,country,Latin America and the Caribbean,23.634501,-102.552784,EG,Egypt,country,Middle East and North Africa,26.820553,30.802498,12507.6318527222,1988,41,0,0,0,0,0,0,0,0,0,41,0,0,0,0,0,0,0,0,0,0,0,0,0
MM,Myanmar,country,East Asia and Pacific,21.913965,95.956223,EG,Egypt,country,Middle East and North Africa,26.820553,30.802498,6558.58806631573,1988,140,0,0,0,0,0,0,0,0,0,10,0,0,0,105,0,0,25,0,0,0,0,0,0
NL,Netherlands,country,Europe and Central Asia,52.132633,5.291266,EG,Egypt,country,Middle East and North Africa,26.820553,30.802498,3531.6048959239,1988,100176,355,11589,65,0,13,0,0,0,0,0,10889,849,13211,44407,0,7565,7230,11568,0,0,0,0,0
NZ,New Zealand,country,East Asia and Pacific,-40.900557,174.885971,EG,Egypt,country,Middle East and North Africa,26.820553,30.802498,16399.7029091802,1988,15294,0,0,0,0,0,0,0,0,2354,0,0,0,0,0,0,0,5441,7499,0,0,0,0,0
NI,Nicaragua,country,Latin America and the Caribbean,12.865416,-85.207229,EG,Egypt,country,Middle East and North Africa,26.820553,30.802498,11835.8764902549,1988,2,0,0,0,0,0,0,0,0,0,0,0,0,2,0,0,0,0,0,0,0,0,0,0
OM,Oman,country,Middle East and North Africa,21.512583,55.923255,EG,Egypt,country,Middle East and North Africa,26.820553,30.802498,2614.05376902867,1988,56,0,0,0,0,5,0,0,0,0,0,0,0,51,0,0,0,0,0,0,0,0,0,0
PK,Pakistan,country,South Asia,30.375321,69.345116,EG,Egypt,country,Middle East and North Africa,26.820553,30.802498,3769.93029474242,1988,155,0,0,0,0,0,0,0,0,0,0,0,155,0,0,0,0,0,0,0,0,0,0,0
PY,Paraguay,country,Latin America and the Caribbean,-23.442503,-58.443832,EG,Egypt,country,Middle East and North Africa,26.820553,30.802498,11100.1078033074,1988,52,0,0,0,0,0,0,0,0,0,0,0,52,0,0,0,0,0,0,0,0,0,0,0
PE,Peru,country,Latin America and the Caribbean,-9.189967,-75.015152,EG,Egypt,country,Middle East and North Africa,26.820553,30.802498,12043.8068828948,1988,16,0,0,0,0,0,0,0,0,0,0,0,16,0,0,0,0,0,0,0,0,0,0,0
PH,Philippines,country,East Asia and Pacific,12.879721,121.774017,EG,Egypt,country,Middle East and North Africa,26.820553,30.802498,9470.68544680989,1988,12066,0,0,0,0,0,152,0,31,154,0,0,0,1729,10000,0,0,0,0,0,0,0,0,0
PL,Poland,country,Europe and Central Asia,51.919438,19.145136,EG,Egypt,country,Middle East and North Africa,26.820553,30.802498,2960.10739320744,1988,36630,0,0,34750,0,0,0,0,0,17,0,0,0,502,0,0,0,0,1361,0,0,0,0,0
PT,Portugal,country,Europe and Central Asia,39.399872,-8.224454,EG,Egypt,country,Middle East and North Africa,26.820553,30.802498,3863.1736818731,1988,1121,0,0,0,0,0,0,0,0,0,0,0,0,2,1058,0,0,0,61,0,0,0,0,0
QA,Qatar,country,Middle East and North Africa,25.354826,51.183884,EG,Egypt,country,Middle East and North Africa,26.820553,30.802498,2042.03510875953,1988,3,0,0,0,0,0,0,0,0,0,0,0,0,3,0,0,0,0,0,0,0,0,0,0
KR,"Korea, Rep.",country,East Asia and Pacific,35.907757,127.766922,EG,Egypt,country,Middle East and North Africa,26.820553,30.802498,8884.0127742979,1988,14850,0,0,0,0,0,0,0,0,0,0,0,0,0,14850,0,0,0,0,0,0,0,0,0
RO,Romania,country,Europe and Central Asia,45.943161,24.96676,EG,Egypt,country,Middle East and North Africa,26.820553,30.802498,2190.47454238944,1988,63672,0,0,47116,0,0,0,2394,0,0,0,0,0,2,2742,0,0,3658,7760,0,0,0,0,0
SA,Saudi Arabia,country,Middle East and North Africa,23.885942,45.079162,EG,Egypt,country,Middle East and North Africa,26.820553,30.802498,1471.96097543156,1988,845,0,11,0,0,0,0,65,8,0,48,0,159,203,350,0,0,0,1,0,0,0,0,0
SN,Senegal,country,Sub-Saharan Africa,14.497401,-14.452362,EG,Egypt,country,Middle East and North Africa,26.820553,30.802498,4881.19698408667,1988,99,0,0,0,0,0,0,0,0,0,0,0,0,0,0,0,0,0,0,99,0,0,0,0
SG,Singapore,country,East Asia and Pacific,1.352083,103.819836,EG,Egypt,country,Middle East and North Africa,26.820553,30.802498,8266.83230129849,1988,29510,0,0,0,0,0,0,0,0,2184,1612,0,274,8600,16840,0,0,0,0,0,0,0,0,0
SO,Somalia,country,Sub-Saharan Africa,5.152149,46.199616,EG,Egypt,country,Middle East and North Africa,26.820553,30.802498,2914.01023195474,1988,10,0,0,0,0,0,0,0,0,0,0,0,0,10,0,0,0,0,0,0,0,0,0,0
ZA,S. Africa,country,Sub-Saharan Africa,-30.559482,22.937506,EG,Egypt,country,Middle East and North Africa,26.820553,30.802498,6442.10810948244,1988,59,0,0,0,0,0,0,0,0,0,0,0,59,0,0,0,0,0,0,0,0,0,0,0
ES,Spain,country,Europe and Central Asia,40.463667,-3.74922,EG,Egypt,country,Middle East and North Africa,26.820553,30.802498,3514.08997283512,1988,76009,60027,0,13924,0,139,0,452,0,600,70,20,25,390,12,0,71,0,350,0,0,0,0,0
LK,Sri Lanka,country,South Asia,7.873054,80.771797,EG,Egypt,country,Middle East and North Africa,26.820553,30.802498,5668.43485244707,1988,39921,0,0,500,0,0,348,0,19,0,202,0,38725,78,49,0,0,0,0,0,0,0,0,0
SD,Sudan,country,Sub-Saharan Africa,12.862807,30.217636,EG,Egypt,country,Middle East and North Africa,26.820553,30.802498,1554.96730449106,1988,30165,0,0,0,0,0,20717,0,2425,1749,146,22,0,4150,0,0,0,35,0,921,0,0,0,0
SE,Sweden,country,Europe and Central Asia,60.128161,18.643501,EG,Egypt,country,Middle East and North Africa,26.820553,30.802498,3822.0481088077,1988,1855,0,0,0,0,0,0,0,0,6,0,0,0,63,0,0,0,0,1786,0,0,0,0,0
CH,Switzerland,country,Europe and Central Asia,46.818188,8.227512,EG,Egypt,country,Middle East and North Africa,26.820553,30.802498,2978.7215865603,1988,77605,9228,0,14625,1,0,49,0,6,0,0,10010,0,71,41623,0,0,508,1484,0,0,0,0,0
SY,Syrian Arab Rep.,country,Middle East and North Africa,34.802075,38.996815,EG,Egypt,country,Middle East and North Africa,26.820553,30.802498,1183.58751413298,1988,327,0,0,0,0,0,0,0,17,0,0,0,0,310,0,0,0,0,0,0,0,0,0,0
TH,Thailand,country,East Asia and Pacific,15.870032,100.992541,EG,Egypt,country,Middle East and North Africa,26.820553,30.802498,7294.19144358834,1988,2942,0,0,0,0,0,0,0,307,1999,0,0,0,636,0,0,0,0,0,0,0,0,0,0
TN,Tunisia,country,Middle East and North Africa,33.886917,9.537499,EG,Egypt,country,Middle East and North Africa,26.820553,30.802498,2183.65796795948,1988,101,0,0,0,0,0,0,0,0,101,0,0,0,0,0,0,0,0,0,0,0,0,0,0
TR,Turkey,country,Europe and Central Asia,38.963745,35.243322,EG,Egypt,country,Middle East and North Africa,26.820553,30.802498,1413.54872030114,1988,92013,23602,0,0,65542,0,0,418,0,1,727,0,0,887,186,0,0,650,0,0,0,0,0,0
UG,Uganda,country,Sub-Saharan Africa,1.373333,32.290275,EG,Egypt,country,Middle East and North Africa,26.820553,30.802498,2837.23278294888,1988,172,0,0,0,0,0,0,0,0,0,0,0,0,1,0,0,0,0,0,171,0,0,0,0
GB,United Kingdom,country,Europe and Central Asia,55.378051,-3.435973,EG,Egypt,country,Middle East and North Africa,26.820553,30.802498,4204.60279341227,1988,59924,0,0,13368,0,0,0,0,152,67,2,4559,323,525,33816,0,76,5881,1231,0,0,0,0,0
TZ,Tanzania,country,Sub-Saharan Africa,-6.369028,34.888822,EG,Egypt,country,Middle East and North Africa,26.820553,30.802498,3720.83567807843,1988,355,0,0,0,0,0,0,0,0,0,2,0,8,345,0,0,0,0,0,0,0,0,0,0
US,USA,country,North America,37.09024,-95.712891,EG,Egypt,country,Middle East and North Africa,26.820553,30.802498,10988.7012592759,1988,3256945,2818330,0,15067,0,197,34462,0,121,40199,0,193929,71,10897,99362,0,265,44089,169,52,0,0,0,0
UY,Uruguay,country,Latin America and the Caribbean,-32.522779,-55.765835,EG,Egypt,country,Middle East and North Africa,26.820553,30.802498,11287.0203937478,1988,25350,19000,0,0,0,0,0,0,0,0,0,0,137,0,0,0,0,6213,0,0,0,0,0,0
RU,Russian Federation,country,Europe and Central Asia,61.52401,105.318756,EG,Egypt,country,Middle East and North Africa,26.820553,30.802498,6603.76084333782,1988,12801,0,0,11705,555,0,0,0,0,0,0,0,0,32,0,0,0,0,509,0,0,0,0,0
BA,Bosnia & Herzegovina,country,Europe and Central Asia,43.915886,17.679076,EG,Egypt,country,Middle East and North Africa,26.820553,30.802498,2238.76229734916,1988,12012,0,0,0,0,0,0,0,0,0,0,0,0,0,12012,0,0,0,0,0,0,0,0,0
ZW,Zimbabwe,country,Sub-Saharan Africa,-19.015438,29.154857,EG,Egypt,country,Middle East and North Africa,26.820553,30.802498,5105.54003845792,1988,2760,0,0,0,0,0,0,0,0,0,0,0,0,2760,0,0,0,0,0,0,0,0,0,0
AF,Afghanistan,country,South Asia,33.93911,67.709953,EG,Egypt,country,Middle East and North Africa,26.820553,30.802498,3611.55743226467,1989,2,0,0,0,0,2,0,0,0,0,0,0,0,0,0,0,0,0,0,0,0,0,0,0
AL,Albania,country,Europe and Central Asia,41.153332,20.168331,EG,Egypt,country,Middle East and North Africa,26.820553,30.802498,1869.85145551779,1989,3103,0,0,0,0,0,0,0,0,0,0,0,0,3103,0,0,0,0,0,0,0,0,0,0
AR,Argentina,country,Latin America and the Caribbean,-38.416097,-63.616672,EG,Egypt,country,Middle East and North Africa,26.820553,30.802498,12192.397394083,1989,1491,0,0,0,0,0,0,0,0,538,0,0,0,953,0,0,0,0,0,0,0,0,0,0
AU,Australia,country,East Asia and Pacific,-25.274398,133.775136,EG,Egypt,country,Middle East and North Africa,26.820553,30.802498,12462.2319801187,1989,721768,700876,0,12000,0,0,0,0,0,2323,0,0,0,565,5742,0,0,0,262,0,0,0,0,0
AT,Austria,country,Europe and Central Asia,47.516231,14.550072,EG,Egypt,country,Middle East and North Africa,26.820553,30.802498,2705.35404651056,1989,415,0,0,0,0,0,0,188,0,0,0,0,0,52,0,0,120,0,175,0,0,0,0,0
BD,Bangladesh,country,South Asia,23.684994,90.356331,EG,Egypt,country,Middle East and North Africa,26.820553,30.802498,5951.20804631553,1989,19868,4104,0,0,0,0,0,0,0,13930,0,0,1834,0,0,0,0,0,0,0,0,0,0,0
BE,Belgium,country,Europe and Central Asia,50.503887,4.469936,EG,Egypt,country,Middle East and North Africa,26.820553,30.802498,3454.43979258168,1989,160960,47314,0,96861,0,0,2,0,0,0,0,11143,0,298,2,0,0,998,4342,0,0,0,0,0
BJ,Benin,country,Sub-Saharan Africa,9.30769,2.315834,EG,Egypt,country,Middle East and North Africa,26.820553,30.802498,3574.52428919914,1989,0,0,0,0,0,0,0,0,0,0,0,0,0,0,0,0,0,0,0,0,0,0,0,0
BR,Brazil,country,Latin America and the Caribbean,-14.235004,-51.92528,EG,Egypt,country,Middle East and North Africa,26.820553,30.802498,10028.012642647,1989,75983,0,0,46849,0,0,0,0,0,0,91,0,763,738,25659,0,0,1883,0,0,0,0,0,0
BG,Bulgaria,country,Europe and Central Asia,42.733883,25.48583,EG,Egypt,country,Middle East and North Africa,26.820553,30.802498,1835.92432650592,1989,2904,0,0,0,0,0,0,1092,0,0,0,0,0,1810,0,0,0,0,2,0,0,0,0,0
CA,Canada,country,North America,56.130366,-106.346771,EG,Egypt,country,Middle East and North Africa,26.820553,30.802498,9954.90844208778,1989,30859,25800,0,0,0,0,0,0,0,0,0,3858,0,425,68,0,0,0,30,678,0,0,0,0
HK,Hong Kong,country,East Asia and Pacific,22.396428,114.109497,EG,Egypt,country,Middle East and North Africa,26.820553,30.802498,8287.74431451014,1989,216,0,0,0,0,0,0,0,0,9,0,0,0,204,0,0,0,0,3,0,0,0,0,0
CN,China,country,East Asia and Pacific,35.86166,104.195397,EG,Egypt,country,Middle East and North Africa,26.820553,30.802498,6890.50630390918,1989,1928,0,0,0,0,0,0,0,0,11,0,0,1515,392,10,0,0,0,0,0,0,0,0,0
KM,Comoros,country,Sub-Saharan Africa,-11.875001,43.872219,EG,Egypt,country,Middle East and North Africa,26.820553,30.802498,4533.42531637132,1989,9,0,0,0,0,0,0,0,0,0,0,0,0,9,0,0,0,0,0,0,0,0,0,0
CG,"Congo, Rep.",country,Sub-Saharan Africa,-0.228021,15.827659,EG,Egypt,country,Middle East and North Africa,26.820553,30.802498,3411.73192312879,1989,2,0,0,0,0,0,0,0,0,0,0,0,0,2,0,0,0,0,0,0,0,0,0,0
CI,Ivory Coast,country,Sub-Saharan Africa,7.539989,-5.54708,EG,Egypt,country,Middle East and North Africa,26.820553,30.802498,4395.73378933376,1989,0,0,0,0,0,0,0,0,0,0,0,0,0,0,0,0,0,0,0,0,0,0,0,0
CU,Cuba,country,Latin America and the Caribbean,21.521757,-77.781167,EG,Egypt,country,Middle East and North Africa,26.820553,30.802498,10651.5631684535,1989,143,0,0,0,0,0,0,0,0,0,0,0,0,143,0,0,0,0,0,0,0,0,0,0
CY,Cyprus,country,Europe and Central Asia,35.126413,33.429859,EG,Egypt,country,Middle East and North Africa,26.820553,30.802498,957.886476065658,1989,599,0,0,0,0,0,0,38,0,0,0,4,150,216,187,0,0,0,4,0,0,0,0,0
CZ,Czech Republic,country,Europe and Central Asia,49.817492,15.472962,EG,Egypt,country,Middle East and North Africa,26.820553,30.802498,2876.1400991165,1989,772,0,0,0,0,0,0,75,0,0,0,0,0,0,0,0,0,0,697,0,0,0,0,0
DK,Denmark,country,Europe and Central Asia,56.26392,9.501785,EG,Egypt,country,Middle East and North Africa,26.820553,30.802498,3693.24391219974,1989,41093,0,0,0,0,0,0,195,0,31,0,15721,0,334,0,0,35,1594,23218,0,0,0,0,0
FI,Finland,country,Europe and Central Asia,61.92411,25.748151,EG,Egypt,country,Middle East and North Africa,26.820553,30.802498,3925.78779986235,1989,1443,0,0,8,0,0,0,0,0,0,0,0,0,0,0,0,0,1435,0,0,0,0,0,0
FR,France,country,Europe and Central Asia,46.227638,2.213749,EG,Egypt,country,Middle East and North Africa,26.820553,30.802498,3315.47283349949,1989,995795,824922,0,110653,2,0,0,186,0,2,106,10502,74,526,16217,54,178,20538,12013,0,0,0,0,0
GH,Ghana,country,Sub-Saharan Africa,7.946527,-1.023194,EG,Egypt,country,Middle East and North Africa,26.820553,30.802498,3960.24052553777,1989,557,0,0,0,0,0,0,0,0,0,0,0,557,0,0,0,0,0,0,0,0,0,0,0
GI,Gibraltar,country,Europe and Central Asia,36.137741,-5.345374,EG,Egypt,country,Middle East and North Africa,26.820553,30.802498,3562.00741313575,1989,2989,0,0,0,0,0,0,0,0,0,0,0,0,0,2989,0,0,0,0,0,0,0,0,0
GR,Greece,country,Europe and Central Asia,39.074208,21.824312,EG,Egypt,country,Middle East and North Africa,26.820553,30.802498,1599.25422928541,1989,26390,2656,0,0,0,0,80,12125,115,0,0,0,0,8103,2891,0,0,420,0,0,0,0,0,0
GT,Guatemala,country,Latin America and the Caribbean,15.783471,-90.230759,EG,Egypt,country,Middle East and North Africa,26.820553,30.802498,12096.3205420716,1989,122,0,0,0,0,0,0,0,0,0,22,0,100,0,0,0,0,0,0,0,0,0,0,0
GW,Guinea-Bissau,country,Sub-Saharan Africa,11.803749,-15.180413,EG,Egypt,country,Middle East and North Africa,26.820553,30.802498,5079.36490534037,1989,11,0,0,0,0,0,0,0,0,0,0,0,0,11,0,0,0,0,0,0,0,0,0,0
HU,Hungary,country,Europe and Central Asia,47.162494,19.503304,EG,Egypt,country,Middle East and North Africa,26.820553,30.802498,2471.23854743199,1989,1106,72,0,0,0,0,0,631,0,0,0,20,0,1,0,0,0,192,171,19,0,0,0,0
IN,India,country,South Asia,20.593684,78.96288,EG,Egypt,country,Middle East and North Africa,26.820553,30.802498,4929.07571829965,1989,10807,0,0,0,0,69,0,0,1,0,65,491,8906,1274,0,0,0,0,1,0,0,0,0,0
ID,Indonesia,country,East Asia and Pacific,-0.789275,113.921327,EG,Egypt,country,Middle East and North Africa,26.820553,30.802498,9375.40807616481,1989,10732,0,0,0,0,0,0,0,0,0,0,0,10463,269,0,0,0,0,0,0,0,0,0,0
IR,Iran,country,Middle East and North Africa,32.427908,53.688046,EG,Egypt,country,Middle East and North Africa,26.820553,30.802498,2295.70132592549,1989,90,0,0,0,0,0,0,0,0,0,0,0,90,0,0,0,0,0,0,0,0,0,0,0
IQ,Iraq,country,Middle East and North Africa,33.223191,43.679291,EG,Egypt,country,Middle East and North Africa,26.820553,30.802498,1429.52198776899,1989,0,0,0,0,0,0,0,0,0,0,0,0,0,0,0,0,0,0,0,0,0,0,0,0
IE,Ireland,country,Europe and Central Asia,53.41291,-8.24389,EG,Egypt,country,Middle East and North Africa,26.820553,30.802498,4359.11107429444,1989,44990,0,4656,0,0,0,0,0,0,0,0,0,0,2204,0,0,0,27914,10216,0,0,0,0,0
IL,Israel,country,Middle East and North Africa,31.046051,34.851612,EG,Egypt,country,Middle East and North Africa,26.820553,30.802498,613.779687934423,1989,401,0,0,0,0,0,0,0,0,0,0,0,0,11,0,0,67,0,390,0,0,0,0,0
IT,Italy,country,Europe and Central Asia,41.87194,12.56738,EG,Egypt,country,Middle East and North Africa,26.820553,30.802498,2360.0272509652,1989,115464,91449,0,0,0,188,3,540,9,0,0,16114,85,5431,292,0,233,1353,0,0,0,0,0,0
JP,Japan,country,East Asia and Pacific,36.204824,138.252924,EG,Egypt,country,Middle East and North Africa,26.820553,30.802498,9696.1079625791,1989,5542,0,0,0,0,0,0,0,28,0,0,0,0,16,5498,0,0,0,0,0,0,0,0,0
JO,Jordan,country,Middle East and North Africa,30.585164,36.238414,EG,Egypt,country,Middle East and North Africa,26.820553,30.802498,676.088710764274,1989,2339,1499,0,0,0,0,0,539,0,5,2,13,16,217,0,48,0,0,0,0,0,0,0,0
KE,Kenya,country,Sub-Saharan Africa,-0.023559,37.906193,EG,Egypt,country,Middle East and North Africa,26.820553,30.802498,3083.62508462516,1989,3560,0,0,0,0,0,0,0,0,0,0,0,3180,0,0,0,0,0,0,380,0,0,0,0
KW,Kuwait,country,Middle East and North Africa,29.31166,47.481766,EG,Egypt,country,Middle East and North Africa,26.820553,30.802498,1660.18186060356,1989,162,0,20,0,0,0,0,31,105,4,0,0,0,0,0,0,0,1,1,0,0,0,0,0
LB,Lebanon,country,Middle East and North Africa,33.854721,35.862285,EG,Egypt,country,Middle East and North Africa,26.820553,30.802498,921.317507558426,1989,13635,10733,0,0,0,11,0,27,110,0,0,0,11,2743,0,0,0,0,0,0,0,0,0,0
MW,Malawi,country,Sub-Saharan Africa,-13.254308,34.301525,EG,Egypt,country,Middle East and North Africa,26.820553,30.802498,4477.13205763116,1989,3115,0,0,0,0,0,0,0,0,0,0,0,0,3115,0,0,0,0,0,0,0,0,0,0
MY,Malaysia,country,East Asia and Pacific,4.210484,101.975766,EG,Egypt,country,Middle East and North Africa,26.820553,30.802498,7938.90606344638,1989,65726,0,0,0,0,0,0,0,6,0,0,0,0,2722,62998,0,0,0,0,0,0,0,0,0
MU,Mauritius,country,Sub-Saharan Africa,-20.348404,57.552152,EG,Egypt,country,Middle East and North Africa,26.820553,30.802498,5991.45961115473,1989,82,0,0,0,0,0,0,0,0,0,0,0,0,0,0,0,0,82,0,0,0,0,0,0
MX,Mexico,country,Latin America and the Caribbean,23.634501,-102.552784,EG,Egypt,country,Middle East and North Africa,26.820553,30.802498,12507.6318527222,1989,30,0,0,0,0,0,0,0,0,0,20,0,0,10,0,0,0,0,0,0,0,0,0,0
MA,Morocco,country,Middle East and North Africa,31.791702,-7.09262,EG,Egypt,country,Middle East and North Africa,26.820553,30.802498,3701.31056824399,1989,729,0,0,0,0,0,0,0,0,0,0,0,0,729,0,0,0,0,0,0,0,0,0,0
MM,Myanmar,country,East Asia and Pacific,21.913965,95.956223,EG,Egypt,country,Middle East and North Africa,26.820553,30.802498,6558.58806631573,1989,52,0,0,0,0,0,0,0,0,0,52,0,0,0,0,0,0,0,0,0,0,0,0,0
NL,Netherlands,country,Europe and Central Asia,52.132633,5.291266,EG,Egypt,country,Middle East and North Africa,26.820553,30.802498,3531.6048959239,1989,98000,349,14419,318,0,0,4,44,0,0,55,23515,1055,6201,30629,0,8749,5355,16056,0,0,0,0,0
NZ,New Zealand,country,East Asia and Pacific,-40.900557,174.885971,EG,Egypt,country,Middle East and North Africa,26.820553,30.802498,16399.7029091802,1989,6782,0,0,0,0,0,0,0,0,599,0,0,0,0,0,0,0,4506,1677,0,0,0,0,0
NI,Nicaragua,country,Latin America and the Caribbean,12.865416,-85.207229,EG,Egypt,country,Middle East and North Africa,26.820553,30.802498,11835.8764902549,1989,0,0,0,0,0,0,0,0,0,0,0,0,0,0,0,0,0,0,0,0,0,0,0,0
NE,Niger,country,Sub-Saharan Africa,17.607789,8.081666,EG,Egypt,country,Middle East and North Africa,26.820553,30.802498,2550.76215206063,1989,122,0,0,0,0,0,0,0,0,0,0,0,54,0,0,0,0,0,0,68,0,0,0,0
NG,Nigeria,country,Sub-Saharan Africa,9.081999,8.675277,EG,Egypt,country,Middle East and North Africa,26.820553,30.802498,3053.78229246333,1989,17,0,0,0,0,0,0,0,0,0,0,0,0,17,0,0,0,0,0,0,0,0,0,0
OM,Oman,country,Middle East and North Africa,21.512583,55.923255,EG,Egypt,country,Middle East and North Africa,26.820553,30.802498,2614.05376902867,1989,75,0,0,0,0,5,0,0,56,1,0,3,0,10,0,0,0,0,0,0,0,0,0,0
PK,Pakistan,country,South Asia,30.375321,69.345116,EG,Egypt,country,Middle East and North Africa,26.820553,30.802498,3769.93029474242,1989,50,0,0,0,0,0,0,0,0,0,0,0,50,0,0,0,0,0,0,0,0,0,0,0
PY,Paraguay,country,Latin America and the Caribbean,-23.442503,-58.443832,EG,Egypt,country,Middle East and North Africa,26.820553,30.802498,11100.1078033074,1989,270,0,0,0,0,0,0,0,0,0,0,0,270,0,0,0,0,0,0,0,0,0,0,0
PH,Philippines,country,East Asia and Pacific,12.879721,121.774017,EG,Egypt,country,Middle East and North Africa,26.820553,30.802498,9470.68544680989,1989,5622,0,0,0,0,10,493,0,0,0,0,0,0,5119,0,0,0,0,0,0,0,0,0,0
PL,Poland,country,Europe and Central Asia,51.919438,19.145136,EG,Egypt,country,Middle East and North Africa,26.820553,30.802498,2960.10739320744,1989,13168,0,0,11841,0,0,0,0,0,0,0,0,0,60,0,0,0,0,1267,0,0,0,0,0
PT,Portugal,country,Europe and Central Asia,39.399872,-8.224454,EG,Egypt,country,Middle East and North Africa,26.820553,30.802498,3863.1736818731,1989,14019,0,0,0,0,0,0,0,0,0,0,13977,0,42,0,0,0,0,0,0,0,0,0,0
QA,Qatar,country,Middle East and North Africa,25.354826,51.183884,EG,Egypt,country,Middle East and North Africa,26.820553,30.802498,2042.03510875953,1989,0,0,0,0,0,0,0,0,0,0,0,0,0,0,0,0,0,0,0,0,0,0,0,0
KR,"Korea, Rep.",country,East Asia and Pacific,35.907757,127.766922,EG,Egypt,country,Middle East and North Africa,26.820553,30.802498,8884.0127742979,1989,35,0,0,0,0,0,0,0,3,21,0,0,0,11,0,0,0,0,0,0,0,0,0,0
RO,Romania,country,Europe and Central Asia,45.943161,24.96676,EG,Egypt,country,Middle East and North Africa,26.820553,30.802498,2190.47454238944,1989,31755,0,0,12000,0,0,0,10667,0,0,0,0,0,233,5810,0,0,2836,209,0,0,0,0,0
SA,Saudi Arabia,country,Middle East and North Africa,23.885942,45.079162,EG,Egypt,country,Middle East and North Africa,26.820553,30.802498,1471.96097543156,1989,3390,0,73,0,0,0,0,224,730,0,9,0,13,70,121,0,0,2086,0,64,0,0,0,0
SN,Senegal,country,Sub-Saharan Africa,14.497401,-14.452362,EG,Egypt,country,Middle East and North Africa,26.820553,30.802498,4881.19698408667,1989,161,0,0,0,0,0,0,0,0,0,0,0,0,0,0,0,0,0,0,161,0,0,0,0
SC,Seychelles,country,Sub-Saharan Africa,-4.679574,55.491977,EG,Egypt,country,Middle East and North Africa,26.820553,30.802498,4400.0737639805,1989,11,0,0,0,0,0,0,0,0,0,0,0,0,11,0,0,0,0,0,0,0,0,0,0
SG,Singapore,country,East Asia and Pacific,1.352083,103.819836,EG,Egypt,country,Middle East and North Africa,26.820553,30.802498,8266.83230129849,1989,13902,0,0,0,0,0,0,0,0,0,2771,0,246,5085,5538,0,0,0,262,0,0,0,0,0
SO,Somalia,country,Sub-Saharan Africa,5.152149,46.199616,EG,Egypt,country,Middle East and North Africa,26.820553,30.802498,2914.01023195474,1989,35,0,0,0,0,0,0,0,0,0,0,0,0,35,0,0,0,0,0,0,0,0,0,0
ZA,S. Africa,country,Sub-Saharan Africa,-30.559482,22.937506,EG,Egypt,country,Middle East and North Africa,26.820553,30.802498,6442.10810948244,1989,1,0,0,0,0,0,0,0,0,0,0,0,0,1,0,0,0,0,0,0,0,0,0,0
ES,Spain,country,Europe and Central Asia,40.463667,-3.74922,EG,Egypt,country,Middle East and North Africa,26.820553,30.802498,3514.08997283512,1989,38650,24397,0,0,0,249,0,10,0,0,106,3027,0,942,9919,0,18,0,0,0,0,0,0,0
LK,Sri Lanka,country,South Asia,7.873054,80.771797,EG,Egypt,country,Middle East and North Africa,26.820553,30.802498,5668.43485244707,1989,30704,0,0,0,0,0,1540,0,0,0,0,0,29090,74,0,0,0,0,0,0,0,0,0,0
SD,Sudan,country,Sub-Saharan Africa,12.862807,30.217636,EG,Egypt,country,Middle East and North Africa,26.820553,30.802498,1554.96730449106,1989,12274,0,0,0,11,0,9924,0,980,0,144,0,0,732,0,0,15,0,0,483,0,0,0,0
SE,Sweden,country,Europe and Central Asia,60.128161,18.643501,EG,Egypt,country,Middle East and North Africa,26.820553,30.802498,3822.0481088077,1989,437,0,0,0,0,0,0,0,0,0,0,9,0,23,0,0,0,0,405,0,0,0,0,0
CH,Switzerland,country,Europe and Central Asia,46.818188,8.227512,EG,Egypt,country,Middle East and North Africa,26.820553,30.802498,2978.7215865603,1989,173552,18068,0,23583,0,0,0,229,0,0,0,26882,190,154,102736,0,12,133,1577,0,0,0,0,0
SY,Syrian Arab Rep.,country,Middle East and North Africa,34.802075,38.996815,EG,Egypt,country,Middle East and North Africa,26.820553,30.802498,1183.58751413298,1989,355,0,0,0,0,0,0,0,0,0,0,0,0,355,0,0,0,0,0,0,0,0,0,0
TH,Thailand,country,East Asia and Pacific,15.870032,100.992541,EG,Egypt,country,Middle East and North Africa,26.820553,30.802498,7294.19144358834,1989,1508,0,0,0,0,0,0,0,6,0,0,0,41,1446,0,0,0,0,15,0,0,0,0,0
TR,Turkey,country,Europe and Central Asia,38.963745,35.243322,EG,Egypt,country,Middle East and North Africa,26.820553,30.802498,1413.54872030114,1989,49095,16025,0,0,24701,270,1,616,95,0,1749,0,0,783,4855,0,0,0,0,0,0,0,0,0
UG,Uganda,country,Sub-Saharan Africa,1.373333,32.290275,EG,Egypt,country,Middle East and North Africa,26.820553,30.802498,2837.23278294888,1989,188,0,0,0,0,0,0,0,0,0,0,0,147,8,0,0,0,0,0,33,0,0,0,0
GB,United Kingdom,country,Europe and Central Asia,55.378051,-3.435973,EG,Egypt,country,Middle East and North Africa,26.820553,30.802498,4204.60279341227,1989,106053,4060,12,46731,0,0,15,118,320,22,0,8120,508,760,42493,0,203,1213,1681,0,0,0,0,0
TZ,Tanzania,country,Sub-Saharan Africa,-6.369028,34.888822,EG,Egypt,country,Middle East and North Africa,26.820553,30.802498,3720.83567807843,1989,161,0,0,0,0,0,0,0,0,0,0,0,0,156,0,0,0,0,0,5,0,0,0,0
US,USA,country,North America,37.09024,-95.712891,EG,Egypt,country,Middle East and North Africa,26.820553,30.802498,10988.7012592759,1989,3853669,3519016,0,8,0,25,46295,0,49,288,3,129208,28,3411,128676,0,104,26611,0,51,0,0,0,0
UY,Uruguay,country,Latin America and the Caribbean,-32.522779,-55.765835,EG,Egypt,country,Middle East and North Africa,26.820553,30.802498,11287.0203937478,1989,22474,0,0,0,0,0,0,0,0,340,0,0,0,0,21355,0,0,779,0,0,0,0,0,0
RU,Russian Federation,country,Europe and Central Asia,61.52401,105.318756,EG,Egypt,country,Middle East and North Africa,26.820553,30.802498,6603.76084333782,1989,3194,0,0,0,0,0,0,0,0,0,0,0,0,0,3194,0,0,0,0,0,0,0,0,0
BA,Bosnia & Herzegovina,country,Europe and Central Asia,43.915886,17.679076,EG,Egypt,country,Middle East and North Africa,26.820553,30.802498,2238.76229734916,1989,6848,5300,0,250,0,0,0,0,0,0,0,0,0,1059,0,0,0,239,0,0,0,0,0,0
ZW,Zimbabwe,country,Sub-Saharan Africa,-19.015438,29.154857,EG,Egypt,country,Middle East and North Africa,26.820553,30.802498,5105.54003845792,1989,6695,0,0,0,0,0,0,0,0,0,0,0,0,6695,0,0,0,0,0,0,0,0,0,0
AF,Afghanistan,country,South Asia,33.93911,67.709953,EG,Egypt,country,Middle East and North Africa,26.820553,30.802498,3611.55743226467,1990,202,0,0,0,0,0,0,0,0,0,0,0,0,0,0,0,0,0,202,0,0,0,0,0
AL,Albania,country,Europe and Central Asia,41.153332,20.168331,EG,Egypt,country,Middle East and North Africa,26.820553,30.802498,1869.85145551779,1990,3910,0,0,59,0,0,0,0,0,0,0,0,0,3851,0,0,0,0,0,0,0,0,0,0
AR,Argentina,country,Latin America and the Caribbean,-38.416097,-63.616672,EG,Egypt,country,Middle East and North Africa,26.820553,30.802498,12192.397394083,1990,23540,15000,0,0,0,0,0,0,0,0,76,0,105,3252,1316,0,0,3787,4,0,0,0,0,0
AU,Australia,country,East Asia and Pacific,-25.274398,133.775136,EG,Egypt,country,Middle East and North Africa,26.820553,30.802498,12462.2319801187,1990,1809505,1805459,0,0,0,0,0,2,0,2719,0,210,0,504,0,0,0,611,0,0,0,0,0,0
AT,Austria,country,Europe and Central Asia,47.516231,14.550072,EG,Egypt,country,Middle East and North Africa,26.820553,30.802498,2705.35404651056,1990,2919,0,0,0,0,0,0,0,0,31,0,2452,20,0,5,0,0,21,390,0,0,0,0,0
BD,Bangladesh,country,South Asia,23.684994,90.356331,EG,Egypt,country,Middle East and North Africa,26.820553,30.802498,5951.20804631553,1990,13648,0,0,0,0,0,0,0,0,13648,0,0,0,0,0,0,0,0,0,0,0,0,0,0
BE,Belgium,country,Europe and Central Asia,50.503887,4.469936,EG,Egypt,country,Middle East and North Africa,26.820553,30.802498,3454.43979258168,1990,75666,30,0,46895,0,0,2021,0,0,9,0,21455,0,370,66,0,0,1293,3527,0,0,0,0,0
BR,Brazil,country,Latin America and the Caribbean,-14.235004,-51.92528,EG,Egypt,country,Middle East and North Africa,26.820553,30.802498,10028.012642647,1990,168315,0,0,96723,0,0,0,0,0,0,156,40577,768,2555,23428,0,0,4108,0,0,0,0,0,0
BG,Bulgaria,country,Europe and Central Asia,42.733883,25.48583,EG,Egypt,country,Middle East and North Africa,26.820553,30.802498,1835.92432650592,1990,25,0,0,0,0,0,0,0,0,0,0,0,0,25,0,0,0,0,0,0,0,0,0,0
CA,Canada,country,North America,56.130366,-106.346771,EG,Egypt,country,Middle East and North Africa,26.820553,30.802498,9954.90844208778,1990,8532,0,0,0,0,0,6061,0,0,0,0,0,0,578,0,0,4,0,1352,541,0,0,0,0
HK,Hong Kong,country,East Asia and Pacific,22.396428,114.109497,EG,Egypt,country,Middle East and North Africa,26.820553,30.802498,8287.74431451014,1990,112,0,0,0,0,0,0,0,0,4,79,0,0,29,0,0,0,0,0,0,0,0,0,0
CN,China,country,East Asia and Pacific,35.86166,104.195397,EG,Egypt,country,Middle East and North Africa,26.820553,30.802498,6890.50630390918,1990,2514,0,0,0,0,15,0,0,0,19,61,0,1996,344,6,0,0,73,0,0,0,0,0,0
CI,Ivory Coast,country,Sub-Saharan Africa,7.539989,-5.54708,EG,Egypt,country,Middle East and North Africa,26.820553,30.802498,4395.73378933376,1990,3,0,0,0,0,0,0,0,0,0,0,0,0,3,0,0,0,0,0,0,0,0,0,0
CU,Cuba,country,Latin America and the Caribbean,21.521757,-77.781167,EG,Egypt,country,Middle East and North Africa,26.820553,30.802498,10651.5631684535,1990,109395,0,0,109200,0,0,0,0,0,0,0,0,0,195,0,0,0,0,0,0,0,0,0,0
CY,Cyprus,country,Europe and Central Asia,35.126413,33.429859,EG,Egypt,country,Middle East and North Africa,26.820553,30.802498,957.886476065658,1990,419,0,0,0,0,0,0,0,20,0,0,5,0,394,0,0,0,0,0,0,0,0,0,0
CZ,Czech Republic,country,Europe and Central Asia,49.817492,15.472962,EG,Egypt,country,Middle East and North Africa,26.820553,30.802498,2876.1400991165,1990,3554,0,0,0,0,0,0,0,0,0,11,0,0,0,0,0,0,0,3543,0,0,0,0,0
DK,Denmark,country,Europe and Central Asia,56.26392,9.501785,EG,Egypt,country,Middle East and North Africa,26.820553,30.802498,3693.24391219974,1990,85781,43750,0,0,0,0,0,0,0,0,0,13048,0,460,0,0,20,274,28249,0,0,0,0,0
EC,Ecuador,country,Latin America and the Caribbean,-1.831239,-78.183406,EG,Egypt,country,Middle East and North Africa,26.820553,30.802498,11992.9541170827,1990,109,0,0,0,0,0,0,0,0,0,0,0,109,0,0,0,0,0,0,0,0,0,0,0
ET,Ethiopia,country,Sub-Saharan Africa,9.145,40.489673,EG,Egypt,country,Middle East and North Africa,26.820553,30.802498,2216.38557950388,1990,38,0,0,0,0,0,0,0,0,0,0,0,38,0,0,0,0,0,0,0,0,0,0,0
FI,Finland,country,Europe and Central Asia,61.92411,25.748151,EG,Egypt,country,Middle East and North Africa,26.820553,30.802498,3925.78779986235,1990,108,0,0,0,0,0,26,0,0,0,0,0,0,0,0,0,0,82,0,0,0,0,0,0
FR,France,country,Europe and Central Asia,46.227638,2.213749,EG,Egypt,country,Middle East and North Africa,26.820553,30.802498,3315.47283349949,1990,1449307,1243643,0,176016,8,6,15,0,14,0,30,5776,818,374,1998,0,434,14901,5656,52,0,0,0,0
GH,Ghana,country,Sub-Saharan Africa,7.946527,-1.023194,EG,Egypt,country,Middle East and North Africa,26.820553,30.802498,3960.24052553777,1990,259,0,0,0,0,0,0,0,0,0,0,0,259,0,0,0,0,0,0,0,0,0,0,0
GI,Gibraltar,country,Europe and Central Asia,36.137741,-5.345374,EG,Egypt,country,Middle East and North Africa,26.820553,30.802498,3562.00741313575,1990,1,0,0,0,0,0,0,0,0,0,0,1,0,0,0,0,0,0,0,0,0,0,0,0
GR,Greece,country,Europe and Central Asia,39.074208,21.824312,EG,Egypt,country,Middle East and North Africa,26.820553,30.802498,1599.25422928541,1990,12262,1220,0,0,0,0,114,2955,308,0,0,0,0,7647,18,0,0,0,0,0,0,0,0,0
GT,Guatemala,country,Latin America and the Caribbean,15.783471,-90.230759,EG,Egypt,country,Middle East and North Africa,26.820553,30.802498,12096.3205420716,1990,133,0,0,0,0,0,0,0,0,0,33,0,100,0,0,0,0,0,0,0,0,0,0,0
GN,Guinea,country,Sub-Saharan Africa,9.945587,-9.696645,EG,Egypt,country,Middle East and North Africa,26.820553,30.802498,4644.85408276509,1990,122,0,0,0,0,0,0,0,0,0,0,0,122,0,0,0,0,0,0,0,0,0,0,0
GW,Guinea-Bissau,country,Sub-Saharan Africa,11.803749,-15.180413,EG,Egypt,country,Middle East and North Africa,26.820553,30.802498,5079.36490534037,1990,0,0,0,0,0,0,0,0,0,0,0,0,0,0,0,0,0,0,0,0,0,0,0,0
HU,Hungary,country,Europe and Central Asia,47.162494,19.503304,EG,Egypt,country,Middle East and North Africa,26.820553,30.802498,2471.23854743199,1990,1954,0,0,0,500,0,0,470,0,0,0,30,0,0,0,0,0,72,849,33,0,0,0,0
IS,Iceland,country,Europe and Central Asia,64.963051,-19.020835,EG,Egypt,country,Middle East and North Africa,26.820553,30.802498,5485.02969987773,1990,0,0,0,0,0,0,0,0,0,0,0,0,0,0,0,0,4,0,0,0,0,0,0,0
IN,India,country,South Asia,20.593684,78.96288,EG,Egypt,country,Middle East and North Africa,26.820553,30.802498,4929.07571829965,1990,11246,0,0,0,0,141,109,0,0,0,330,938,6561,3161,0,0,0,0,6,0,0,0,0,0
ID,Indonesia,country,East Asia and Pacific,-0.789275,113.921327,EG,Egypt,country,Middle East and North Africa,26.820553,30.802498,9375.40807616481,1990,14503,0,0,0,0,0,0,0,0,1442,0,0,12880,181,0,0,0,0,0,0,0,0,0,0
IR,Iran,country,Middle East and North Africa,32.427908,53.688046,EG,Egypt,country,Middle East and North Africa,26.820553,30.802498,2295.70132592549,1990,25,0,0,0,0,25,0,0,0,0,0,0,0,0,0,0,0,0,0,0,0,0,0,0
IE,Ireland,country,Europe and Central Asia,53.41291,-8.24389,EG,Egypt,country,Middle East and North Africa,26.820553,30.802498,4359.11107429444,1990,21722,0,3462,0,200,0,0,0,0,0,0,4,51,5435,0,0,0,12280,290,0,0,0,0,0
IL,Israel,country,Middle East and North Africa,31.046051,34.851612,EG,Egypt,country,Middle East and North Africa,26.820553,30.802498,613.779687934423,1990,103,0,0,0,0,0,0,0,0,0,0,0,84,19,0,0,0,0,0,0,0,0,0,0
IT,Italy,country,Europe and Central Asia,41.87194,12.56738,EG,Egypt,country,Middle East and North Africa,26.820553,30.802498,2360.0272509652,1990,225410,190006,0,59,5,0,0,1025,15,10,0,18809,161,10179,1213,0,60,3928,0,0,0,0,0,0
JP,Japan,country,East Asia and Pacific,36.204824,138.252924,EG,Egypt,country,Middle East and North Africa,26.820553,30.802498,9696.1079625791,1990,116,1,0,51,0,0,0,26,1,0,0,18,0,17,0,0,0,0,2,0,0,0,0,0
JO,Jordan,country,Middle East and North Africa,30.585164,36.238414,EG,Egypt,country,Middle East and North Africa,26.820553,30.802498,676.088710764274,1990,109,0,0,0,0,0,0,109,0,0,0,0,0,0,0,0,0,0,0,0,0,0,0,0
KE,Kenya,country,Sub-Saharan Africa,-0.023559,37.906193,EG,Egypt,country,Middle East and North Africa,26.820553,30.802498,3083.62508462516,1990,8255,0,0,0,0,0,0,0,0,0,0,0,8121,0,0,0,0,0,0,134,0,0,0,0
KW,Kuwait,country,Middle East and North Africa,29.31166,47.481766,EG,Egypt,country,Middle East and North Africa,26.820553,30.802498,1660.18186060356,1990,8,0,0,0,0,0,8,0,0,0,0,0,0,0,0,0,0,0,0,0,0,0,0,0
LB,Lebanon,country,Middle East and North Africa,33.854721,35.862285,EG,Egypt,country,Middle East and North Africa,26.820553,30.802498,921.317507558426,1990,11,0,0,0,0,0,0,0,10,0,1,0,0,0,0,0,0,0,0,0,0,0,0,0
LY,Libya,country,Middle East and North Africa,26.3351,17.228331,EG,Egypt,country,Middle East and North Africa,26.820553,30.802498,1351.82888768785,1990,407,0,0,0,0,0,0,93,0,168,0,0,0,0,0,83,0,0,0,63,0,0,0,0
MW,Malawi,country,Sub-Saharan Africa,-13.254308,34.301525,EG,Egypt,country,Middle East and North Africa,26.820553,30.802498,4477.13205763116,1990,1586,0,0,0,0,0,0,0,0,0,0,0,120,1466,0,0,0,0,0,0,0,0,0,0
MY,Malaysia,country,East Asia and Pacific,4.210484,101.975766,EG,Egypt,country,Middle East and North Africa,26.820553,30.802498,7938.90606344638,1990,92879,0,0,0,0,0,12,0,0,0,226,0,240,1679,90722,0,0,0,0,0,0,0,0,0
MT,Malta,country,Middle East and North Africa,35.937496,14.375416,EG,Egypt,country,Middle East and North Africa,26.820553,30.802498,1857.9258341146,1990,7,0,0,0,0,0,0,0,0,0,0,0,0,7,0,0,0,0,0,0,0,0,0,0
MX,Mexico,country,Latin America and the Caribbean,23.634501,-102.552784,EG,Egypt,country,Middle East and North Africa,26.820553,30.802498,12507.6318527222,1990,70,0,0,0,0,0,0,0,0,0,70,0,0,0,0,0,0,0,0,0,0,0,0,0
NL,Netherlands,country,Europe and Central Asia,52.132633,5.291266,EG,Egypt,country,Middle East and North Africa,26.820553,30.802498,3531.6048959239,1990,68574,52,19562,190,0,1,0,0,6,0,155,15783,1906,5116,1983,4,2885,8800,15016,0,0,0,0,0
NZ,New Zealand,country,East Asia and Pacific,-40.900557,174.885971,EG,Egypt,country,Middle East and North Africa,26.820553,30.802498,16399.7029091802,1990,1854,0,0,0,0,0,0,0,0,993,0,0,0,0,0,0,0,0,861,0,0,0,0,0
NE,Niger,country,Sub-Saharan Africa,17.607789,8.081666,EG,Egypt,country,Middle East and North Africa,26.820553,30.802498,2550.76215206063,1990,74,0,0,0,0,0,0,0,0,0,0,0,0,0,0,0,0,0,0,74,0,0,0,0
NO,Norway,country,Europe and Central Asia,60.472024,8.468946,EG,Egypt,country,Middle East and North Africa,26.820553,30.802498,4110.38330013448,1990,4,0,0,0,0,0,0,0,0,0,0,4,0,0,0,0,0,0,0,0,0,0,0,0
OM,Oman,country,Middle East and North Africa,21.512583,55.923255,EG,Egypt,country,Middle East and North Africa,26.820553,30.802498,2614.05376902867,1990,84,0,0,0,0,40,0,0,37,3,0,0,0,4,0,0,0,0,0,0,0,0,0,0
PY,Paraguay,country,Latin America and the Caribbean,-23.442503,-58.443832,EG,Egypt,country,Middle East and North Africa,26.820553,30.802498,11100.1078033074,1990,271,0,0,0,0,0,0,0,0,0,0,0,271,0,0,0,0,0,0,0,0,0,0,0
PH,Philippines,country,East Asia and Pacific,12.879721,121.774017,EG,Egypt,country,Middle East and North Africa,26.820553,30.802498,9470.68544680989,1990,654,0,0,0,0,2,138,0,4,80,0,0,0,430,0,0,0,0,0,0,0,0,0,0
PL,Poland,country,Europe and Central Asia,51.919438,19.145136,EG,Egypt,country,Middle East and North Africa,26.820553,30.802498,2960.10739320744,1990,34361,0,0,26400,0,0,0,0,0,0,0,0,0,375,0,0,0,0,7586,0,0,0,0,0
PT,Portugal,country,Europe and Central Asia,39.399872,-8.224454,EG,Egypt,country,Middle East and North Africa,26.820553,30.802498,3863.1736818731,1990,5654,0,0,0,0,0,0,0,0,0,0,5654,0,0,0,0,0,0,0,0,0,0,0,0
QA,Qatar,country,Middle East and North Africa,25.354826,51.183884,EG,Egypt,country,Middle East and North Africa,26.820553,30.802498,2042.03510875953,1990,0,0,0,0,0,0,0,0,0,0,0,0,0,0,0,0,0,0,0,0,0,0,0,0
KR,"Korea, Rep.",country,East Asia and Pacific,35.907757,127.766922,EG,Egypt,country,Middle East and North Africa,26.820553,30.802498,8884.0127742979,1990,9,0,0,0,0,0,0,0,0,0,0,0,9,0,0,0,0,0,0,0,0,0,0,0
RO,Romania,country,Europe and Central Asia,45.943161,24.96676,EG,Egypt,country,Middle East and North Africa,26.820553,30.802498,2190.47454238944,1990,548,0,0,0,0,0,0,0,0,0,0,0,0,96,0,0,0,452,0,0,0,0,0,0
SA,Saudi Arabia,country,Middle East and North Africa,23.885942,45.079162,EG,Egypt,country,Middle East and North Africa,26.820553,30.802498,1471.96097543156,1990,242,0,0,0,0,0,0,0,5,0,0,0,0,6,231,0,0,0,0,0,0,0,0,0
SN,Senegal,country,Sub-Saharan Africa,14.497401,-14.452362,EG,Egypt,country,Middle East and North Africa,26.820553,30.802498,4881.19698408667,1990,151,0,0,0,0,0,0,0,0,0,0,0,0,0,0,0,0,0,0,151,0,0,0,0
SG,Singapore,country,East Asia and Pacific,1.352083,103.819836,EG,Egypt,country,Middle East and North Africa,26.820553,30.802498,8266.83230129849,1990,29448,0,0,0,0,0,3,0,166,0,2000,0,426,7860,18993,0,0,0,0,0,0,0,0,0
SO,Somalia,country,Sub-Saharan Africa,5.152149,46.199616,EG,Egypt,country,Middle East and North Africa,26.820553,30.802498,2914.01023195474,1990,50,0,0,0,0,0,0,0,0,0,0,0,0,50,0,0,0,0,0,0,0,0,0,0
ZA,S. Africa,country,Sub-Saharan Africa,-30.559482,22.937506,EG,Egypt,country,Middle East and North Africa,26.820553,30.802498,6442.10810948244,1990,91,0,0,0,0,0,0,0,91,0,0,0,0,0,0,0,0,0,0,0,0,0,0,0
ES,Spain,country,Europe and Central Asia,40.463667,-3.74922,EG,Egypt,country,Middle East and North Africa,26.820553,30.802498,3514.08997283512,1990,30704,25465,0,69,0,251,0,0,110,8,18,3064,0,1351,49,0,81,319,0,0,0,0,0,0
LK,Sri Lanka,country,South Asia,7.873054,80.771797,EG,Egypt,country,Middle East and North Africa,26.820553,30.802498,5668.43485244707,1990,34732,0,0,0,0,9,2618,0,12,0,34,0,31746,313,0,0,0,0,0,0,0,0,0,0
SD,Sudan,country,Sub-Saharan Africa,12.862807,30.217636,EG,Egypt,country,Middle East and North Africa,26.820553,30.802498,1554.96730449106,1990,16243,0,0,0,129,0,9951,0,75,4080,2,1236,0,2,0,0,0,0,0,768,0,0,0,0
SE,Sweden,country,Europe and Central Asia,60.128161,18.643501,EG,Egypt,country,Middle East and North Africa,26.820553,30.802498,3822.0481088077,1990,27708,27009,0,0,0,0,0,0,0,0,0,0,0,54,0,0,0,0,645,0,0,0,0,0
CH,Switzerland,country,Europe and Central Asia,46.818188,8.227512,EG,Egypt,country,Middle East and North Africa,26.820553,30.802498,2978.7215865603,1990,94820,15537,0,6877,1,0,0,0,31,0,0,13415,26,49,57665,0,0,843,375,1,0,0,0,0
SY,Syrian Arab Rep.,country,Middle East and North Africa,34.802075,38.996815,EG,Egypt,country,Middle East and North Africa,26.820553,30.802498,1183.58751413298,1990,16452,0,0,0,16386,0,0,0,66,0,0,0,0,0,0,0,0,0,0,0,0,0,0,0
TH,Thailand,country,East Asia and Pacific,15.870032,100.992541,EG,Egypt,country,Middle East and North Africa,26.820553,30.802498,7294.19144358834,1990,48464,0,0,47600,0,0,18,0,31,0,0,0,55,760,0,0,0,0,0,0,0,0,0,0
TL,Timor-Leste,country,East Asia and Pacific,-8.874217,125.727539,EG,Egypt,country,Middle East and North Africa,26.820553,30.802498,10948.8151270408,1990,18,0,0,0,0,0,0,0,0,0,0,0,0,0,18,0,0,0,0,0,0,0,0,0
TN,Tunisia,country,Middle East and North Africa,33.886917,9.537499,EG,Egypt,country,Middle East and North Africa,26.820553,30.802498,2183.65796795948,1990,2,0,0,0,0,0,0,0,0,0,0,0,0,2,0,0,0,0,0,0,0,0,0,0
TR,Turkey,country,Europe and Central Asia,38.963745,35.243322,EG,Egypt,country,Middle East and North Africa,26.820553,30.802498,1413.54872030114,1990,53425,2824,0,0,49573,640,4,17,41,0,33,0,140,127,0,0,0,0,0,26,0,0,0,0
UG,Uganda,country,Sub-Saharan Africa,1.373333,32.290275,EG,Egypt,country,Middle East and North Africa,26.820553,30.802498,2837.23278294888,1990,2253,0,0,0,0,0,2089,0,0,0,0,0,113,1,0,0,0,0,0,50,0,0,0,0
GB,United Kingdom,country,Europe and Central Asia,55.378051,-3.435973,EG,Egypt,country,Middle East and North Africa,26.820553,30.802498,4204.60279341227,1990,125258,36496,1463,42008,0,32,5,128,54,0,31,1266,255,1438,39160,0,178,1249,1673,0,0,0,0,0
TZ,Tanzania,country,Sub-Saharan Africa,-6.369028,34.888822,EG,Egypt,country,Middle East and North Africa,26.820553,30.802498,3720.83567807843,1990,4577,0,0,0,0,0,0,0,0,0,0,0,0,221,0,0,0,4276,0,80,0,0,0,0
US,USA,country,North America,37.09024,-95.712891,EG,Egypt,country,Middle East and North Africa,26.820553,30.802498,10988.7012592759,1990,3191725,2768133,0,2,1,130,27159,0,40,20395,0,200900,0,2959,133130,0,564,38806,44,26,0,0,0,0
UY,Uruguay,country,Latin America and the Caribbean,-32.522779,-55.765835,EG,Egypt,country,Middle East and North Africa,26.820553,30.802498,11287.0203937478,1990,9679,0,0,0,0,0,0,0,0,0,0,0,0,7,0,0,0,9672,0,0,0,0,0,0
RU,Russian Federation,country,Europe and Central Asia,61.52401,105.318756,EG,Egypt,country,Middle East and North Africa,26.820553,30.802498,6603.76084333782,1990,22684,0,0,0,0,0,0,0,0,0,0,0,0,0,22211,0,17,0,0,473,0,0,0,0
VE,Venezuela,country,Latin America and the Caribbean,6.42375,-66.58973,EG,Egypt,country,Middle East and North Africa,26.820553,30.802498,10424.79888662,1990,15,0,0,0,0,0,0,0,0,15,0,0,0,0,0,0,0,0,0,0,0,0,0,0
BA,Bosnia & Herzegovina,country,Europe and Central Asia,43.915886,17.679076,EG,Egypt,country,Middle East and North Africa,26.820553,30.802498,2238.76229734916,1990,28388,25778,0,0,0,0,0,0,0,17,0,8,0,2307,0,0,0,257,21,0,0,0,0,0
ZW,Zimbabwe,country,Sub-Saharan Africa,-19.015438,29.154857,EG,Egypt,country,Middle East and North Africa,26.820553,30.802498,5105.54003845792,1990,6504,0,0,0,0,0,0,0,0,0,0,0,0,6504,0,0,0,0,0,0,0,0,0,0
AL,Albania,country,Europe and Central Asia,41.153332,20.168331,EG,Egypt,country,Middle East and North Africa,26.820553,30.802498,1869.85145551779,1991,1435,0,0,0,0,0,0,0,0,5,0,0,0,1430,0,0,0,0,0,0,0,0,0,0
AR,Argentina,country,Latin America and the Caribbean,-38.416097,-63.616672,EG,Egypt,country,Middle East and North Africa,26.820553,30.802498,12192.397394083,1991,200088,136940,0,0,0,0,14500,0,0,0,0,41703,110,2849,3986,0,0,0,0,0,0,0,0,0
AU,Australia,country,East Asia and Pacific,-25.274398,133.775136,EG,Egypt,country,Middle East and North Africa,26.820553,30.802498,12462.2319801187,1991,1929636,1917596,0,0,6085,0,0,0,0,4339,0,860,0,756,0,0,0,0,0,0,0,0,0,0
AT,Austria,country,Europe and Central Asia,47.516231,14.550072,EG,Egypt,country,Middle East and North Africa,26.820553,30.802498,2705.35404651056,1991,586,0,0,0,0,0,0,0,0,0,0,2,0,24,0,0,18,544,16,0,0,0,0,0
BD,Bangladesh,country,South Asia,23.684994,90.356331,EG,Egypt,country,Middle East and North Africa,26.820553,30.802498,5951.20804631553,1991,20492,0,0,0,0,0,0,0,0,16502,0,0,3990,0,0,0,0,0,0,0,0,0,0,0
BE,Belgium,country,Europe and Central Asia,50.503887,4.469936,EG,Egypt,country,Middle East and North Africa,26.820553,30.802498,3454.43979258168,1991,42430,7,502,16649,500,0,0,0,0,0,0,22269,4,373,8,0,16,1705,413,0,0,0,0,0
BJ,Benin,country,Sub-Saharan Africa,9.30769,2.315834,EG,Egypt,country,Middle East and North Africa,26.820553,30.802498,3574.52428919914,1991,1,0,0,0,0,0,0,0,0,0,0,0,0,1,0,0,0,0,0,0,0,0,0,0
BR,Brazil,country,Latin America and the Caribbean,-14.235004,-51.92528,EG,Egypt,country,Middle East and North Africa,26.820553,30.802498,10028.012642647,1991,106394,0,0,57775,0,0,0,0,0,0,147,44168,231,2376,572,0,0,1125,0,0,0,0,0,0
BG,Bulgaria,country,Europe and Central Asia,42.733883,25.48583,EG,Egypt,country,Middle East and North Africa,26.820553,30.802498,1835.92432650592,1991,1789,1739,0,0,0,0,0,0,0,0,0,0,0,50,0,0,0,0,0,0,0,0,0,0
KH,Cambodia,country,East Asia and Pacific,12.565679,104.990963,EG,Egypt,country,Middle East and North Africa,26.820553,30.802498,7836.5652817254,1991,1989,0,0,0,0,0,0,0,0,1989,0,0,0,0,0,0,0,0,0,0,0,0,0,0
CA,Canada,country,North America,56.130366,-106.346771,EG,Egypt,country,Middle East and North Africa,26.820553,30.802498,9954.90844208778,1991,63123,26400,0,0,0,0,4841,0,0,0,0,28400,0,1028,0,0,0,0,2454,0,0,0,0,0
HK,Hong Kong,country,East Asia and Pacific,22.396428,114.109497,EG,Egypt,country,Middle East and North Africa,26.820553,30.802498,8287.74431451014,1991,459,0,0,0,0,0,0,0,0,0,184,0,0,275,0,0,0,0,0,0,0,0,0,0
CN,China,country,East Asia and Pacific,35.86166,104.195397,EG,Egypt,country,Middle East and North Africa,26.820553,30.802498,6890.50630390918,1991,63245,0,0,0,61311,10,0,0,0,19,302,0,686,917,0,0,0,0,0,0,0,0,0,0
CG,"Congo, Rep.",country,Sub-Saharan Africa,-0.228021,15.827659,EG,Egypt,country,Middle East and North Africa,26.820553,30.802498,3411.73192312879,1991,34,0,0,0,0,0,0,0,0,0,0,0,34,0,0,0,0,0,0,0,0,0,0,0
CI,Ivory Coast,country,Sub-Saharan Africa,7.539989,-5.54708,EG,Egypt,country,Middle East and North Africa,26.820553,30.802498,4395.73378933376,1991,811,0,0,0,0,0,0,0,0,0,0,0,811,0,0,0,0,0,0,0,0,0,0,0
CU,Cuba,country,Latin America and the Caribbean,21.521757,-77.781167,EG,Egypt,country,Middle East and North Africa,26.820553,30.802498,10651.5631684535,1991,13,0,0,0,0,0,0,0,0,0,0,0,0,13,0,0,0,0,0,0,0,0,0,0
CY,Cyprus,country,Europe and Central Asia,35.126413,33.429859,EG,Egypt,country,Middle East and North Africa,26.820553,30.802498,957.886476065658,1991,159,0,0,0,0,0,0,0,0,0,0,7,0,152,0,0,0,0,0,0,0,0,0,0
CZ,Czech Republic,country,Europe and Central Asia,49.817492,15.472962,EG,Egypt,country,Middle East and North Africa,26.820553,30.802498,2876.1400991165,1991,7718,0,0,150,2534,0,0,0,0,0,0,0,0,0,0,0,0,0,5034,0,0,0,0,0
DK,Denmark,country,Europe and Central Asia,56.26392,9.501785,EG,Egypt,country,Middle East and North Africa,26.820553,30.802498,3693.24391219974,1991,38403,0,0,0,0,0,0,0,0,0,0,16919,0,382,0,0,0,943,20159,0,0,0,0,0
DJ,Djibouti,country,Middle East and North Africa,11.825138,42.590275,EG,Egypt,country,Middle East and North Africa,26.820553,30.802498,2075.39224053789,1991,1,0,0,0,0,0,0,0,0,0,0,0,0,1,0,0,0,0,0,0,0,0,0,0
EC,Ecuador,country,Latin America and the Caribbean,-1.831239,-78.183406,EG,Egypt,country,Middle East and North Africa,26.820553,30.802498,11992.9541170827,1991,351,0,0,0,0,0,0,0,0,0,0,0,351,0,0,0,0,0,0,0,0,0,0,0
FI,Finland,country,Europe and Central Asia,61.92411,25.748151,EG,Egypt,country,Middle East and North Africa,26.820553,30.802498,3925.78779986235,1991,112,0,0,0,0,0,3,0,0,0,0,0,0,0,109,0,0,0,0,0,0,0,0,0
FR,France,country,Europe and Central Asia,46.227638,2.213749,EG,Egypt,country,Middle East and North Africa,26.820553,30.802498,3315.47283349949,1991,373620,284751,577,54548,208,0,0,18,19,0,145,9011,266,544,3745,0,139,17203,2585,0,0,0,0,0
GH,Ghana,country,Sub-Saharan Africa,7.946527,-1.023194,EG,Egypt,country,Middle East and North Africa,26.820553,30.802498,3960.24052553777,1991,401,0,0,0,0,0,0,0,0,0,0,0,339,62,0,0,0,0,0,0,0,0,0,0
GI,Gibraltar,country,Europe and Central Asia,36.137741,-5.345374,EG,Egypt,country,Middle East and North Africa,26.820553,30.802498,3562.00741313575,1991,440,0,0,0,0,0,0,0,0,0,0,400,0,0,0,0,0,0,40,0,0,0,0,0
GR,Greece,country,Europe and Central Asia,39.074208,21.824312,EG,Egypt,country,Middle East and North Africa,26.820553,30.802498,1599.25422928541,1991,12412,2714,0,0,0,57,0,4067,132,0,0,997,0,4437,8,0,0,0,0,0,0,0,0,0
GT,Guatemala,country,Latin America and the Caribbean,15.783471,-90.230759,EG,Egypt,country,Middle East and North Africa,26.820553,30.802498,12096.3205420716,1991,207,0,0,0,0,0,0,0,0,0,157,0,50,0,0,0,0,0,0,0,0,0,0,0
HU,Hungary,country,Europe and Central Asia,47.162494,19.503304,EG,Egypt,country,Middle East and North Africa,26.820553,30.802498,2471.23854743199,1991,2012,0,0,0,159,0,0,102,0,0,0,42,0,0,0,0,0,0,1709,0,0,0,0,0
IN,India,country,South Asia,20.593684,78.96288,EG,Egypt,country,Middle East and North Africa,26.820553,30.802498,4929.07571829965,1991,12891,0,0,7600,0,91,6,0,0,0,43,0,4296,855,0,0,0,0,0,0,0,0,0,0
ID,Indonesia,country,East Asia and Pacific,-0.789275,113.921327,EG,Egypt,country,Middle East and North Africa,26.820553,30.802498,9375.40807616481,1991,24023,0,0,0,172,0,0,0,0,0,151,0,19532,163,4005,0,0,0,0,0,0,0,0,0
IR,Iran,country,Middle East and North Africa,32.427908,53.688046,EG,Egypt,country,Middle East and North Africa,26.820553,30.802498,2295.70132592549,1991,48,0,0,0,0,48,0,0,0,0,0,0,0,0,0,0,0,0,0,0,0,0,0,0
IE,Ireland,country,Europe and Central Asia,53.41291,-8.24389,EG,Egypt,country,Middle East and North Africa,26.820553,30.802498,4359.11107429444,1991,20567,0,798,20,0,0,0,0,0,0,0,35,0,3738,0,0,0,15976,0,0,0,0,0,0
IL,Israel,country,Middle East and North Africa,31.046051,34.851612,EG,Egypt,country,Middle East and North Africa,26.820553,30.802498,613.779687934423,1991,16,0,0,0,0,0,0,0,0,0,0,0,0,16,0,0,0,0,0,0,0,0,0,0
IT,Italy,country,Europe and Central Asia,41.87194,12.56738,EG,Egypt,country,Middle East and North Africa,26.820553,30.802498,2360.0272509652,1991,70944,33168,0,2,2000,0,0,388,1001,0,0,20041,83,4708,843,0,17,8710,0,0,0,0,0,0
JP,Japan,country,East Asia and Pacific,36.204824,138.252924,EG,Egypt,country,Middle East and North Africa,26.820553,30.802498,9696.1079625791,1991,89,0,0,24,0,0,0,0,5,0,41,0,2,17,0,0,0,0,0,0,0,0,0,0
JO,Jordan,country,Middle East and North Africa,30.585164,36.238414,EG,Egypt,country,Middle East and North Africa,26.820553,30.802498,676.088710764274,1991,6,0,0,0,0,0,0,0,0,0,0,6,0,0,0,0,0,0,0,0,0,0,0,0
KE,Kenya,country,Sub-Saharan Africa,-0.023559,37.906193,EG,Egypt,country,Middle East and North Africa,26.820553,30.802498,3083.62508462516,1991,18384,0,0,0,0,0,1540,0,0,0,0,0,16667,1,0,0,0,0,0,176,0,0,0,0
LB,Lebanon,country,Middle East and North Africa,33.854721,35.862285,EG,Egypt,country,Middle East and North Africa,26.820553,30.802498,921.317507558426,1991,1566,1505,0,4,0,0,52,0,0,0,5,0,0,0,0,0,0,0,0,0,0,0,0,0
LY,Libya,country,Middle East and North Africa,26.3351,17.228331,EG,Egypt,country,Middle East and North Africa,26.820553,30.802498,1351.82888768785,1991,154,20,0,0,0,0,0,0,0,42,0,10,55,0,0,0,0,0,0,27,0,0,0,0
MG,Madagascar,country,Sub-Saharan Africa,-18.766947,46.869107,EG,Egypt,country,Middle East and North Africa,26.820553,30.802498,5363.18301178549,1991,51,0,0,0,0,0,0,0,0,0,51,0,0,0,0,0,0,0,0,0,0,0,0,0
MW,Malawi,country,Sub-Saharan Africa,-13.254308,34.301525,EG,Egypt,country,Middle East and North Africa,26.820553,30.802498,4477.13205763116,1991,3309,0,0,0,0,0,0,0,0,0,0,0,173,3136,0,0,0,0,0,0,0,0,0,0
MY,Malaysia,country,East Asia and Pacific,4.210484,101.975766,EG,Egypt,country,Middle East and North Africa,26.820553,30.802498,7938.90606344638,1991,99560,0,0,0,0,0,0,0,0,0,2341,0,862,3032,93325,0,0,0,0,0,0,0,0,0
MU,Mauritius,country,Sub-Saharan Africa,-20.348404,57.552152,EG,Egypt,country,Middle East and North Africa,26.820553,30.802498,5991.45961115473,1991,10,0,0,0,0,0,0,0,0,0,10,0,0,0,0,0,0,0,0,0,0,0,0,0
MX,Mexico,country,Latin America and the Caribbean,23.634501,-102.552784,EG,Egypt,country,Middle East and North Africa,26.820553,30.802498,12507.6318527222,1991,30,0,0,0,0,0,0,0,0,0,30,0,0,0,0,0,0,0,0,0,0,0,0,0
MM,Myanmar,country,East Asia and Pacific,21.913965,95.956223,EG,Egypt,country,Middle East and North Africa,26.820553,30.802498,6558.58806631573,1991,1948,0,0,0,0,0,1948,0,0,0,0,0,0,0,0,0,0,0,0,0,0,0,0,0
NL,Netherlands,country,Europe and Central Asia,52.132633,5.291266,EG,Egypt,country,Middle East and North Africa,26.820553,30.802498,3531.6048959239,1991,128509,438,8330,150,0,0,18,4,0,0,5,21673,2324,4419,63132,0,1479,16718,11298,0,0,0,0,0
NZ,New Zealand,country,East Asia and Pacific,-40.900557,174.885971,EG,Egypt,country,Middle East and North Africa,26.820553,30.802498,16399.7029091802,1991,1983,0,0,0,0,0,0,0,0,988,206,0,0,0,0,0,0,65,724,0,0,0,0,0
NE,Niger,country,Sub-Saharan Africa,17.607789,8.081666,EG,Egypt,country,Middle East and North Africa,26.820553,30.802498,2550.76215206063,1991,37,0,0,0,0,0,0,0,0,0,0,0,0,0,0,0,0,0,0,37,0,0,0,0
NO,Norway,country,Europe and Central Asia,60.472024,8.468946,EG,Egypt,country,Middle East and North Africa,26.820553,30.802498,4110.38330013448,1991,8,0,0,0,0,0,0,0,0,0,0,8,0,0,0,0,0,0,0,0,0,0,0,0
OM,Oman,country,Middle East and North Africa,21.512583,55.923255,EG,Egypt,country,Middle East and North Africa,26.820553,30.802498,2614.05376902867,1991,44,0,0,0,0,2,0,17,18,0,0,0,0,7,0,0,0,0,0,0,0,0,0,0
PK,Pakistan,country,South Asia,30.375321,69.345116,EG,Egypt,country,Middle East and North Africa,26.820553,30.802498,3769.93029474242,1991,233,0,0,0,0,0,233,0,0,0,0,0,0,0,0,0,0,0,0,0,0,0,0,0
PH,Philippines,country,East Asia and Pacific,12.879721,121.774017,EG,Egypt,country,Middle East and North Africa,26.820553,30.802498,9470.68544680989,1991,15132,0,0,14000,0,2,1062,0,0,0,0,0,0,68,0,0,0,0,0,0,0,0,0,0
PL,Poland,country,Europe and Central Asia,51.919438,19.145136,EG,Egypt,country,Middle East and North Africa,26.820553,30.802498,2960.10739320744,1991,17553,0,0,0,8958,0,0,0,0,0,0,0,0,269,0,0,0,0,8326,0,0,0,0,0
RO,Romania,country,Europe and Central Asia,45.943161,24.96676,EG,Egypt,country,Middle East and North Africa,26.820553,30.802498,2190.47454238944,1991,5,0,0,0,0,0,0,0,0,0,0,0,0,5,0,0,0,0,0,0,0,0,0,0
SA,Saudi Arabia,country,Middle East and North Africa,23.885942,45.079162,EG,Egypt,country,Middle East and North Africa,26.820553,30.802498,1471.96097543156,1991,238501,237531,0,6,0,0,0,34,0,0,0,0,0,0,930,0,0,0,0,0,0,0,0,0
SN,Senegal,country,Sub-Saharan Africa,14.497401,-14.452362,EG,Egypt,country,Middle East and North Africa,26.820553,30.802498,4881.19698408667,1991,15,0,0,0,0,0,0,0,0,0,0,0,0,0,0,0,0,0,0,15,0,0,0,0
SG,Singapore,country,East Asia and Pacific,1.352083,103.819836,EG,Egypt,country,Middle East and North Africa,26.820553,30.802498,8266.83230129849,1991,19739,0,0,0,820,0,409,0,28,0,1868,0,449,4322,11843,0,0,0,0,0,0,0,0,0
SO,Somalia,country,Sub-Saharan Africa,5.152149,46.199616,EG,Egypt,country,Middle East and North Africa,26.820553,30.802498,2914.01023195474,1991,54,0,0,0,0,0,0,0,0,0,54,0,0,0,0,0,0,0,0,0,0,0,0,0
ES,Spain,country,Europe and Central Asia,40.463667,-3.74922,EG,Egypt,country,Middle East and North Africa,26.820553,30.802498,3514.08997283512,1991,27871,20064,0,309,731,63,0,0,15,0,136,1714,0,1745,3094,0,0,0,0,0,0,0,0,0
LK,Sri Lanka,country,South Asia,7.873054,80.771797,EG,Egypt,country,Middle East and North Africa,26.820553,30.802498,5668.43485244707,1991,30124,0,0,0,0,25,2481,0,0,0,177,0,27220,221,0,0,0,0,0,0,0,0,0,0
SD,Sudan,country,Sub-Saharan Africa,12.862807,30.217636,EG,Egypt,country,Middle East and North Africa,26.820553,30.802498,1554.96730449106,1991,2238,0,0,0,211,0,46,0,1566,0,5,290,0,0,0,0,0,0,0,120,0,0,0,0
SE,Sweden,country,Europe and Central Asia,60.128161,18.643501,EG,Egypt,country,Middle East and North Africa,26.820553,30.802498,3822.0481088077,1991,3,0,0,0,0,0,0,0,0,0,0,0,0,3,0,0,0,0,0,0,0,0,0,0
CH,Switzerland,country,Europe and Central Asia,46.818188,8.227512,EG,Egypt,country,Middle East and North Africa,26.820553,30.802498,2978.7215865603,1991,48535,60,0,20,727,0,0,37,0,0,0,1793,366,35,44962,0,0,14,521,0,0,0,0,0
SY,Syrian Arab Rep.,country,Middle East and North Africa,34.802075,38.996815,EG,Egypt,country,Middle East and North Africa,26.820553,30.802498,1183.58751413298,1991,12146,0,0,0,10662,0,0,0,68,238,12,0,0,1166,0,0,0,0,0,0,0,0,0,0
TH,Thailand,country,East Asia and Pacific,15.870032,100.992541,EG,Egypt,country,Middle East and North Africa,26.820553,30.802498,7294.19144358834,1991,5373,0,0,150,0,5,5,0,12,0,0,0,0,5201,0,0,0,0,0,0,0,0,0,0
TR,Turkey,country,Europe and Central Asia,38.963745,35.243322,EG,Egypt,country,Middle East and North Africa,26.820553,30.802498,1413.54872030114,1991,54535,23420,0,0,30167,495,22,51,77,0,46,0,0,98,159,0,0,0,0,0,0,0,0,0
UG,Uganda,country,Sub-Saharan Africa,1.373333,32.290275,EG,Egypt,country,Middle East and North Africa,26.820553,30.802498,2837.23278294888,1991,1715,0,0,0,0,0,1573,0,0,0,0,0,0,14,0,0,0,0,0,128,0,0,0,0
GB,United Kingdom,country,Europe and Central Asia,55.378051,-3.435973,EG,Egypt,country,Middle East and North Africa,26.820553,30.802498,4204.60279341227,1991,104127,46,2844,71308,18661,16,3904,0,292,0,32,132,1288,207,612,0,59,3150,1635,0,0,0,0,0
TZ,Tanzania,country,Sub-Saharan Africa,-6.369028,34.888822,EG,Egypt,country,Middle East and North Africa,26.820553,30.802498,3720.83567807843,1991,480,0,0,0,0,0,0,0,0,0,0,0,0,380,0,0,0,0,0,100,0,0,0,0
US,USA,country,North America,37.09024,-95.712891,EG,Egypt,country,Middle East and North Africa,26.820553,30.802498,10988.7012592759,1991,3111751,2907984,0,6003,51,174,1504,6,65,1177,0,130489,0,2102,33450,0,120,28718,28,0,0,0,0,0
RU,Russian Federation,country,Europe and Central Asia,61.52401,105.318756,EG,Egypt,country,Middle East and North Africa,26.820553,30.802498,6603.76084333782,1991,4,0,0,0,0,0,0,0,0,0,0,0,0,4,0,0,0,0,0,0,0,0,0,0
BA,Bosnia & Herzegovina,country,Europe and Central Asia,43.915886,17.679076,EG,Egypt,country,Middle East and North Africa,26.820553,30.802498,2238.76229734916,1991,2037,0,0,0,0,0,0,0,0,0,0,10,0,2017,0,0,0,0,10,0,0,0,0,0
ZW,Zimbabwe,country,Sub-Saharan Africa,-19.015438,29.154857,EG,Egypt,country,Middle East and North Africa,26.820553,30.802498,5105.54003845792,1991,8461,0,0,0,0,0,0,0,0,0,0,0,0,8461,0,0,0,0,0,0,0,0,0,0
AL,Albania,country,Europe and Central Asia,41.153332,20.168331,EG,Egypt,country,Middle East and North Africa,26.820553,30.802498,1869.85145551779,1992,598,0,0,0,0,0,0,0,0,0,0,0,0,598,0,0,0,0,0,0,0,0,0,0
AR,Argentina,country,Latin America and the Caribbean,-38.416097,-63.616672,EG,Egypt,country,Middle East and North Africa,26.820553,30.802498,12192.397394083,1992,488387,258530,0,0,414,0,0,0,0,0,0,195084,0,64,34295,0,0,0,0,0,0,0,0,0
AU,Australia,country,East Asia and Pacific,-25.274398,133.775136,EG,Egypt,country,Middle East and North Africa,26.820553,30.802498,12462.2319801187,1992,1281643,1242054,0,0,35824,0,32,0,0,2528,0,1204,1,0,0,0,0,0,0,0,0,0,0,0
AT,Austria,country,Europe and Central Asia,47.516231,14.550072,EG,Egypt,country,Middle East and North Africa,26.820553,30.802498,2705.35404651056,1992,269,0,0,0,0,0,0,0,0,0,0,14,2,103,0,0,17,0,150,0,0,0,0,0
BS,The Bahamas,country,Latin America and the Caribbean,25.03428,-77.39628,EG,Egypt,country,Middle East and North Africa,26.820553,30.802498,10411.921555153,1992,3,0,0,0,0,0,0,0,0,0,0,0,0,3,0,0,0,0,0,0,0,0,0,0
