sourceCode,sourceName,sourceGrouping,sourceRegion,sourceLat,sourceLong,destCode,destName,destGrouping,destRegion,destLat,destLong,distance,year,totalTons,cereals,roots,sugarCrops,pulses,nuts,oilCrops,vegetables,fruits,fibers,spices,fodderCrops,coffeeTea,tobaccoRubber,oilsFats,beverages,livestock,animalMeats,animalProducts,animalHides,nimalOther,pesticides,fertilizers,machinery
AL,Albania,country,Europe and Central Asia,41.153332,20.168331,NE,Niger,country,Sub-Saharan Africa,17.607789,8.081666,2864.4918557366,2000,0,0,0,0,0,0,0,0,0,0,0,0,0,0,0,0,0,0,0,0,0,0,0,0
DZ,Algeria,country,Middle East and North Africa,28.033886,1.659626,NE,Niger,country,Sub-Saharan Africa,17.607789,8.081666,1333.92265391544,2000,8021,28,0,1,0,0,0,0,7941,0,0,0,0,13,1,0,0,0,37,0,0,0,0,0
AR,Argentina,country,Latin America and the Caribbean,-38.416097,-63.616672,NE,Niger,country,Sub-Saharan Africa,17.607789,8.081666,9721.74439348601,2000,0,0,0,0,0,0,0,0,0,0,0,0,0,0,0,0,0,0,0,0,0,0,0,0
AU,Australia,country,East Asia and Pacific,-25.274398,133.775136,NE,Niger,country,Sub-Saharan Africa,17.607789,8.081666,14382.5025487694,2000,1620,1599,0,0,0,0,0,0,0,0,0,0,0,0,0,0,0,21,0,0,0,0,0,0
AT,Austria,country,Europe and Central Asia,47.516231,14.550072,NE,Niger,country,Sub-Saharan Africa,17.607789,8.081666,3381.44377511528,2000,28,28,0,0,0,0,0,0,0,0,0,0,0,0,0,0,0,0,0,0,0,0,0,0
BE,Belgium,country,Europe and Central Asia,50.503887,4.469936,NE,Niger,country,Sub-Saharan Africa,17.607789,8.081666,3676.09268033447,2000,4776,7,0,4402,0,0,0,0,1,0,0,0,0,69,0,0,0,0,297,0,0,0,0,0
BJ,Benin,country,Sub-Saharan Africa,9.30769,2.315834,NE,Niger,country,Sub-Saharan Africa,17.607789,8.081666,1114.69626262521,2000,4615,2963,12,36,12,52,1,41,23,0,1,34,0,332,1045,27,0,1,35,0,0,0,0,0
BR,Brazil,country,Latin America and the Caribbean,-14.235004,-51.92528,NE,Niger,country,Sub-Saharan Africa,17.607789,8.081666,7481.05304471793,2000,2167,19,0,2146,0,0,0,0,0,0,0,0,2,0,0,0,0,0,0,0,0,0,0,0
BG,Bulgaria,country,Europe and Central Asia,42.733883,25.48583,NE,Niger,country,Sub-Saharan Africa,17.607789,8.081666,3245.27196127946,2000,0,0,0,0,0,0,0,0,0,0,0,0,0,0,0,0,0,0,0,0,0,0,0,0
BF,Burkina Faso,country,Sub-Saharan Africa,12.238333,-1.561593,NE,Niger,country,Sub-Saharan Africa,17.607789,8.081666,1196.70110990139,2000,52975,46867,26,160,0,1,0,4,3865,0,0,1,0,368,1680,0,0,1,2,0,0,0,0,0
CM,Cameroon,country,Sub-Saharan Africa,7.369722,12.354722,NE,Niger,country,Sub-Saharan Africa,17.607789,8.081666,1230.41841824464,2000,0,0,0,0,0,0,0,0,0,0,0,0,0,0,0,0,0,0,0,0,0,0,0,0
CA,Canada,country,North America,56.130366,-106.346771,NE,Niger,country,Sub-Saharan Africa,17.607789,8.081666,9817.8828466528,2000,76,0,0,0,0,0,0,0,0,0,0,0,1,0,75,0,0,0,0,0,0,0,0,0
TD,Chad,country,Sub-Saharan Africa,15.454166,18.732207,NE,Niger,country,Sub-Saharan Africa,17.607789,8.081666,1161.40246252528,2000,22,0,0,0,0,22,0,0,0,0,0,0,0,0,0,0,0,0,0,0,0,0,0,0
CL,Chile,country,Latin America and the Caribbean,-35.675147,-71.542969,NE,Niger,country,Sub-Saharan Africa,17.607789,8.081666,10254.6059862705,2000,0,0,0,0,0,0,0,0,0,0,0,0,0,0,0,0,0,0,0,0,0,0,0,0
CN,China,country,East Asia and Pacific,35.86166,104.195397,NE,Niger,country,Sub-Saharan Africa,17.607789,8.081666,9412.27477538131,2000,50635,48416,0,72,0,0,0,0,0,1,0,0,2107,6,0,1,0,0,32,0,0,0,0,0
TW,Taiwan,country,East Asia and Pacific,23.69781,120.960515,NE,Niger,country,Sub-Saharan Africa,17.607789,8.081666,11418.7681057697,2000,75,75,0,0,0,0,0,0,0,0,0,0,0,0,0,0,0,0,0,0,0,0,0,0
CO,Colombia,country,Latin America and the Caribbean,4.570868,-74.297333,NE,Niger,country,Sub-Saharan Africa,17.607789,8.081666,9057.69177692492,2000,0,0,0,0,0,0,0,0,0,0,0,0,0,0,0,0,0,0,0,0,0,0,0,0
CI,Ivory Coast,country,Sub-Saharan Africa,7.539989,-5.54708,NE,Niger,country,Sub-Saharan Africa,17.607789,8.081666,1855.18700208386,2000,35233,2172,0,2917,0,907,47,4,837,1,8,0,83,1283,26114,713,0,0,147,0,0,0,0,0
CY,Cyprus,country,Europe and Central Asia,35.126413,33.429859,NE,Niger,country,Sub-Saharan Africa,17.607789,8.081666,3175.97821965513,2000,1,0,0,0,0,1,0,0,0,0,0,0,0,0,0,0,0,0,0,0,0,0,0,0
CD,"Congo, Dem. Rep.",country,Sub-Saharan Africa,-4.038333,21.758664,NE,Niger,country,Sub-Saharan Africa,17.607789,8.081666,2839.62051443552,2000,1,0,0,0,0,0,0,0,1,0,0,0,0,0,0,0,0,0,0,0,0,0,0,0
DK,Denmark,country,Europe and Central Asia,56.26392,9.501785,NE,Niger,country,Sub-Saharan Africa,17.607789,8.081666,4304.84072701576,2000,17,1,0,0,0,0,0,0,0,0,0,0,0,0,15,0,0,1,0,0,0,0,0,0
EG,Egypt,country,Middle East and North Africa,26.820553,30.802498,NE,Niger,country,Sub-Saharan Africa,17.607789,8.081666,2550.76215206063,2000,0,0,0,0,0,0,0,0,0,0,0,0,0,0,0,0,0,0,0,0,0,0,0,0
SV,El Salvador,country,Latin America and the Caribbean,13.794185,-88.89653,NE,Niger,country,Sub-Saharan Africa,17.607789,8.081666,10276.0760217625,2000,0,0,0,0,0,0,0,0,0,0,0,0,0,0,0,0,0,0,0,0,0,0,0,0
ET,Ethiopia,country,Sub-Saharan Africa,9.145,40.489673,NE,Niger,country,Sub-Saharan Africa,17.607789,8.081666,3627.87862395319,2000,0,0,0,0,0,0,0,0,0,0,0,0,0,0,0,0,0,0,0,0,0,0,0,0
FI,Finland,country,Europe and Central Asia,61.92411,25.748151,NE,Niger,country,Sub-Saharan Africa,17.607789,8.081666,5123.53805427279,2000,81,0,0,0,0,0,0,0,0,0,0,0,0,0,0,0,0,0,81,0,0,0,0,0
FR,France,country,Europe and Central Asia,46.227638,2.213749,NE,Niger,country,Sub-Saharan Africa,17.607789,8.081666,3231.65317649015,2000,69444,31190,3,34335,0,2,82,224,124,6,2,5,31,844,51,350,3,51,2144,0,0,0,0,0
DE,Germany,country,Europe and Central Asia,51.165691,10.451526,NE,Niger,country,Sub-Saharan Africa,17.607789,8.081666,3741.54276679435,2000,329,0,0,20,0,0,0,0,0,0,0,0,1,39,0,31,0,0,238,0,0,0,0,0
GH,Ghana,country,Sub-Saharan Africa,7.946527,-1.023194,NE,Niger,country,Sub-Saharan Africa,17.607789,8.081666,1459.77048842897,2000,4899,4258,1,171,4,348,0,5,13,1,3,38,1,12,42,0,0,0,2,0,0,0,0,0
GR,Greece,country,Europe and Central Asia,39.074208,21.824312,NE,Niger,country,Sub-Saharan Africa,17.607789,8.081666,2735.19434584169,2000,4,0,0,0,0,0,0,0,0,0,0,0,0,4,0,0,0,0,0,0,0,0,0,0
HU,Hungary,country,Europe and Central Asia,47.162494,19.503304,NE,Niger,country,Sub-Saharan Africa,17.607789,8.081666,3452.34266162352,2000,0,0,0,0,0,0,0,0,0,0,0,0,0,0,0,0,0,0,0,0,0,0,0,0
IS,Iceland,country,Europe and Central Asia,64.963051,-19.020835,NE,Niger,country,Sub-Saharan Africa,17.607789,8.081666,5645.74274482747,2000,0,0,0,0,0,0,0,0,0,0,0,0,0,0,0,0,0,0,0,0,0,0,0,0
IN,India,country,South Asia,20.593684,78.96288,NE,Niger,country,Sub-Saharan Africa,17.607789,8.081666,7403.54242611931,2000,35,35,0,0,0,0,0,0,0,0,0,0,0,0,0,0,0,0,0,0,0,0,0,0
ID,Indonesia,country,East Asia and Pacific,-0.789275,113.921327,NE,Niger,country,Sub-Saharan Africa,17.607789,8.081666,11724.7713149262,2000,901,901,0,0,0,0,0,0,0,0,0,0,0,0,0,0,0,0,0,0,0,0,0,0
IR,Iran,country,Middle East and North Africa,32.427908,53.688046,NE,Niger,country,Sub-Saharan Africa,17.607789,8.081666,4845.47494017277,2000,0,0,0,0,0,0,0,0,0,0,0,0,0,0,0,0,0,0,0,0,0,0,0,0
IE,Ireland,country,Europe and Central Asia,53.41291,-8.24389,NE,Niger,country,Sub-Saharan Africa,17.607789,8.081666,4229.16440180947,2000,198,0,0,0,0,0,0,0,0,0,0,0,0,0,0,0,0,0,198,0,0,0,0,0
IT,Italy,country,Europe and Central Asia,41.87194,12.56738,NE,Niger,country,Sub-Saharan Africa,17.607789,8.081666,2734.62037093547,2000,2393,639,0,0,0,0,0,1160,60,0,0,0,0,531,0,1,0,1,1,0,0,0,0,0
JM,Jamaica,country,Latin America and the Caribbean,18.109581,-77.297508,NE,Niger,country,Sub-Saharan Africa,17.607789,8.081666,8948.52188936868,2000,0,0,0,0,0,0,0,0,0,0,0,0,0,0,0,0,0,0,0,0,0,0,0,0
JP,Japan,country,East Asia and Pacific,36.204824,138.252924,NE,Niger,country,Sub-Saharan Africa,17.607789,8.081666,12079.1589883354,2000,1757,1671,0,25,0,19,0,21,0,0,0,1,1,11,0,0,0,0,8,0,0,0,0,0
KE,Kenya,country,Sub-Saharan Africa,-0.023559,37.906193,NE,Niger,country,Sub-Saharan Africa,17.607789,8.081666,3810.50250035848,2000,7,0,0,0,0,0,0,0,0,0,0,0,7,0,0,0,0,0,0,0,0,0,0,0
LY,Libya,country,Middle East and North Africa,26.3351,17.228331,NE,Niger,country,Sub-Saharan Africa,17.607789,8.081666,1353.74473387438,2000,1805,546,0,18,0,0,9,49,346,0,0,0,18,672,123,0,0,0,21,3,0,0,0,0
MG,Madagascar,country,Sub-Saharan Africa,-18.766947,46.869107,NE,Niger,country,Sub-Saharan Africa,17.607789,8.081666,5865.34346242293,2000,0,0,0,0,0,0,0,0,0,0,0,0,0,0,0,0,0,0,0,0,0,0,0,0
MY,Malaysia,country,East Asia and Pacific,4.210484,101.975766,NE,Niger,country,Sub-Saharan Africa,17.607789,8.081666,10288.9260871783,2000,227,0,0,0,0,0,0,0,0,0,0,0,0,25,202,0,0,0,0,0,0,0,0,0
ML,Mali,country,Sub-Saharan Africa,17.570692,-3.996166,NE,Niger,country,Sub-Saharan Africa,17.607789,8.081666,1281.428431896,2000,14873,14660,0,4,0,0,0,0,46,0,49,0,2,5,0,104,0,0,3,0,0,0,0,0
MR,Mauritania,country,Sub-Saharan Africa,21.00789,-10.940835,NE,Niger,country,Sub-Saharan Africa,17.607789,8.081666,2032.60932604182,2000,1,0,0,0,0,0,0,0,0,0,0,0,0,0,0,0,0,1,0,0,0,0,0,0
MU,Mauritius,country,Sub-Saharan Africa,-20.348404,57.552152,NE,Niger,country,Sub-Saharan Africa,17.607789,8.081666,6857.79045907311,2000,0,0,0,0,0,0,0,0,0,0,0,0,0,0,0,0,0,0,0,0,0,0,0,0
MX,Mexico,country,Latin America and the Caribbean,23.634501,-102.552784,NE,Niger,country,Sub-Saharan Africa,17.607789,8.081666,11214.942087734,2000,280,0,0,280,0,0,0,0,0,0,0,0,0,0,0,0,0,0,0,0,0,0,0,0
MA,Morocco,country,Middle East and North Africa,31.791702,-7.09262,NE,Niger,country,Sub-Saharan Africa,17.607789,8.081666,2196.82997423061,2000,36,8,0,0,0,0,6,1,0,0,0,0,0,2,0,19,0,0,0,0,0,0,0,0
NL,Netherlands,country,Europe and Central Asia,52.132633,5.291266,NE,Niger,country,Sub-Saharan Africa,17.607789,8.081666,3851.08799266713,2000,1839,35,0,0,0,0,0,3,0,0,0,0,2,43,170,47,0,0,1539,0,0,0,0,0
NG,Nigeria,country,Sub-Saharan Africa,9.081999,8.675277,NE,Niger,country,Sub-Saharan Africa,17.607789,8.081666,951.257301733266,2000,45480,27028,2113,7072,49,3513,146,353,1015,1288,516,641,224,698,757,7,3,1,59,0,0,0,0,0
PK,Pakistan,country,South Asia,30.375321,69.345116,NE,Niger,country,Sub-Saharan Africa,17.607789,8.081666,6317.20569061026,2000,28575,28540,0,35,0,0,0,0,0,0,0,0,0,0,0,0,0,0,0,0,0,0,0,0
PE,Peru,country,Latin America and the Caribbean,-9.189967,-75.015152,NE,Niger,country,Sub-Saharan Africa,17.607789,8.081666,9605.29682542844,2000,8,0,0,0,0,0,0,0,0,0,0,0,8,0,0,0,0,0,0,0,0,0,0,0
PH,Philippines,country,East Asia and Pacific,12.879721,121.774017,NE,Niger,country,Sub-Saharan Africa,17.607789,8.081666,12001.8464014099,2000,0,0,0,0,0,0,0,0,0,0,0,0,0,0,0,0,0,0,0,0,0,0,0,0
PT,Portugal,country,Europe and Central Asia,39.399872,-8.224454,NE,Niger,country,Sub-Saharan Africa,17.607789,8.081666,2892.61399446648,2000,0,0,0,0,0,0,0,0,0,0,0,0,0,0,0,0,0,0,0,0,0,0,0,0
RU,Russian Federation,country,Europe and Central Asia,61.52401,105.318756,NE,Niger,country,Sub-Saharan Africa,17.607789,8.081666,8678.09063402607,2000,58,0,0,11,0,0,0,0,0,0,0,0,0,0,0,13,0,0,34,0,0,0,0,0
SA,Saudi Arabia,country,Middle East and North Africa,23.885942,45.079162,NE,Niger,country,Sub-Saharan Africa,17.607789,8.081666,3903.05642180934,2000,99,40,0,0,0,0,0,0,40,0,0,0,0,19,0,0,0,0,0,0,0,0,0,0
SN,Senegal,country,Sub-Saharan Africa,14.497401,-14.452362,NE,Niger,country,Sub-Saharan Africa,17.607789,8.081666,2433.84565204456,2000,15,0,0,0,0,0,0,0,0,0,0,0,0,15,0,0,0,0,0,0,0,0,0,0
ZA,S. Africa,country,Sub-Saharan Africa,-30.559482,22.937506,NE,Niger,country,Sub-Saharan Africa,17.607789,8.081666,5593.10345084676,2000,6,0,0,0,0,0,0,0,6,0,0,0,0,0,0,0,0,0,0,0,0,0,0,0
ES,Spain,country,Europe and Central Asia,40.463667,-3.74922,NE,Niger,country,Sub-Saharan Africa,17.607789,8.081666,2786.42387917796,2000,719,44,0,0,0,0,0,0,86,0,0,0,0,151,0,297,0,0,141,0,0,0,0,0
LK,Sri Lanka,country,South Asia,7.873054,80.771797,NE,Niger,country,Sub-Saharan Africa,17.607789,8.081666,7925.29720993561,2000,1,0,0,0,0,0,0,0,0,0,0,0,1,0,0,0,0,0,0,0,0,0,0,0
SE,Sweden,country,Europe and Central Asia,60.128161,18.643501,NE,Niger,country,Sub-Saharan Africa,17.607789,8.081666,4808.76475607813,2000,0,0,0,0,0,0,0,0,0,0,0,0,0,0,0,0,0,0,0,0,0,0,0,0
CH,Switzerland,country,Europe and Central Asia,46.818188,8.227512,NE,Niger,country,Sub-Saharan Africa,17.607789,8.081666,3251.71436023697,2000,26,0,0,0,0,0,0,0,0,0,0,0,0,0,0,0,0,0,26,0,0,0,0,0
SY,Syrian Arab Rep.,country,Middle East and North Africa,34.802075,38.996815,NE,Niger,country,Sub-Saharan Africa,17.607789,8.081666,3609.28672414788,2000,0,0,0,0,0,0,0,0,0,0,0,0,0,0,0,0,0,0,0,0,0,0,0,0
TH,Thailand,country,East Asia and Pacific,15.870032,100.992541,NE,Niger,country,Sub-Saharan Africa,17.607789,8.081666,9788.05806046042,2000,2461,2460,0,0,0,0,0,0,1,0,0,0,0,0,0,0,0,0,0,0,0,0,0,0
TG,Togo,country,Sub-Saharan Africa,8.619543,0.824782,NE,Niger,country,Sub-Saharan Africa,17.607789,8.081666,1272.24784786373,2000,3039,2832,0,16,0,2,0,0,85,0,0,0,4,39,6,0,0,0,55,0,0,0,0,0
TN,Tunisia,country,Middle East and North Africa,33.886917,9.537499,NE,Niger,country,Sub-Saharan Africa,17.607789,8.081666,1817.98660575561,2000,2266,928,0,2,0,0,0,0,2,0,0,0,0,1334,0,0,0,0,0,0,0,0,0,0
TR,Turkey,country,Europe and Central Asia,38.963745,35.243322,NE,Niger,country,Sub-Saharan Africa,17.607789,8.081666,3543.41235264415,2000,54,0,0,21,0,0,0,0,0,0,0,0,2,31,0,0,0,0,0,0,0,0,0,0
TC,Turks and Caicos Islands,country,Latin America and the Caribbean,21.694025,-71.797928,NE,Niger,country,Sub-Saharan Africa,17.607789,8.081666,8291.96068447999,2000,16,0,0,0,0,0,0,0,0,0,0,0,0,16,0,0,0,0,0,0,0,0,0,0
UG,Uganda,country,Sub-Saharan Africa,1.373333,32.290275,NE,Niger,country,Sub-Saharan Africa,17.607789,8.081666,3205.71345783431,2000,0,0,0,0,0,0,0,0,0,0,0,0,0,0,0,0,0,0,0,0,0,0,0,0
AE,United Arab Emirates,country,Middle East and North Africa,23.424076,53.847818,NE,Niger,country,Sub-Saharan Africa,17.607789,8.081666,4795.99261809536,2000,3,1,0,0,0,0,0,0,0,0,1,0,0,1,0,0,0,0,0,0,0,0,0,0
GB,United Kingdom,country,Europe and Central Asia,55.378051,-3.435973,NE,Niger,country,Sub-Saharan Africa,17.607789,8.081666,4316.8524605343,2000,211,2,0,2,0,0,0,0,0,0,0,0,1,102,0,6,0,0,98,0,0,0,0,0
US,USA,country,North America,37.09024,-95.712891,NE,Niger,country,Sub-Saharan Africa,17.607789,8.081666,10011.4917303107,2000,3322,2734,0,42,0,0,0,2,0,0,0,0,0,50,414,0,0,0,80,0,0,0,0,0
UY,Uruguay,country,Latin America and the Caribbean,-32.522779,-55.765835,NE,Niger,country,Sub-Saharan Africa,17.607789,8.081666,8789.13369178322,2000,2853,2853,0,0,0,0,0,0,0,0,0,0,0,0,0,0,0,0,0,0,0,0,0,0
VN,Vietnam,country,East Asia and Pacific,14.058324,108.277199,NE,Niger,country,Sub-Saharan Africa,17.607789,8.081666,10594.7293511354,2000,199,199,0,0,0,0,0,0,0,0,0,0,0,0,0,0,0,0,0,0,0,0,0,0
DZ,Algeria,country,Middle East and North Africa,28.033886,1.659626,NE,Niger,country,Sub-Saharan Africa,17.607789,8.081666,1333.92265391544,2001,11368,25,0,20,0,0,0,0,11265,0,0,0,0,37,0,2,0,0,19,0,0,0,0,0
AR,Argentina,country,Latin America and the Caribbean,-38.416097,-63.616672,NE,Niger,country,Sub-Saharan Africa,17.607789,8.081666,9721.74439348601,2001,4071,3942,0,0,0,0,0,0,2,0,0,0,0,0,0,0,0,0,127,0,0,0,0,0
AU,Australia,country,East Asia and Pacific,-25.274398,133.775136,NE,Niger,country,Sub-Saharan Africa,17.607789,8.081666,14382.5025487694,2001,460,458,0,0,0,0,0,0,0,0,0,0,0,0,0,0,0,0,2,0,0,0,0,0
BS,The Bahamas,country,Latin America and the Caribbean,25.03428,-77.39628,NE,Niger,country,Sub-Saharan Africa,17.607789,8.081666,8759.87629086944,2001,0,0,0,0,0,0,0,0,0,0,0,0,0,0,0,0,0,0,0,0,0,0,0,0
BD,Bangladesh,country,South Asia,23.684994,90.356331,NE,Niger,country,Sub-Saharan Africa,17.607789,8.081666,8480.46228650362,2001,1760,1760,0,0,0,0,0,0,0,0,0,0,0,0,0,0,0,0,0,0,0,0,0,0
BE,Belgium,country,Europe and Central Asia,50.503887,4.469936,NE,Niger,country,Sub-Saharan Africa,17.607789,8.081666,3676.09268033447,2001,2192,142,0,1654,1,0,2,0,0,0,0,0,2,40,2,0,0,0,349,0,0,0,0,0
BJ,Benin,country,Sub-Saharan Africa,9.30769,2.315834,NE,Niger,country,Sub-Saharan Africa,17.607789,8.081666,1114.69626262521,2001,5654,1149,4,1,0,16,215,2,19,0,0,35,0,283,3930,0,0,0,0,0,0,0,0,0
BR,Brazil,country,Latin America and the Caribbean,-14.235004,-51.92528,NE,Niger,country,Sub-Saharan Africa,17.607789,8.081666,7481.05304471793,2001,8819,0,0,8804,0,0,0,0,10,0,0,0,1,4,0,0,0,0,0,0,0,0,0,0
BG,Bulgaria,country,Europe and Central Asia,42.733883,25.48583,NE,Niger,country,Sub-Saharan Africa,17.607789,8.081666,3245.27196127946,2001,3,0,0,0,0,0,0,0,0,0,0,0,0,3,0,0,0,0,0,0,0,0,0,0
BF,Burkina Faso,country,Sub-Saharan Africa,12.238333,-1.561593,NE,Niger,country,Sub-Saharan Africa,17.607789,8.081666,1196.70110990139,2001,37325,25807,6,1,0,0,0,29,7238,0,1,40,0,435,3729,0,0,0,39,0,0,0,0,0
CM,Cameroon,country,Sub-Saharan Africa,7.369722,12.354722,NE,Niger,country,Sub-Saharan Africa,17.607789,8.081666,1230.41841824464,2001,0,0,0,0,0,0,0,0,0,0,0,0,0,0,0,0,0,0,0,0,0,0,0,0
CA,Canada,country,North America,56.130366,-106.346771,NE,Niger,country,Sub-Saharan Africa,17.607789,8.081666,9817.8828466528,2001,0,0,0,0,0,0,0,0,0,0,0,0,0,0,0,0,0,0,0,0,0,0,0,0
HK,Hong Kong,country,East Asia and Pacific,22.396428,114.109497,NE,Niger,country,Sub-Saharan Africa,17.607789,8.081666,10837.7979429589,2001,100,0,0,0,0,0,0,0,0,100,0,0,0,0,0,0,0,0,0,0,0,0,0,0
CN,China,country,East Asia and Pacific,35.86166,104.195397,NE,Niger,country,Sub-Saharan Africa,17.607789,8.081666,9412.27477538131,2001,41655,39461,0,43,0,0,0,0,0,0,0,0,2143,8,0,0,0,0,0,0,0,0,0,0
CO,Colombia,country,Latin America and the Caribbean,4.570868,-74.297333,NE,Niger,country,Sub-Saharan Africa,17.607789,8.081666,9057.69177692492,2001,0,0,0,0,0,0,0,0,0,0,0,0,0,0,0,0,0,0,0,0,0,0,0,0
CR,Costa Rica,country,Latin America and the Caribbean,9.748917,-83.753428,NE,Niger,country,Sub-Saharan Africa,17.607789,8.081666,9883.90646618685,2001,0,0,0,0,0,0,0,0,0,0,0,0,0,0,0,0,0,0,0,0,0,0,0,0
CI,Ivory Coast,country,Sub-Saharan Africa,7.539989,-5.54708,NE,Niger,country,Sub-Saharan Africa,17.607789,8.081666,1855.18700208386,2001,44018,5063,0,1838,0,1655,159,0,1352,1,0,10,243,2920,29445,1085,0,0,247,0,0,0,0,0
CZ,Czech Republic,country,Europe and Central Asia,49.817492,15.472962,NE,Niger,country,Sub-Saharan Africa,17.607789,8.081666,3646.25884247354,2001,0,0,0,0,0,0,0,0,0,0,0,0,0,0,0,0,0,0,0,0,0,0,0,0
DK,Denmark,country,Europe and Central Asia,56.26392,9.501785,NE,Niger,country,Sub-Saharan Africa,17.607789,8.081666,4304.84072701576,2001,187,100,0,0,0,0,0,0,0,0,0,0,0,1,86,0,0,0,0,0,0,0,0,0
EG,Egypt,country,Middle East and North Africa,26.820553,30.802498,NE,Niger,country,Sub-Saharan Africa,17.607789,8.081666,2550.76215206063,2001,10,3,0,0,0,0,0,0,7,0,0,0,0,0,0,0,0,0,0,0,0,0,0,0
SV,El Salvador,country,Latin America and the Caribbean,13.794185,-88.89653,NE,Niger,country,Sub-Saharan Africa,17.607789,8.081666,10276.0760217625,2001,0,0,0,0,0,0,0,0,0,0,0,0,0,0,0,0,0,0,0,0,0,0,0,0
GQ,Equatorial Guinea,country,Sub-Saharan Africa,1.650801,10.267895,NE,Niger,country,Sub-Saharan Africa,17.607789,8.081666,1792.34279181451,2001,0,0,0,0,0,0,0,0,0,0,0,0,0,0,0,0,0,0,0,0,0,0,0,0
ET,Ethiopia,country,Sub-Saharan Africa,9.145,40.489673,NE,Niger,country,Sub-Saharan Africa,17.607789,8.081666,3627.87862395319,2001,0,0,0,0,0,0,0,0,0,0,0,0,0,0,0,0,0,0,0,0,0,0,0,0
FI,Finland,country,Europe and Central Asia,61.92411,25.748151,NE,Niger,country,Sub-Saharan Africa,17.607789,8.081666,5123.53805427279,2001,14,0,0,0,0,0,0,0,0,0,0,0,0,0,14,0,0,0,0,0,0,0,0,0
FR,France,country,Europe and Central Asia,46.227638,2.213749,NE,Niger,country,Sub-Saharan Africa,17.607789,8.081666,3231.65317649015,2001,58549,32219,40,20939,1,0,54,203,237,1,4,19,22,889,143,1183,2,77,2518,0,0,0,0,0
GM,The Gambia,country,Sub-Saharan Africa,13.443182,-15.310139,NE,Niger,country,Sub-Saharan Africa,17.607789,8.081666,2549.50313389514,2001,0,0,0,0,0,0,0,0,0,0,0,0,0,0,0,0,0,0,0,0,0,0,0,0
GE,Georgia,country,Europe and Central Asia,42.315407,43.356892,NE,Niger,country,Sub-Saharan Africa,17.607789,8.081666,4322.2157686806,2001,223,2,0,18,0,0,0,0,15,0,0,0,0,0,0,66,0,0,122,0,0,0,0,0
GH,Ghana,country,Sub-Saharan Africa,7.946527,-1.023194,NE,Niger,country,Sub-Saharan Africa,17.607789,8.081666,1459.77048842897,2001,3176,1916,3,341,0,650,2,9,42,0,1,145,2,10,36,3,0,0,16,0,0,0,0,0
GR,Greece,country,Europe and Central Asia,39.074208,21.824312,NE,Niger,country,Sub-Saharan Africa,17.607789,8.081666,2735.19434584169,2001,26,22,0,0,0,0,0,0,0,0,0,0,0,4,0,0,0,0,0,0,0,0,0,0
GT,Guatemala,country,Latin America and the Caribbean,15.783471,-90.230759,NE,Niger,country,Sub-Saharan Africa,17.607789,8.081666,10339.8470135155,2001,0,0,0,0,0,0,0,0,0,0,0,0,0,0,0,0,0,0,0,0,0,0,0,0
HT,Haiti,country,Latin America and the Caribbean,18.971187,-72.285215,NE,Niger,country,Sub-Saharan Africa,17.607789,8.081666,8412.55559124524,2001,0,0,0,0,0,0,0,0,0,0,0,0,0,0,0,0,0,0,0,0,0,0,0,0
HU,Hungary,country,Europe and Central Asia,47.162494,19.503304,NE,Niger,country,Sub-Saharan Africa,17.607789,8.081666,3452.34266162352,2001,42,0,0,1,0,0,0,0,0,0,0,0,0,0,0,0,0,0,41,0,0,0,0,0
IN,India,country,South Asia,20.593684,78.96288,NE,Niger,country,Sub-Saharan Africa,17.607789,8.081666,7403.54242611931,2001,1825,1825,0,0,0,0,0,0,0,0,0,0,0,0,0,0,0,0,0,0,0,0,0,0
IR,Iran,country,Middle East and North Africa,32.427908,53.688046,NE,Niger,country,Sub-Saharan Africa,17.607789,8.081666,4845.47494017277,2001,1,0,0,0,0,0,0,0,0,0,0,0,0,0,0,0,0,0,1,0,0,0,0,0
IE,Ireland,country,Europe and Central Asia,53.41291,-8.24389,NE,Niger,country,Sub-Saharan Africa,17.607789,8.081666,4229.16440180947,2001,326,0,0,0,0,0,0,0,0,0,0,0,0,0,0,0,0,0,326,0,0,0,0,0
IL,Israel,country,Middle East and North Africa,31.046051,34.851612,NE,Niger,country,Sub-Saharan Africa,17.607789,8.081666,3087.60334553128,2001,0,0,0,0,0,0,0,0,0,0,0,0,0,0,0,0,0,0,0,0,0,0,0,0
IT,Italy,country,Europe and Central Asia,41.87194,12.56738,NE,Niger,country,Sub-Saharan Africa,17.607789,8.081666,2734.62037093547,2001,1667,110,0,0,0,0,0,948,42,0,0,0,0,471,54,16,0,0,26,0,0,0,0,0
JP,Japan,country,East Asia and Pacific,36.204824,138.252924,NE,Niger,country,Sub-Saharan Africa,17.607789,8.081666,12079.1589883354,2001,1125,812,0,113,0,9,140,8,0,0,0,0,0,43,0,0,0,0,0,0,0,0,0,0
KE,Kenya,country,Sub-Saharan Africa,-0.023559,37.906193,NE,Niger,country,Sub-Saharan Africa,17.607789,8.081666,3810.50250035848,2001,5,0,0,0,0,0,0,0,0,0,0,0,5,0,0,0,0,0,0,0,0,0,0,0
KW,Kuwait,country,Middle East and North Africa,29.31166,47.481766,NE,Niger,country,Sub-Saharan Africa,17.607789,8.081666,4206.12742719111,2001,0,0,0,0,0,0,0,0,0,0,0,0,0,0,0,0,0,0,0,0,0,0,0,0
LA,Lao PDR,country,East Asia and Pacific,19.85627,102.495496,NE,Niger,country,Sub-Saharan Africa,17.607789,8.081666,9803.42251776323,2001,190,190,0,0,0,0,0,0,0,0,0,0,0,0,0,0,0,0,0,0,0,0,0,0
LS,Lesotho,country,Sub-Saharan Africa,-29.609988,28.233608,NE,Niger,country,Sub-Saharan Africa,17.607789,8.081666,5684.15575772922,2001,1,0,0,0,0,0,0,1,0,0,0,0,0,0,0,0,0,0,0,0,0,0,0,0
LY,Libya,country,Middle East and North Africa,26.3351,17.228331,NE,Niger,country,Sub-Saharan Africa,17.607789,8.081666,1353.74473387438,2001,1072,431,0,11,0,0,0,4,325,0,0,0,0,272,29,0,0,0,0,0,0,0,0,0
MG,Madagascar,country,Sub-Saharan Africa,-18.766947,46.869107,NE,Niger,country,Sub-Saharan Africa,17.607789,8.081666,5865.34346242293,2001,0,0,0,0,0,0,0,0,0,0,0,0,0,0,0,0,0,0,0,0,0,0,0,0
MY,Malaysia,country,East Asia and Pacific,4.210484,101.975766,NE,Niger,country,Sub-Saharan Africa,17.607789,8.081666,10288.9260871783,2001,588,0,0,0,0,0,0,0,0,0,0,0,0,0,540,0,0,0,48,0,0,0,0,0
ML,Mali,country,Sub-Saharan Africa,17.570692,-3.996166,NE,Niger,country,Sub-Saharan Africa,17.607789,8.081666,1281.428431896,2001,7316,7094,0,2,0,0,0,0,0,0,58,0,0,2,0,72,0,0,88,0,0,0,0,0
MT,Malta,country,Middle East and North Africa,35.937496,14.375416,NE,Niger,country,Sub-Saharan Africa,17.607789,8.081666,2132.77320937553,2001,13,0,0,0,0,0,0,0,0,0,0,0,0,13,0,0,0,0,0,0,0,0,0,0
MR,Mauritania,country,Sub-Saharan Africa,21.00789,-10.940835,NE,Niger,country,Sub-Saharan Africa,17.607789,8.081666,2032.60932604182,2001,0,0,0,0,0,0,0,0,0,0,0,0,0,0,0,0,0,0,0,0,0,0,0,0
MX,Mexico,country,Latin America and the Caribbean,23.634501,-102.552784,NE,Niger,country,Sub-Saharan Africa,17.607789,8.081666,11214.942087734,2001,1,0,0,0,0,0,0,0,1,0,0,0,0,0,0,0,0,0,0,0,0,0,0,0
MM,Myanmar,country,East Asia and Pacific,21.913965,95.956223,NE,Niger,country,Sub-Saharan Africa,17.607789,8.081666,9086.18680104253,2001,2000,2000,0,0,0,0,0,0,0,0,0,0,0,0,0,0,0,0,0,0,0,0,0,0
NA,Namibia,country,Sub-Saharan Africa,-22.95764,18.49041,NE,Niger,country,Sub-Saharan Africa,17.607789,8.081666,4655.59354994144,2001,0,0,0,0,0,0,0,0,0,0,0,0,0,0,0,0,0,0,0,0,0,0,0,0
NL,Netherlands,country,Europe and Central Asia,52.132633,5.291266,NE,Niger,country,Sub-Saharan Africa,17.607789,8.081666,3851.08799266713,2001,1686,73,0,20,0,0,0,4,0,0,0,0,3,29,28,152,0,0,1377,0,0,0,0,0
NG,Nigeria,country,Sub-Saharan Africa,9.081999,8.675277,NE,Niger,country,Sub-Saharan Africa,17.607789,8.081666,951.257301733266,2001,64625,42081,1158,8564,24,4335,347,272,572,1404,398,4520,153,608,133,15,2,1,40,0,0,0,0,0
NO,Norway,country,Europe and Central Asia,60.472024,8.468946,NE,Niger,country,Sub-Saharan Africa,17.607789,8.081666,4771.72542797059,2001,0,0,0,0,0,0,0,0,0,0,0,0,0,0,0,0,0,0,0,0,0,0,0,0
PK,Pakistan,country,South Asia,30.375321,69.345116,NE,Niger,country,Sub-Saharan Africa,17.607789,8.081666,6317.20569061026,2001,85806,85806,0,0,0,0,0,0,0,0,0,0,0,0,0,0,0,0,0,0,0,0,0,0
PE,Peru,country,Latin America and the Caribbean,-9.189967,-75.015152,NE,Niger,country,Sub-Saharan Africa,17.607789,8.081666,9605.29682542844,2001,19,0,0,19,0,0,0,0,0,0,0,0,0,0,0,0,0,0,0,0,0,0,0,0
PL,Poland,country,Europe and Central Asia,51.919438,19.145136,NE,Niger,country,Sub-Saharan Africa,17.607789,8.081666,3941.47608227049,2001,302,0,0,0,0,0,0,0,0,0,0,0,0,0,0,0,0,0,302,0,0,0,0,0
PT,Portugal,country,Europe and Central Asia,39.399872,-8.224454,NE,Niger,country,Sub-Saharan Africa,17.607789,8.081666,2892.61399446648,2001,1,1,0,0,0,0,0,0,0,0,0,0,0,0,0,0,0,0,0,0,0,0,0,0
RU,Russian Federation,country,Europe and Central Asia,61.52401,105.318756,NE,Niger,country,Sub-Saharan Africa,17.607789,8.081666,8678.09063402607,2001,29,0,0,0,0,0,0,0,0,0,0,0,0,0,0,0,0,0,29,0,0,0,0,0
SA,Saudi Arabia,country,Middle East and North Africa,23.885942,45.079162,NE,Niger,country,Sub-Saharan Africa,17.607789,8.081666,3903.05642180934,2001,127,92,0,1,0,0,0,9,4,0,0,0,2,18,0,1,0,0,0,0,0,0,0,0
SN,Senegal,country,Sub-Saharan Africa,14.497401,-14.452362,NE,Niger,country,Sub-Saharan Africa,17.607789,8.081666,2433.84565204456,2001,40,0,0,0,0,0,40,0,0,0,0,0,0,0,0,0,0,0,0,0,0,0,0,0
SG,Singapore,country,East Asia and Pacific,1.352083,103.819836,NE,Niger,country,Sub-Saharan Africa,17.607789,8.081666,10581.61551382,2001,14,0,0,0,0,0,0,0,0,0,0,0,0,0,0,0,0,0,14,0,0,0,0,0
ZA,S. Africa,country,Sub-Saharan Africa,-30.559482,22.937506,NE,Niger,country,Sub-Saharan Africa,17.607789,8.081666,5593.10345084676,2001,23,0,0,5,0,0,0,0,0,4,0,0,0,14,0,0,0,0,0,0,0,0,0,0
ES,Spain,country,Europe and Central Asia,40.463667,-3.74922,NE,Niger,country,Sub-Saharan Africa,17.607789,8.081666,2786.42387917796,2001,1572,79,0,1,0,0,0,11,121,0,0,0,5,120,0,919,0,0,316,0,0,0,0,0
LK,Sri Lanka,country,South Asia,7.873054,80.771797,NE,Niger,country,Sub-Saharan Africa,17.607789,8.081666,7925.29720993561,2001,2,0,0,0,0,0,0,0,0,0,0,0,2,0,0,0,0,0,0,0,0,0,0,0
SE,Sweden,country,Europe and Central Asia,60.128161,18.643501,NE,Niger,country,Sub-Saharan Africa,17.607789,8.081666,4808.76475607813,2001,15,0,0,0,0,0,0,0,0,0,0,0,0,0,0,0,0,0,15,0,0,0,0,0
CH,Switzerland,country,Europe and Central Asia,46.818188,8.227512,NE,Niger,country,Sub-Saharan Africa,17.607789,8.081666,3251.71436023697,2001,0,0,0,0,0,0,0,0,0,0,0,0,0,0,0,0,0,0,0,0,0,0,0,0
TH,Thailand,country,East Asia and Pacific,15.870032,100.992541,NE,Niger,country,Sub-Saharan Africa,17.607789,8.081666,9788.05806046042,2001,590,588,0,0,0,0,0,0,0,0,0,2,0,0,0,0,0,0,0,0,0,0,0,0
TG,Togo,country,Sub-Saharan Africa,8.619543,0.824782,NE,Niger,country,Sub-Saharan Africa,17.607789,8.081666,1272.24784786373,2001,6815,6016,0,19,0,7,1,0,102,0,1,460,0,0,4,166,0,0,39,0,0,0,0,0
TT,Trinidad and Tobago,country,Latin America and the Caribbean,10.691803,-61.222503,NE,Niger,country,Sub-Saharan Africa,17.607789,8.081666,7483.38496570087,2001,0,0,0,0,0,0,0,0,0,0,0,0,0,0,0,0,0,0,0,0,0,0,0,0
TN,Tunisia,country,Middle East and North Africa,33.886917,9.537499,NE,Niger,country,Sub-Saharan Africa,17.607789,8.081666,1817.98660575561,2001,8181,3834,0,0,0,0,0,0,0,1,0,0,0,4346,0,0,0,0,0,0,0,0,0,0
TR,Turkey,country,Europe and Central Asia,38.963745,35.243322,NE,Niger,country,Sub-Saharan Africa,17.607789,8.081666,3543.41235264415,2001,105,48,0,24,0,0,0,0,0,0,0,0,1,32,0,0,0,0,0,0,0,0,0,0
UG,Uganda,country,Sub-Saharan Africa,1.373333,32.290275,NE,Niger,country,Sub-Saharan Africa,17.607789,8.081666,3205.71345783431,2001,0,0,0,0,0,0,0,0,0,0,0,0,0,0,0,0,0,0,0,0,0,0,0,0
AE,United Arab Emirates,country,Middle East and North Africa,23.424076,53.847818,NE,Niger,country,Sub-Saharan Africa,17.607789,8.081666,4795.99261809536,2001,6,0,0,0,0,0,0,0,0,0,6,0,0,0,0,0,0,0,0,0,0,0,0,0
GB,United Kingdom,country,Europe and Central Asia,55.378051,-3.435973,NE,Niger,country,Sub-Saharan Africa,17.607789,8.081666,4316.8524605343,2001,344,0,0,0,0,0,0,0,0,0,0,0,0,244,0,51,0,0,49,0,0,0,0,0
US,USA,country,North America,37.09024,-95.712891,NE,Niger,country,Sub-Saharan Africa,17.607789,8.081666,10011.4917303107,2001,19323,17319,0,210,0,1,290,78,0,0,0,35,0,202,1178,0,0,0,10,0,0,0,0,0
UY,Uruguay,country,Latin America and the Caribbean,-32.522779,-55.765835,NE,Niger,country,Sub-Saharan Africa,17.607789,8.081666,8789.13369178322,2001,436,436,0,0,0,0,0,0,0,0,0,0,0,0,0,0,0,0,0,0,0,0,0,0
VN,Vietnam,country,East Asia and Pacific,14.058324,108.277199,NE,Niger,country,Sub-Saharan Africa,17.607789,8.081666,10594.7293511354,2001,10233,10233,0,0,0,0,0,0,0,0,0,0,0,0,0,0,0,0,0,0,0,0,0,0
ZM,Zambia,country,Sub-Saharan Africa,-13.133897,27.849332,NE,Niger,country,Sub-Saharan Africa,17.607789,8.081666,4053.2262801908,2001,1,0,0,0,0,0,0,0,1,0,0,0,0,0,0,0,0,0,0,0,0,0,0,0
DZ,Algeria,country,Middle East and North Africa,28.033886,1.659626,NE,Niger,country,Sub-Saharan Africa,17.607789,8.081666,1333.92265391544,2002,16397,316,0,13,0,0,0,2,15612,0,0,0,0,27,3,1,0,0,423,0,0,0,0,0
AR,Argentina,country,Latin America and the Caribbean,-38.416097,-63.616672,NE,Niger,country,Sub-Saharan Africa,17.607789,8.081666,9721.74439348601,2002,497,0,0,0,0,0,0,0,0,0,0,0,0,0,0,0,0,0,497,0,0,0,0,0
BE,Belgium,country,Europe and Central Asia,50.503887,4.469936,NE,Niger,country,Sub-Saharan Africa,17.607789,8.081666,3676.09268033447,2002,2568,698,0,1540,0,0,1,5,2,0,0,0,0,65,1,0,0,8,248,0,0,0,0,0
BJ,Benin,country,Sub-Saharan Africa,9.30769,2.315834,NE,Niger,country,Sub-Saharan Africa,17.607789,8.081666,1114.69626262521,2002,6998,3034,12,1,11,10,0,42,0,0,0,70,0,225,3499,0,0,1,93,0,0,0,0,0
BR,Brazil,country,Latin America and the Caribbean,-14.235004,-51.92528,NE,Niger,country,Sub-Saharan Africa,17.607789,8.081666,7481.05304471793,2002,21549,0,0,21536,0,0,0,0,10,0,0,0,1,0,0,0,0,2,0,0,0,0,0,0
BF,Burkina Faso,country,Sub-Saharan Africa,12.238333,-1.561593,NE,Niger,country,Sub-Saharan Africa,17.607789,8.081666,1196.70110990139,2002,18279,9879,9,0,0,0,0,91,6461,0,5,6,0,148,1546,80,0,0,54,0,0,0,0,0
CM,Cameroon,country,Sub-Saharan Africa,7.369722,12.354722,NE,Niger,country,Sub-Saharan Africa,17.607789,8.081666,1230.41841824464,2002,0,0,0,0,0,0,0,0,0,0,0,0,0,0,0,0,0,0,0,0,0,0,0,0
HK,Hong Kong,country,East Asia and Pacific,22.396428,114.109497,NE,Niger,country,Sub-Saharan Africa,17.607789,8.081666,10837.7979429589,2002,2521,2521,0,0,0,0,0,0,0,0,0,0,0,0,0,0,0,0,0,0,0,0,0,0
CN,China,country,East Asia and Pacific,35.86166,104.195397,NE,Niger,country,Sub-Saharan Africa,17.607789,8.081666,9412.27477538131,2002,79164,76546,0,45,0,0,0,0,2,0,1,0,2531,39,0,0,0,0,0,0,0,0,0,0
TW,Taiwan,country,East Asia and Pacific,23.69781,120.960515,NE,Niger,country,Sub-Saharan Africa,17.607789,8.081666,11418.7681057697,2002,36,36,0,0,0,0,0,0,0,0,0,0,0,0,0,0,0,0,0,0,0,0,0,0
CI,Ivory Coast,country,Sub-Saharan Africa,7.539989,-5.54708,NE,Niger,country,Sub-Saharan Africa,17.607789,8.081666,1855.18700208386,2002,48518,6833,0,599,0,1168,15,26,1300,1,32,0,392,2572,35050,276,0,0,214,0,40,0,0,0
CZ,Czech Republic,country,Europe and Central Asia,49.817492,15.472962,NE,Niger,country,Sub-Saharan Africa,17.607789,8.081666,3646.25884247354,2002,60,0,0,0,0,0,0,0,0,0,0,0,0,0,0,0,0,0,60,0,0,0,0,0
DK,Denmark,country,Europe and Central Asia,56.26392,9.501785,NE,Niger,country,Sub-Saharan Africa,17.607789,8.081666,4304.84072701576,2002,53,13,0,1,0,0,0,0,0,0,0,0,0,19,0,0,0,0,20,0,0,0,0,0
EG,Egypt,country,Middle East and North Africa,26.820553,30.802498,NE,Niger,country,Sub-Saharan Africa,17.607789,8.081666,2550.76215206063,2002,14,0,0,0,0,0,0,0,0,0,0,0,0,14,0,0,0,0,0,0,0,0,0,0
ET,Ethiopia,country,Sub-Saharan Africa,9.145,40.489673,NE,Niger,country,Sub-Saharan Africa,17.607789,8.081666,3627.87862395319,2002,0,0,0,0,0,0,0,0,0,0,0,0,0,0,0,0,0,0,0,0,0,0,0,0
FI,Finland,country,Europe and Central Asia,61.92411,25.748151,NE,Niger,country,Sub-Saharan Africa,17.607789,8.081666,5123.53805427279,2002,28,0,0,0,0,0,0,0,0,0,0,0,0,0,0,0,0,0,28,0,0,0,0,0
FR,France,country,Europe and Central Asia,46.227638,2.213749,NE,Niger,country,Sub-Saharan Africa,17.607789,8.081666,3231.65317649015,2002,40185,26178,20,8949,1,0,43,318,101,0,0,9,18,547,58,335,0,33,3575,0,0,0,0,0
GM,The Gambia,country,Sub-Saharan Africa,13.443182,-15.310139,NE,Niger,country,Sub-Saharan Africa,17.607789,8.081666,2549.50313389514,2002,1,0,0,0,0,0,0,0,1,0,0,0,0,0,0,0,0,0,0,0,0,0,0,0
DE,Germany,country,Europe and Central Asia,51.165691,10.451526,NE,Niger,country,Sub-Saharan Africa,17.607789,8.081666,3741.54276679435,2002,2642,2491,0,0,0,0,0,0,1,3,0,0,1,12,0,57,0,17,60,0,0,0,0,0
GH,Ghana,country,Sub-Saharan Africa,7.946527,-1.023194,NE,Niger,country,Sub-Saharan Africa,17.607789,8.081666,1459.77048842897,2002,32369,31781,3,3,0,377,3,57,3,0,13,8,2,3,11,0,0,0,105,0,0,0,0,0
GR,Greece,country,Europe and Central Asia,39.074208,21.824312,NE,Niger,country,Sub-Saharan Africa,17.607789,8.081666,2735.19434584169,2002,20,0,0,0,0,0,0,0,0,0,0,0,0,20,0,0,0,0,0,0,0,0,0,0
HU,Hungary,country,Europe and Central Asia,47.162494,19.503304,NE,Niger,country,Sub-Saharan Africa,17.607789,8.081666,3452.34266162352,2002,1,0,0,1,0,0,0,0,0,0,0,0,0,0,0,0,0,0,0,0,0,0,0,0
IN,India,country,South Asia,20.593684,78.96288,NE,Niger,country,Sub-Saharan Africa,17.607789,8.081666,7403.54242611931,2002,67657,67657,0,0,0,0,0,0,0,0,0,0,0,0,0,0,0,0,0,0,0,0,0,0
ID,Indonesia,country,East Asia and Pacific,-0.789275,113.921327,NE,Niger,country,Sub-Saharan Africa,17.607789,8.081666,11724.7713149262,2002,19595,19336,0,0,0,0,0,0,0,0,0,0,0,0,259,0,0,0,0,0,0,0,0,0
IR,Iran,country,Middle East and North Africa,32.427908,53.688046,NE,Niger,country,Sub-Saharan Africa,17.607789,8.081666,4845.47494017277,2002,1,0,0,0,0,0,0,0,0,0,0,0,0,0,0,1,0,0,0,0,0,0,0,0
IE,Ireland,country,Europe and Central Asia,53.41291,-8.24389,NE,Niger,country,Sub-Saharan Africa,17.607789,8.081666,4229.16440180947,2002,884,200,0,0,0,0,0,0,0,0,0,0,0,0,0,0,0,0,684,0,0,0,0,0
IL,Israel,country,Middle East and North Africa,31.046051,34.851612,NE,Niger,country,Sub-Saharan Africa,17.607789,8.081666,3087.60334553128,2002,0,0,0,0,0,0,0,0,0,0,0,0,0,0,0,0,0,0,0,0,0,0,0,0
IT,Italy,country,Europe and Central Asia,41.87194,12.56738,NE,Niger,country,Sub-Saharan Africa,17.607789,8.081666,2734.62037093547,2002,4081,2492,0,1,0,0,0,1286,23,0,0,0,0,275,0,2,0,0,2,0,0,0,0,0
JP,Japan,country,East Asia and Pacific,36.204824,138.252924,NE,Niger,country,Sub-Saharan Africa,17.607789,8.081666,12079.1589883354,2002,320,309,0,0,1,0,0,2,0,0,0,0,1,7,0,0,0,0,0,0,0,0,0,0
JO,Jordan,country,Middle East and North Africa,30.585164,36.238414,NE,Niger,country,Sub-Saharan Africa,17.607789,8.081666,3192.08295316659,2002,6,0,0,0,0,0,0,0,0,0,0,0,0,6,0,0,0,0,0,0,0,0,0,0
KE,Kenya,country,Sub-Saharan Africa,-0.023559,37.906193,NE,Niger,country,Sub-Saharan Africa,17.607789,8.081666,3810.50250035848,2002,1,0,0,0,0,0,0,0,0,0,0,0,1,0,0,0,0,0,0,0,0,0,0,0
KW,Kuwait,country,Middle East and North Africa,29.31166,47.481766,NE,Niger,country,Sub-Saharan Africa,17.607789,8.081666,4206.12742719111,2002,4,2,0,1,0,0,0,0,0,0,0,0,0,0,0,0,0,0,1,0,0,0,0,0
LB,Lebanon,country,Middle East and North Africa,33.854721,35.862285,NE,Niger,country,Sub-Saharan Africa,17.607789,8.081666,3303.62976861965,2002,1,0,0,0,0,0,0,0,0,0,0,0,0,1,0,0,0,0,0,0,0,0,0,0
LY,Libya,country,Middle East and North Africa,26.3351,17.228331,NE,Niger,country,Sub-Saharan Africa,17.607789,8.081666,1353.74473387438,2002,452,91,0,0,0,0,0,5,292,0,0,0,0,49,15,0,0,0,0,0,0,0,0,0
MY,Malaysia,country,East Asia and Pacific,4.210484,101.975766,NE,Niger,country,Sub-Saharan Africa,17.607789,8.081666,10288.9260871783,2002,369,0,0,0,0,0,0,0,0,0,0,0,0,0,369,0,0,0,0,0,0,0,0,0
ML,Mali,country,Sub-Saharan Africa,17.570692,-3.996166,NE,Niger,country,Sub-Saharan Africa,17.607789,8.081666,1281.428431896,2002,606,312,0,0,0,0,0,7,11,0,20,0,4,15,1,180,0,1,55,0,0,0,0,0
MA,Morocco,country,Middle East and North Africa,31.791702,-7.09262,NE,Niger,country,Sub-Saharan Africa,17.607789,8.081666,2196.82997423061,2002,988,950,0,0,0,0,0,0,0,0,0,0,19,0,0,19,0,0,0,0,0,0,0,0
NL,Netherlands,country,Europe and Central Asia,52.132633,5.291266,NE,Niger,country,Sub-Saharan Africa,17.607789,8.081666,3851.08799266713,2002,2108,107,0,204,0,0,0,1,0,0,0,0,1,32,45,240,0,3,1475,0,0,0,0,0
NZ,New Zealand,country,East Asia and Pacific,-40.900557,174.885971,NE,Niger,country,Sub-Saharan Africa,17.607789,8.081666,17153.109969113,2002,39,0,0,0,0,0,0,0,0,0,0,0,0,0,0,0,0,0,39,0,0,0,0,0
NG,Nigeria,country,Sub-Saharan Africa,9.081999,8.675277,NE,Niger,country,Sub-Saharan Africa,17.607789,8.081666,951.257301733266,2002,21077,5902,986,5767,17,1879,778,351,844,25,233,3399,62,700,51,6,2,0,77,0,0,0,0,0
NO,Norway,country,Europe and Central Asia,60.472024,8.468946,NE,Niger,country,Sub-Saharan Africa,17.607789,8.081666,4771.72542797059,2002,30,0,0,30,0,0,0,0,0,0,0,0,0,0,0,0,0,0,0,0,0,0,0,0
OM,Oman,country,Middle East and North Africa,21.512583,55.923255,NE,Niger,country,Sub-Saharan Africa,17.607789,8.081666,5018.45438627687,2002,0,0,0,0,0,0,0,0,0,0,0,0,0,0,0,0,0,0,0,0,0,0,0,0
PK,Pakistan,country,South Asia,30.375321,69.345116,NE,Niger,country,Sub-Saharan Africa,17.607789,8.081666,6317.20569061026,2002,19377,19342,0,35,0,0,0,0,0,0,0,0,0,0,0,0,0,0,0,0,0,0,0,0
PL,Poland,country,Europe and Central Asia,51.919438,19.145136,NE,Niger,country,Sub-Saharan Africa,17.607789,8.081666,3941.47608227049,2002,80,0,0,0,0,0,0,0,0,0,0,0,0,0,0,0,0,0,80,0,0,0,0,0
PT,Portugal,country,Europe and Central Asia,39.399872,-8.224454,NE,Niger,country,Sub-Saharan Africa,17.607789,8.081666,2892.61399446648,2002,0,0,0,0,0,0,0,0,0,0,0,0,0,0,0,0,0,0,0,0,0,0,0,0
RO,Romania,country,Europe and Central Asia,45.943161,24.96676,NE,Niger,country,Sub-Saharan Africa,17.607789,8.081666,3519.10748805948,2002,30,0,0,0,0,0,0,0,0,0,0,0,0,30,0,0,0,0,0,0,0,0,0,0
RU,Russian Federation,country,Europe and Central Asia,61.52401,105.318756,NE,Niger,country,Sub-Saharan Africa,17.607789,8.081666,8678.09063402607,2002,32,0,0,0,0,0,0,0,0,0,0,0,0,31,0,0,0,0,1,0,0,0,0,0
SA,Saudi Arabia,country,Middle East and North Africa,23.885942,45.079162,NE,Niger,country,Sub-Saharan Africa,17.607789,8.081666,3903.05642180934,2002,64,3,0,2,0,0,0,0,58,0,0,0,0,1,0,0,0,0,0,0,0,0,0,0
SG,Singapore,country,East Asia and Pacific,1.352083,103.819836,NE,Niger,country,Sub-Saharan Africa,17.607789,8.081666,10581.61551382,2002,109,0,0,0,0,0,0,0,0,0,0,0,0,0,0,0,0,0,109,0,0,0,0,0
ZA,S. Africa,country,Sub-Saharan Africa,-30.559482,22.937506,NE,Niger,country,Sub-Saharan Africa,17.607789,8.081666,5593.10345084676,2002,41,0,0,11,0,0,0,0,0,0,0,0,4,26,0,0,0,0,0,0,0,0,0,0
ES,Spain,country,Europe and Central Asia,40.463667,-3.74922,NE,Niger,country,Sub-Saharan Africa,17.607789,8.081666,2786.42387917796,2002,1050,2,0,0,0,0,1,3,199,0,0,0,0,160,0,685,0,0,0,0,0,0,0,0
LK,Sri Lanka,country,South Asia,7.873054,80.771797,NE,Niger,country,Sub-Saharan Africa,17.607789,8.081666,7925.29720993561,2002,3,0,0,0,0,0,0,0,1,0,0,0,2,0,0,0,0,0,0,0,0,0,0,0
CH,Switzerland,country,Europe and Central Asia,46.818188,8.227512,NE,Niger,country,Sub-Saharan Africa,17.607789,8.081666,3251.71436023697,2002,19,0,0,0,0,0,0,0,0,0,0,0,0,19,0,0,0,0,0,0,0,0,0,0
TH,Thailand,country,East Asia and Pacific,15.870032,100.992541,NE,Niger,country,Sub-Saharan Africa,17.607789,8.081666,9788.05806046042,2002,1052,1051,0,0,0,0,0,0,1,0,0,0,0,0,0,0,0,0,0,0,0,0,0,0
MK,Macedonia,country,Europe and Central Asia,41.608635,21.745275,NE,Niger,country,Sub-Saharan Africa,17.607789,8.081666,2972.24325166846,2002,7,0,0,0,0,0,0,0,0,0,0,0,0,0,0,0,0,0,7,0,0,0,0,0
TG,Togo,country,Sub-Saharan Africa,8.619543,0.824782,NE,Niger,country,Sub-Saharan Africa,17.607789,8.081666,1272.24784786373,2002,8642,6001,1,14,0,12,1,47,23,0,6,87,0,2,2203,175,0,0,70,0,0,0,0,0
TN,Tunisia,country,Middle East and North Africa,33.886917,9.537499,NE,Niger,country,Sub-Saharan Africa,17.607789,8.081666,1817.98660575561,2002,22393,12680,0,0,0,0,0,0,2,0,0,0,0,9711,0,0,0,0,0,0,0,0,0,0
TR,Turkey,country,Europe and Central Asia,38.963745,35.243322,NE,Niger,country,Sub-Saharan Africa,17.607789,8.081666,3543.41235264415,2002,87,0,0,14,0,0,0,0,0,0,0,0,0,73,0,0,0,0,0,0,0,0,0,0
TC,Turks and Caicos Islands,country,Latin America and the Caribbean,21.694025,-71.797928,NE,Niger,country,Sub-Saharan Africa,17.607789,8.081666,8291.96068447999,2002,31,0,0,0,0,0,0,0,0,0,0,0,0,31,0,0,0,0,0,0,0,0,0,0
AE,United Arab Emirates,country,Middle East and North Africa,23.424076,53.847818,NE,Niger,country,Sub-Saharan Africa,17.607789,8.081666,4795.99261809536,2002,25,0,0,0,0,0,0,0,0,0,3,0,22,0,0,0,0,0,0,0,0,0,0,0
GB,United Kingdom,country,Europe and Central Asia,55.378051,-3.435973,NE,Niger,country,Sub-Saharan Africa,17.607789,8.081666,4316.8524605343,2002,369,2,0,0,0,0,0,0,0,0,0,0,1,226,0,0,0,0,140,0,0,0,0,0
US,USA,country,North America,37.09024,-95.712891,NE,Niger,country,Sub-Saharan Africa,17.607789,8.081666,10011.4917303107,2002,24633,20362,0,0,435,0,0,34,0,0,0,0,1,1687,1991,0,0,0,123,0,0,0,0,0
VN,Vietnam,country,East Asia and Pacific,14.058324,108.277199,NE,Niger,country,Sub-Saharan Africa,17.607789,8.081666,10594.7293511354,2002,3389,3389,0,0,0,0,0,0,0,0,0,0,0,0,0,0,0,0,0,0,0,0,0,0
DZ,Algeria,country,Middle East and North Africa,28.033886,1.659626,NE,Niger,country,Sub-Saharan Africa,17.607789,8.081666,1333.92265391544,2003,14994,388,0,10,0,0,0,1,12755,0,0,0,1,727,1,15,0,0,1092,4,0,0,0,0
AR,Argentina,country,Latin America and the Caribbean,-38.416097,-63.616672,NE,Niger,country,Sub-Saharan Africa,17.607789,8.081666,9721.74439348601,2003,1618,0,0,323,0,0,0,0,0,0,0,0,0,0,0,0,0,0,1295,0,0,0,0,0
AU,Australia,country,East Asia and Pacific,-25.274398,133.775136,NE,Niger,country,Sub-Saharan Africa,17.607789,8.081666,14382.5025487694,2003,108,0,0,0,0,0,0,0,0,0,0,0,0,0,0,0,0,0,108,0,0,0,0,0
AT,Austria,country,Europe and Central Asia,47.516231,14.550072,NE,Niger,country,Sub-Saharan Africa,17.607789,8.081666,3381.44377511528,2003,1085,1085,0,0,0,0,0,0,0,0,0,0,0,0,0,0,0,0,0,0,0,0,0,0
BE,Belgium,country,Europe and Central Asia,50.503887,4.469936,NE,Niger,country,Sub-Saharan Africa,17.607789,8.081666,3676.09268033447,2003,2034,34,0,1810,4,0,5,3,0,0,0,0,0,49,0,0,0,76,53,0,0,0,0,0
BJ,Benin,country,Sub-Saharan Africa,9.30769,2.315834,NE,Niger,country,Sub-Saharan Africa,17.607789,8.081666,1114.69626262521,2003,16732,11818,48,36,0,7,0,70,2,352,0,2875,0,182,1262,34,0,0,46,0,0,0,0,0
BR,Brazil,country,Latin America and the Caribbean,-14.235004,-51.92528,NE,Niger,country,Sub-Saharan Africa,17.607789,8.081666,7481.05304471793,2003,58922,7,0,58914,0,0,0,0,0,0,0,0,1,0,0,0,0,0,0,0,0,0,0,0
BF,Burkina Faso,country,Sub-Saharan Africa,12.238333,-1.561593,NE,Niger,country,Sub-Saharan Africa,17.607789,8.081666,1196.70110990139,2003,15638,4688,3,1,0,0,1481,82,7359,0,0,0,5,938,635,434,0,0,12,0,0,0,0,0
BI,Burundi,country,Sub-Saharan Africa,-3.373056,29.918886,NE,Niger,country,Sub-Saharan Africa,17.607789,8.081666,3347.23777020242,2003,1,0,0,0,0,0,1,0,0,0,0,0,0,0,0,0,0,0,0,0,0,0,0,0
CM,Cameroon,country,Sub-Saharan Africa,7.369722,12.354722,NE,Niger,country,Sub-Saharan Africa,17.607789,8.081666,1230.41841824464,2003,0,0,0,0,0,0,0,0,0,0,0,0,0,0,0,0,0,0,0,0,0,0,0,0
CA,Canada,country,North America,56.130366,-106.346771,NE,Niger,country,Sub-Saharan Africa,17.607789,8.081666,9817.8828466528,2003,0,0,0,0,0,0,0,0,0,0,0,0,0,0,0,0,0,0,0,0,0,0,0,0
TD,Chad,country,Sub-Saharan Africa,15.454166,18.732207,NE,Niger,country,Sub-Saharan Africa,17.607789,8.081666,1161.40246252528,2003,0,0,0,0,0,0,0,0,0,0,0,0,0,0,0,0,0,0,0,0,0,0,0,0
CL,Chile,country,Latin America and the Caribbean,-35.675147,-71.542969,NE,Niger,country,Sub-Saharan Africa,17.607789,8.081666,10254.6059862705,2003,1,0,0,0,0,0,0,0,1,0,0,0,0,0,0,0,0,0,0,0,0,0,0,0
CN,China,country,East Asia and Pacific,35.86166,104.195397,NE,Niger,country,Sub-Saharan Africa,17.607789,8.081666,9412.27477538131,2003,81373,76504,0,126,0,0,0,13,5,1,7,0,4690,27,0,0,0,0,0,0,0,0,0,0
CO,Colombia,country,Latin America and the Caribbean,4.570868,-74.297333,NE,Niger,country,Sub-Saharan Africa,17.607789,8.081666,9057.69177692492,2003,1110,0,0,1110,0,0,0,0,0,0,0,0,0,0,0,0,0,0,0,0,0,0,0,0
CI,Ivory Coast,country,Sub-Saharan Africa,7.539989,-5.54708,NE,Niger,country,Sub-Saharan Africa,17.607789,8.081666,1855.18700208386,2003,46081,2706,0,291,0,1180,45,28,1087,1,1,0,210,800,39585,5,0,1,141,0,0,0,0,0
CZ,Czech Republic,country,Europe and Central Asia,49.817492,15.472962,NE,Niger,country,Sub-Saharan Africa,17.607789,8.081666,3646.25884247354,2003,212,0,0,0,0,0,0,0,0,0,0,0,0,32,0,0,0,0,180,0,0,0,0,0
DK,Denmark,country,Europe and Central Asia,56.26392,9.501785,NE,Niger,country,Sub-Saharan Africa,17.607789,8.081666,4304.84072701576,2003,7,7,0,0,0,0,0,0,0,0,0,0,0,0,0,0,0,0,0,0,0,0,0,0
EG,Egypt,country,Middle East and North Africa,26.820553,30.802498,NE,Niger,country,Sub-Saharan Africa,17.607789,8.081666,2550.76215206063,2003,33,3,0,17,0,0,0,0,0,0,0,0,13,0,0,0,0,0,0,0,0,0,0,0
ET,Ethiopia,country,Sub-Saharan Africa,9.145,40.489673,NE,Niger,country,Sub-Saharan Africa,17.607789,8.081666,3627.87862395319,2003,0,0,0,0,0,0,0,0,0,0,0,0,0,0,0,0,0,0,0,0,0,0,0,0
FI,Finland,country,Europe and Central Asia,61.92411,25.748151,NE,Niger,country,Sub-Saharan Africa,17.607789,8.081666,5123.53805427279,2003,22,0,0,0,0,0,0,0,0,0,0,0,0,0,0,0,0,0,22,0,0,0,0,0
FR,France,country,Europe and Central Asia,46.227638,2.213749,NE,Niger,country,Sub-Saharan Africa,17.607789,8.081666,3231.65317649015,2003,32947,18772,10,9751,0,0,109,259,158,2,1,20,41,387,87,879,8,19,2452,0,0,0,0,0
DE,Germany,country,Europe and Central Asia,51.165691,10.451526,NE,Niger,country,Sub-Saharan Africa,17.607789,8.081666,3741.54276679435,2003,1628,1413,0,43,0,0,0,0,2,1,0,0,2,2,0,24,0,0,141,0,0,0,0,0
GH,Ghana,country,Sub-Saharan Africa,7.946527,-1.023194,NE,Niger,country,Sub-Saharan Africa,17.607789,8.081666,1459.77048842897,2003,11598,10272,38,22,7,674,0,10,238,0,3,2,1,10,106,4,5,0,211,0,0,0,0,0
GR,Greece,country,Europe and Central Asia,39.074208,21.824312,NE,Niger,country,Sub-Saharan Africa,17.607789,8.081666,2735.19434584169,2003,17,0,0,0,0,0,0,0,0,0,0,0,0,17,0,0,0,0,0,0,0,0,0,0
HU,Hungary,country,Europe and Central Asia,47.162494,19.503304,NE,Niger,country,Sub-Saharan Africa,17.607789,8.081666,3452.34266162352,2003,120,120,0,0,0,0,0,0,0,0,0,0,0,0,0,0,0,0,0,0,0,0,0,0
IS,Iceland,country,Europe and Central Asia,64.963051,-19.020835,NE,Niger,country,Sub-Saharan Africa,17.607789,8.081666,5645.74274482747,2003,16,0,0,0,0,0,0,0,0,0,0,0,0,0,0,0,0,0,16,0,0,0,0,0
IN,India,country,South Asia,20.593684,78.96288,NE,Niger,country,Sub-Saharan Africa,17.607789,8.081666,7403.54242611931,2003,59943,53493,0,6394,0,0,0,1,0,0,0,0,0,0,0,0,0,0,55,0,0,0,0,0
ID,Indonesia,country,East Asia and Pacific,-0.789275,113.921327,NE,Niger,country,Sub-Saharan Africa,17.607789,8.081666,11724.7713149262,2003,77,55,0,0,0,0,0,0,1,0,0,0,0,21,0,0,0,0,0,0,0,0,0,0
IE,Ireland,country,Europe and Central Asia,53.41291,-8.24389,NE,Niger,country,Sub-Saharan Africa,17.607789,8.081666,4229.16440180947,2003,107,0,0,0,0,0,0,0,0,0,0,0,0,0,0,0,0,0,107,0,0,0,0,0
IL,Israel,country,Middle East and North Africa,31.046051,34.851612,NE,Niger,country,Sub-Saharan Africa,17.607789,8.081666,3087.60334553128,2003,0,0,0,0,0,0,0,0,0,0,0,0,0,0,0,0,0,0,0,0,0,0,0,0
IT,Italy,country,Europe and Central Asia,41.87194,12.56738,NE,Niger,country,Sub-Saharan Africa,17.607789,8.081666,2734.62037093547,2003,1313,134,0,0,0,0,0,980,39,0,0,0,0,156,0,3,0,0,1,0,0,0,0,0
JM,Jamaica,country,Latin America and the Caribbean,18.109581,-77.297508,NE,Niger,country,Sub-Saharan Africa,17.607789,8.081666,8948.52188936868,2003,0,0,0,0,0,0,0,0,0,0,0,0,0,0,0,0,0,0,0,0,0,0,0,0
JP,Japan,country,East Asia and Pacific,36.204824,138.252924,NE,Niger,country,Sub-Saharan Africa,17.607789,8.081666,12079.1589883354,2003,741,571,0,5,0,0,0,0,0,0,0,30,2,0,133,0,0,0,0,0,0,0,0,0
KE,Kenya,country,Sub-Saharan Africa,-0.023559,37.906193,NE,Niger,country,Sub-Saharan Africa,17.607789,8.081666,3810.50250035848,2003,2,0,0,0,0,0,0,0,0,0,0,0,2,0,0,0,0,0,0,0,0,0,0,0
LB,Lebanon,country,Middle East and North Africa,33.854721,35.862285,NE,Niger,country,Sub-Saharan Africa,17.607789,8.081666,3303.62976861965,2003,0,0,0,0,0,0,0,0,0,0,0,0,0,0,0,0,0,0,0,0,0,0,0,0
LY,Libya,country,Middle East and North Africa,26.3351,17.228331,NE,Niger,country,Sub-Saharan Africa,17.607789,8.081666,1353.74473387438,2003,384,74,5,0,0,0,0,6,256,0,0,0,0,38,4,1,0,0,0,0,0,0,0,0
MY,Malaysia,country,East Asia and Pacific,4.210484,101.975766,NE,Niger,country,Sub-Saharan Africa,17.607789,8.081666,10288.9260871783,2003,4462,80,0,0,0,0,0,0,0,0,0,0,0,0,4334,0,0,0,48,0,0,0,0,0
ML,Mali,country,Sub-Saharan Africa,17.570692,-3.996166,NE,Niger,country,Sub-Saharan Africa,17.607789,8.081666,1281.428431896,2003,277,0,0,2,0,0,0,0,65,0,11,0,3,21,0,175,0,0,0,0,0,0,0,0
MT,Malta,country,Middle East and North Africa,35.937496,14.375416,NE,Niger,country,Sub-Saharan Africa,17.607789,8.081666,2132.77320937553,2003,7,0,0,0,0,0,0,0,0,0,0,0,0,7,0,0,0,0,0,0,0,0,0,0
MR,Mauritania,country,Sub-Saharan Africa,21.00789,-10.940835,NE,Niger,country,Sub-Saharan Africa,17.607789,8.081666,2032.60932604182,2003,8,0,0,0,0,0,0,0,0,0,0,8,0,0,0,0,0,0,0,0,0,0,0,0
MS,Montserrat,country,Latin America and the Caribbean,16.7425,-62.1874,NE,Niger,country,Sub-Saharan Africa,17.607789,8.081666,7426.80438578367,2003,222,222,0,0,0,0,0,0,0,0,0,0,0,0,0,0,0,0,0,0,0,0,0,0
MA,Morocco,country,Middle East and North Africa,31.791702,-7.09262,NE,Niger,country,Sub-Saharan Africa,17.607789,8.081666,2196.82997423061,2003,5671,5664,0,0,0,0,3,0,0,0,0,0,4,0,0,0,0,0,0,0,0,0,0,0
MZ,Mozambique,country,Sub-Saharan Africa,-18.665695,35.529562,NE,Niger,country,Sub-Saharan Africa,17.607789,8.081666,5032.39772554201,2003,185,185,0,0,0,0,0,0,0,0,0,0,0,0,0,0,0,0,0,0,0,0,0,0
MM,Myanmar,country,East Asia and Pacific,21.913965,95.956223,NE,Niger,country,Sub-Saharan Africa,17.607789,8.081666,9086.18680104253,2003,2473,2473,0,0,0,0,0,0,0,0,0,0,0,0,0,0,0,0,0,0,0,0,0,0
NL,Netherlands,country,Europe and Central Asia,52.132633,5.291266,NE,Niger,country,Sub-Saharan Africa,17.607789,8.081666,3851.08799266713,2003,1261,36,0,0,0,0,0,2,0,0,0,0,1,0,46,729,0,0,447,0,0,0,0,0
NZ,New Zealand,country,East Asia and Pacific,-40.900557,174.885971,NE,Niger,country,Sub-Saharan Africa,17.607789,8.081666,17153.109969113,2003,501,0,0,0,0,0,0,0,0,0,0,0,0,0,0,0,0,0,501,0,0,0,0,0
NG,Nigeria,country,Sub-Saharan Africa,9.081999,8.675277,NE,Niger,country,Sub-Saharan Africa,17.607789,8.081666,951.257301733266,2003,25116,7343,1162,2485,3,1697,463,439,350,1,274,9963,155,594,93,53,15,0,41,0,0,0,0,0
PK,Pakistan,country,South Asia,30.375321,69.345116,NE,Niger,country,Sub-Saharan Africa,17.607789,8.081666,6317.20569061026,2003,11,0,0,11,0,0,0,0,0,0,0,0,0,0,0,0,0,0,0,0,0,0,0,0
PL,Poland,country,Europe and Central Asia,51.919438,19.145136,NE,Niger,country,Sub-Saharan Africa,17.607789,8.081666,3941.47608227049,2003,44,0,0,0,0,0,0,0,0,0,0,0,0,0,0,0,0,0,44,0,0,0,0,0
PT,Portugal,country,Europe and Central Asia,39.399872,-8.224454,NE,Niger,country,Sub-Saharan Africa,17.607789,8.081666,2892.61399446648,2003,1,1,0,0,0,0,0,0,0,0,0,0,0,0,0,0,0,0,0,0,0,0,0,0
RO,Romania,country,Europe and Central Asia,45.943161,24.96676,NE,Niger,country,Sub-Saharan Africa,17.607789,8.081666,3519.10748805948,2003,35,0,0,0,0,0,0,0,0,0,0,0,0,35,0,0,0,0,0,0,0,0,0,0
SA,Saudi Arabia,country,Middle East and North Africa,23.885942,45.079162,NE,Niger,country,Sub-Saharan Africa,17.607789,8.081666,3903.05642180934,2003,26,3,0,7,0,0,0,4,8,0,0,0,2,0,0,2,0,0,0,0,0,0,0,0
SN,Senegal,country,Sub-Saharan Africa,14.497401,-14.452362,NE,Niger,country,Sub-Saharan Africa,17.607789,8.081666,2433.84565204456,2003,594,0,0,0,0,0,0,0,0,0,0,0,9,585,0,0,0,0,0,0,0,0,0,0
RS,Serbia,country,Europe and Central Asia,44.016521,21.005859,NE,Niger,country,Sub-Saharan Africa,17.607789,8.081666,3179.78511348835,2003,42,0,0,0,0,0,0,0,0,0,0,0,0,1,1,0,0,0,40,0,0,0,0,0
SL,Sierra Leone,country,Sub-Saharan Africa,8.460555,-11.779889,NE,Niger,country,Sub-Saharan Africa,17.607789,8.081666,2379.65872467891,2003,180,180,0,0,0,0,0,0,0,0,0,0,0,0,0,0,0,0,0,0,0,0,0,0
SG,Singapore,country,East Asia and Pacific,1.352083,103.819836,NE,Niger,country,Sub-Saharan Africa,17.607789,8.081666,10581.61551382,2003,199,0,0,0,0,0,0,0,0,0,0,0,0,0,0,0,0,0,199,0,0,0,0,0
ZA,S. Africa,country,Sub-Saharan Africa,-30.559482,22.937506,NE,Niger,country,Sub-Saharan Africa,17.607789,8.081666,5593.10345084676,2003,111,0,0,1,0,0,0,0,1,0,0,0,10,81,0,18,0,0,0,0,0,0,0,0
ES,Spain,country,Europe and Central Asia,40.463667,-3.74922,NE,Niger,country,Sub-Saharan Africa,17.607789,8.081666,2786.42387917796,2003,650,1,0,0,0,0,4,2,217,0,0,0,0,91,0,334,0,0,1,0,0,0,0,0
LK,Sri Lanka,country,South Asia,7.873054,80.771797,NE,Niger,country,Sub-Saharan Africa,17.607789,8.081666,7925.29720993561,2003,3,0,0,0,0,0,0,0,0,0,0,0,3,0,0,0,0,0,0,0,0,0,0,0
SE,Sweden,country,Europe and Central Asia,60.128161,18.643501,NE,Niger,country,Sub-Saharan Africa,17.607789,8.081666,4808.76475607813,2003,0,0,0,0,0,0,0,0,0,0,0,0,0,0,0,0,0,0,0,0,0,0,0,0
CH,Switzerland,country,Europe and Central Asia,46.818188,8.227512,NE,Niger,country,Sub-Saharan Africa,17.607789,8.081666,3251.71436023697,2003,7,0,0,0,0,0,0,0,0,0,0,0,2,5,0,0,0,0,0,0,0,0,0,0
TH,Thailand,country,East Asia and Pacific,15.870032,100.992541,NE,Niger,country,Sub-Saharan Africa,17.607789,8.081666,9788.05806046042,2003,8886,8886,0,0,0,0,0,0,0,0,0,0,0,0,0,0,0,0,0,0,0,0,0,0
TG,Togo,country,Sub-Saharan Africa,8.619543,0.824782,NE,Niger,country,Sub-Saharan Africa,17.607789,8.081666,1272.24784786373,2003,11379,3371,6,93,10,9,0,19,99,0,1,608,7,14,6712,320,0,0,110,0,0,0,0,0
TN,Tunisia,country,Middle East and North Africa,33.886917,9.537499,NE,Niger,country,Sub-Saharan Africa,17.607789,8.081666,1817.98660575561,2003,18477,13566,0,0,0,0,0,0,1,0,0,0,0,4910,0,0,0,0,0,0,0,0,0,0
TR,Turkey,country,Europe and Central Asia,38.963745,35.243322,NE,Niger,country,Sub-Saharan Africa,17.607789,8.081666,3543.41235264415,2003,109,0,0,0,0,0,0,0,0,0,0,0,0,109,0,0,0,0,0,0,0,0,0,0
UG,Uganda,country,Sub-Saharan Africa,1.373333,32.290275,NE,Niger,country,Sub-Saharan Africa,17.607789,8.081666,3205.71345783431,2003,0,0,0,0,0,0,0,0,0,0,0,0,0,0,0,0,0,0,0,0,0,0,0,0
AE,United Arab Emirates,country,Middle East and North Africa,23.424076,53.847818,NE,Niger,country,Sub-Saharan Africa,17.607789,8.081666,4795.99261809536,2003,48,0,0,3,0,0,0,0,25,0,2,0,9,7,0,0,0,0,2,0,0,0,0,0
GB,United Kingdom,country,Europe and Central Asia,55.378051,-3.435973,NE,Niger,country,Sub-Saharan Africa,17.607789,8.081666,4316.8524605343,2003,708,0,0,1,0,0,0,0,0,0,0,0,0,549,0,54,0,0,104,0,0,0,0,0
US,USA,country,North America,37.09024,-95.712891,NE,Niger,country,Sub-Saharan Africa,17.607789,8.081666,10011.4917303107,2003,15841,12727,0,1978,225,0,0,7,0,0,0,0,0,721,183,0,0,0,0,0,0,0,0,0
UY,Uruguay,country,Latin America and the Caribbean,-32.522779,-55.765835,NE,Niger,country,Sub-Saharan Africa,17.607789,8.081666,8789.13369178322,2003,0,0,0,0,0,0,0,0,0,0,0,0,0,0,0,0,0,0,0,0,0,0,0,0
VN,Vietnam,country,East Asia and Pacific,14.058324,108.277199,NE,Niger,country,Sub-Saharan Africa,17.607789,8.081666,10594.7293511354,2003,3410,3410,0,0,0,0,0,0,0,0,0,0,0,0,0,0,0,0,0,0,0,0,0,0
AF,Afghanistan,country,South Asia,33.93911,67.709953,NE,Niger,country,Sub-Saharan Africa,17.607789,8.081666,6160.4251604448,2004,1,1,0,0,0,0,0,0,0,0,0,0,0,0,0,0,0,0,0,0,0,0,0,0
DZ,Algeria,country,Middle East and North Africa,28.033886,1.659626,NE,Niger,country,Sub-Saharan Africa,17.607789,8.081666,1333.92265391544,2004,10391,789,0,5,2,0,0,0,8756,0,0,0,1,376,1,17,0,0,442,2,0,0,0,0
AR,Argentina,country,Latin America and the Caribbean,-38.416097,-63.616672,NE,Niger,country,Sub-Saharan Africa,17.607789,8.081666,9721.74439348601,2004,2526,2,0,0,0,0,0,0,0,0,0,0,0,0,0,0,0,0,2524,0,0,0,0,0
AU,Australia,country,East Asia and Pacific,-25.274398,133.775136,NE,Niger,country,Sub-Saharan Africa,17.607789,8.081666,14382.5025487694,2004,0,0,0,0,0,0,0,0,0,0,0,0,0,0,0,0,0,0,0,0,0,0,0,0
BD,Bangladesh,country,South Asia,23.684994,90.356331,NE,Niger,country,Sub-Saharan Africa,17.607789,8.081666,8480.46228650362,2004,97,80,0,0,0,0,0,0,4,0,0,0,0,2,0,11,0,0,0,0,0,0,0,0
BE,Belgium,country,Europe and Central Asia,50.503887,4.469936,NE,Niger,country,Sub-Saharan Africa,17.607789,8.081666,3676.09268033447,2004,308,85,0,0,0,0,9,1,0,0,0,0,0,28,0,0,0,65,120,0,0,0,0,0
BJ,Benin,country,Sub-Saharan Africa,9.30769,2.315834,NE,Niger,country,Sub-Saharan Africa,17.607789,8.081666,1114.69626262521,2004,7040,5212,0,857,0,4,0,11,5,0,0,40,66,334,387,71,0,5,48,0,0,0,0,0
BR,Brazil,country,Latin America and the Caribbean,-14.235004,-51.92528,NE,Niger,country,Sub-Saharan Africa,17.607789,8.081666,7481.05304471793,2004,61874,1680,0,60097,0,0,0,0,0,0,0,0,9,0,0,0,0,0,88,0,0,0,0,0
BF,Burkina Faso,country,Sub-Saharan Africa,12.238333,-1.561593,NE,Niger,country,Sub-Saharan Africa,17.607789,8.081666,1196.70110990139,2004,84374,74226,2,6,0,23,410,24,8105,0,0,155,2,913,96,403,43,0,9,0,0,0,0,0
BI,Burundi,country,Sub-Saharan Africa,-3.373056,29.918886,NE,Niger,country,Sub-Saharan Africa,17.607789,8.081666,3347.23777020242,2004,0,0,0,0,0,0,0,0,0,0,0,0,0,0,0,0,0,0,0,0,0,0,0,0
CM,Cameroon,country,Sub-Saharan Africa,7.369722,12.354722,NE,Niger,country,Sub-Saharan Africa,17.607789,8.081666,1230.41841824464,2004,0,0,0,0,0,0,0,0,0,0,0,0,0,0,0,0,0,0,0,0,0,0,0,0
CL,Chile,country,Latin America and the Caribbean,-35.675147,-71.542969,NE,Niger,country,Sub-Saharan Africa,17.607789,8.081666,10254.6059862705,2004,0,0,0,0,0,0,0,0,0,0,0,0,0,0,0,0,0,0,0,0,0,0,0,0
CN,China,country,East Asia and Pacific,35.86166,104.195397,NE,Niger,country,Sub-Saharan Africa,17.607789,8.081666,9412.27477538131,2004,10992,5033,0,63,0,0,0,77,6,0,12,0,5792,5,0,3,0,1,0,0,0,0,0,0
CO,Colombia,country,Latin America and the Caribbean,4.570868,-74.297333,NE,Niger,country,Sub-Saharan Africa,17.607789,8.081666,9057.69177692492,2004,370,0,0,370,0,0,0,0,0,0,0,0,0,0,0,0,0,0,0,0,0,0,0,0
CR,Costa Rica,country,Latin America and the Caribbean,9.748917,-83.753428,NE,Niger,country,Sub-Saharan Africa,17.607789,8.081666,9883.90646618685,2004,0,0,0,0,0,0,0,0,0,0,0,0,0,0,0,0,0,0,0,0,0,0,0,0
CI,Ivory Coast,country,Sub-Saharan Africa,7.539989,-5.54708,NE,Niger,country,Sub-Saharan Africa,17.607789,8.081666,1855.18700208386,2004,32680,3778,0,213,0,889,63,0,692,0,1,0,184,423,26308,103,0,1,25,0,0,0,0,0
CU,Cuba,country,Latin America and the Caribbean,21.521757,-77.781167,NE,Niger,country,Sub-Saharan Africa,17.607789,8.081666,8897.16989205863,2004,0,0,0,0,0,0,0,0,0,0,0,0,0,0,0,0,0,0,0,0,0,0,0,0
CY,Cyprus,country,Europe and Central Asia,35.126413,33.429859,NE,Niger,country,Sub-Saharan Africa,17.607789,8.081666,3175.97821965513,2004,0,0,0,0,0,0,0,0,0,0,0,0,0,0,0,0,0,0,0,0,0,0,0,0
CZ,Czech Republic,country,Europe and Central Asia,49.817492,15.472962,NE,Niger,country,Sub-Saharan Africa,17.607789,8.081666,3646.25884247354,2004,59,0,0,0,0,0,0,0,0,0,0,0,0,9,0,0,0,0,50,0,0,0,0,0
DK,Denmark,country,Europe and Central Asia,56.26392,9.501785,NE,Niger,country,Sub-Saharan Africa,17.607789,8.081666,4304.84072701576,2004,208,7,0,1,0,0,0,0,0,0,0,0,0,0,200,0,0,0,0,0,0,0,0,0
EC,Ecuador,country,Latin America and the Caribbean,-1.831239,-78.183406,NE,Niger,country,Sub-Saharan Africa,17.607789,8.081666,9684.44751317261,2004,31,0,0,31,0,0,0,0,0,0,0,0,0,0,0,0,0,0,0,0,0,0,0,0
EG,Egypt,country,Middle East and North Africa,26.820553,30.802498,NE,Niger,country,Sub-Saharan Africa,17.607789,8.081666,2550.76215206063,2004,176,51,0,45,0,0,0,0,11,0,0,0,69,0,0,0,0,0,0,0,0,0,0,0
ET,Ethiopia,country,Sub-Saharan Africa,9.145,40.489673,NE,Niger,country,Sub-Saharan Africa,17.607789,8.081666,3627.87862395319,2004,0,0,0,0,0,0,0,0,0,0,0,0,0,0,0,0,0,0,0,0,0,0,0,0
FR,France,country,Europe and Central Asia,46.227638,2.213749,NE,Niger,country,Sub-Saharan Africa,17.607789,8.081666,3231.65317649015,2004,37064,25439,3,8230,0,0,95,260,167,0,2,17,26,371,680,496,4,34,1244,0,0,0,0,0
DE,Germany,country,Europe and Central Asia,51.165691,10.451526,NE,Niger,country,Sub-Saharan Africa,17.607789,8.081666,3741.54276679435,2004,1589,1483,0,4,0,0,0,57,2,0,0,0,1,0,38,4,0,0,0,0,0,0,0,0
GH,Ghana,country,Sub-Saharan Africa,7.946527,-1.023194,NE,Niger,country,Sub-Saharan Africa,17.607789,8.081666,1459.77048842897,2004,2228,622,16,118,7,1170,0,22,50,0,4,0,0,36,80,2,0,0,101,0,0,0,0,0
GR,Greece,country,Europe and Central Asia,39.074208,21.824312,NE,Niger,country,Sub-Saharan Africa,17.607789,8.081666,2735.19434584169,2004,0,0,0,0,0,0,0,0,0,0,0,0,0,0,0,0,0,0,0,0,0,0,0,0
GW,Guinea-Bissau,country,Sub-Saharan Africa,11.803749,-15.180413,NE,Niger,country,Sub-Saharan Africa,17.607789,8.081666,2584.34006820964,2004,0,0,0,0,0,0,0,0,0,0,0,0,0,0,0,0,0,0,0,0,0,0,0,0
HU,Hungary,country,Europe and Central Asia,47.162494,19.503304,NE,Niger,country,Sub-Saharan Africa,17.607789,8.081666,3452.34266162352,2004,0,0,0,0,0,0,0,0,0,0,0,0,0,0,0,0,0,0,0,0,0,0,0,0
IN,India,country,South Asia,20.593684,78.96288,NE,Niger,country,Sub-Saharan Africa,17.607789,8.081666,7403.54242611931,2004,18420,17918,0,502,0,0,0,0,0,0,0,0,0,0,0,0,0,0,0,0,0,0,0,0
ID,Indonesia,country,East Asia and Pacific,-0.789275,113.921327,NE,Niger,country,Sub-Saharan Africa,17.607789,8.081666,11724.7713149262,2004,17,0,0,0,0,0,0,0,3,0,0,0,0,0,0,0,0,0,14,0,0,0,0,0
IR,Iran,country,Middle East and North Africa,32.427908,53.688046,NE,Niger,country,Sub-Saharan Africa,17.607789,8.081666,4845.47494017277,2004,1,0,0,0,0,0,0,0,0,0,0,0,0,1,0,0,0,0,0,0,0,0,0,0
IE,Ireland,country,Europe and Central Asia,53.41291,-8.24389,NE,Niger,country,Sub-Saharan Africa,17.607789,8.081666,4229.16440180947,2004,138,0,0,0,0,0,0,0,0,0,0,0,0,0,0,0,0,0,138,0,0,0,0,0
IT,Italy,country,Europe and Central Asia,41.87194,12.56738,NE,Niger,country,Sub-Saharan Africa,17.607789,8.081666,2734.62037093547,2004,1891,592,0,52,0,0,0,1035,32,0,0,0,0,176,0,2,0,0,2,0,0,0,0,0
JM,Jamaica,country,Latin America and the Caribbean,18.109581,-77.297508,NE,Niger,country,Sub-Saharan Africa,17.607789,8.081666,8948.52188936868,2004,0,0,0,0,0,0,0,0,0,0,0,0,0,0,0,0,0,0,0,0,0,0,0,0
JP,Japan,country,East Asia and Pacific,36.204824,138.252924,NE,Niger,country,Sub-Saharan Africa,17.607789,8.081666,12079.1589883354,2004,0,0,0,0,0,0,0,0,0,0,0,0,0,0,0,0,0,0,0,0,0,0,0,0
JO,Jordan,country,Middle East and North Africa,30.585164,36.238414,NE,Niger,country,Sub-Saharan Africa,17.607789,8.081666,3192.08295316659,2004,0,0,0,0,0,0,0,0,0,0,0,0,0,0,0,0,0,0,0,0,0,0,0,0
KE,Kenya,country,Sub-Saharan Africa,-0.023559,37.906193,NE,Niger,country,Sub-Saharan Africa,17.607789,8.081666,3810.50250035848,2004,2,0,0,0,0,0,0,0,0,0,0,0,2,0,0,0,0,0,0,0,0,0,0,0
KW,Kuwait,country,Middle East and North Africa,29.31166,47.481766,NE,Niger,country,Sub-Saharan Africa,17.607789,8.081666,4206.12742719111,2004,0,0,0,0,0,0,0,0,0,0,0,0,0,0,0,0,0,0,0,0,0,0,0,0
LB,Lebanon,country,Middle East and North Africa,33.854721,35.862285,NE,Niger,country,Sub-Saharan Africa,17.607789,8.081666,3303.62976861965,2004,37,1,0,0,3,0,0,2,19,0,2,0,0,3,2,5,0,0,0,0,0,0,0,0
LR,Liberia,country,Sub-Saharan Africa,6.428055,-9.429499,NE,Niger,country,Sub-Saharan Africa,17.607789,8.081666,2273.67971392466,2004,175,175,0,0,0,0,0,0,0,0,0,0,0,0,0,0,0,0,0,0,0,0,0,0
LY,Libya,country,Middle East and North Africa,26.3351,17.228331,NE,Niger,country,Sub-Saharan Africa,17.607789,8.081666,1353.74473387438,2004,302,71,0,1,0,0,0,0,164,0,0,0,0,63,3,0,0,0,0,0,0,0,0,0
MG,Madagascar,country,Sub-Saharan Africa,-18.766947,46.869107,NE,Niger,country,Sub-Saharan Africa,17.607789,8.081666,5865.34346242293,2004,0,0,0,0,0,0,0,0,0,0,0,0,0,0,0,0,0,0,0,0,0,0,0,0
MY,Malaysia,country,East Asia and Pacific,4.210484,101.975766,NE,Niger,country,Sub-Saharan Africa,17.607789,8.081666,10288.9260871783,2004,3579,175,0,0,0,0,0,0,0,0,0,0,0,0,3302,0,0,0,102,0,0,0,0,0
ML,Mali,country,Sub-Saharan Africa,17.570692,-3.996166,NE,Niger,country,Sub-Saharan Africa,17.607789,8.081666,1281.428431896,2004,3151,3027,0,0,0,0,0,0,21,0,3,0,0,64,0,36,0,0,0,0,0,0,0,0
MT,Malta,country,Middle East and North Africa,35.937496,14.375416,NE,Niger,country,Sub-Saharan Africa,17.607789,8.081666,2132.77320937553,2004,40,0,0,0,0,0,0,0,0,0,0,0,0,40,0,0,0,0,0,0,0,0,0,0
MR,Mauritania,country,Sub-Saharan Africa,21.00789,-10.940835,NE,Niger,country,Sub-Saharan Africa,17.607789,8.081666,2032.60932604182,2004,0,0,0,0,0,0,0,0,0,0,0,0,0,0,0,0,0,0,0,0,0,0,0,0
MX,Mexico,country,Latin America and the Caribbean,23.634501,-102.552784,NE,Niger,country,Sub-Saharan Africa,17.607789,8.081666,11214.942087734,2004,0,0,0,0,0,0,0,0,0,0,0,0,0,0,0,0,0,0,0,0,0,0,0,0
MS,Montserrat,country,Latin America and the Caribbean,16.7425,-62.1874,NE,Niger,country,Sub-Saharan Africa,17.607789,8.081666,7426.80438578367,2004,21,21,0,0,0,0,0,0,0,0,0,0,0,0,0,0,0,0,0,0,0,0,0,0
MA,Morocco,country,Middle East and North Africa,31.791702,-7.09262,NE,Niger,country,Sub-Saharan Africa,17.607789,8.081666,2196.82997423061,2004,4214,4183,0,0,0,0,2,0,0,0,0,0,0,0,12,0,0,0,17,0,0,0,0,0
NL,Netherlands,country,Europe and Central Asia,52.132633,5.291266,NE,Niger,country,Sub-Saharan Africa,17.607789,8.081666,3851.08799266713,2004,602,102,0,0,0,0,0,1,0,0,0,0,1,0,64,272,0,0,162,0,0,0,0,0
NZ,New Zealand,country,East Asia and Pacific,-40.900557,174.885971,NE,Niger,country,Sub-Saharan Africa,17.607789,8.081666,17153.109969113,2004,1557,0,0,0,0,0,0,0,0,0,0,0,0,0,0,0,0,0,1557,0,0,0,0,0
NG,Nigeria,country,Sub-Saharan Africa,9.081999,8.675277,NE,Niger,country,Sub-Saharan Africa,17.607789,8.081666,951.257301733266,2004,28992,10177,1658,1231,78,1532,1062,508,1082,1,409,7677,42,689,2770,35,13,0,41,0,0,0,0,0
NO,Norway,country,Europe and Central Asia,60.472024,8.468946,NE,Niger,country,Sub-Saharan Africa,17.607789,8.081666,4771.72542797059,2004,2,2,0,0,0,0,0,0,0,0,0,0,0,0,0,0,0,0,0,0,0,0,0,0
PK,Pakistan,country,South Asia,30.375321,69.345116,NE,Niger,country,Sub-Saharan Africa,17.607789,8.081666,6317.20569061026,2004,842,836,0,6,0,0,0,0,0,0,0,0,0,0,0,0,0,0,0,0,0,0,0,0
PE,Peru,country,Latin America and the Caribbean,-9.189967,-75.015152,NE,Niger,country,Sub-Saharan Africa,17.607789,8.081666,9605.29682542844,2004,0,0,0,0,0,0,0,0,0,0,0,0,0,0,0,0,0,0,0,0,0,0,0,0
PT,Portugal,country,Europe and Central Asia,39.399872,-8.224454,NE,Niger,country,Sub-Saharan Africa,17.607789,8.081666,2892.61399446648,2004,7,6,0,0,0,0,0,0,0,0,0,0,0,0,0,1,0,0,0,0,0,0,0,0
RU,Russian Federation,country,Europe and Central Asia,61.52401,105.318756,NE,Niger,country,Sub-Saharan Africa,17.607789,8.081666,8678.09063402607,2004,220,220,0,0,0,0,0,0,0,0,0,0,0,0,0,0,0,0,0,0,0,0,0,0
SA,Saudi Arabia,country,Middle East and North Africa,23.885942,45.079162,NE,Niger,country,Sub-Saharan Africa,17.607789,8.081666,3903.05642180934,2004,201,14,0,2,0,0,0,43,128,0,0,0,2,6,2,4,0,0,0,0,0,0,0,0
SN,Senegal,country,Sub-Saharan Africa,14.497401,-14.452362,NE,Niger,country,Sub-Saharan Africa,17.607789,8.081666,2433.84565204456,2004,909,0,0,0,0,0,0,0,0,0,0,0,0,909,0,0,0,0,0,0,0,0,0,0
SG,Singapore,country,East Asia and Pacific,1.352083,103.819836,NE,Niger,country,Sub-Saharan Africa,17.607789,8.081666,10581.61551382,2004,687,421,0,1,0,0,0,0,0,0,0,0,0,0,19,0,0,0,246,0,0,0,0,0
ZA,S. Africa,country,Sub-Saharan Africa,-30.559482,22.937506,NE,Niger,country,Sub-Saharan Africa,17.607789,8.081666,5593.10345084676,2004,187,0,0,0,0,0,0,0,46,0,0,0,0,100,0,41,0,0,0,0,0,0,0,0
ES,Spain,country,Europe and Central Asia,40.463667,-3.74922,NE,Niger,country,Sub-Saharan Africa,17.607789,8.081666,2786.42387917796,2004,984,2,0,1,0,0,3,0,254,0,0,0,1,178,2,542,0,0,1,0,0,0,0,0
LK,Sri Lanka,country,South Asia,7.873054,80.771797,NE,Niger,country,Sub-Saharan Africa,17.607789,8.081666,7925.29720993561,2004,9,0,0,0,0,0,0,0,0,0,0,0,9,0,0,0,0,0,0,0,0,0,0,0
SE,Sweden,country,Europe and Central Asia,60.128161,18.643501,NE,Niger,country,Sub-Saharan Africa,17.607789,8.081666,4808.76475607813,2004,0,0,0,0,0,0,0,0,0,0,0,0,0,0,0,0,0,0,0,0,0,0,0,0
CH,Switzerland,country,Europe and Central Asia,46.818188,8.227512,NE,Niger,country,Sub-Saharan Africa,17.607789,8.081666,3251.71436023697,2004,3,0,0,0,0,0,0,0,0,0,0,0,0,0,0,0,0,0,3,0,0,0,0,0
SY,Syrian Arab Rep.,country,Middle East and North Africa,34.802075,38.996815,NE,Niger,country,Sub-Saharan Africa,17.607789,8.081666,3609.28672414788,2004,1099,1099,0,0,0,0,0,0,0,0,0,0,0,0,0,0,0,0,0,0,0,0,0,0
TH,Thailand,country,East Asia and Pacific,15.870032,100.992541,NE,Niger,country,Sub-Saharan Africa,17.607789,8.081666,9788.05806046042,2004,102672,102672,0,0,0,0,0,0,0,0,0,0,0,0,0,0,0,0,0,0,0,0,0,0
TL,Timor-Leste,country,East Asia and Pacific,-8.874217,125.727539,NE,Niger,country,Sub-Saharan Africa,17.607789,8.081666,13238.4761513401,2004,426,412,0,0,0,0,0,0,0,0,0,0,0,14,0,0,0,0,0,0,0,0,0,0
TG,Togo,country,Sub-Saharan Africa,8.619543,0.824782,NE,Niger,country,Sub-Saharan Africa,17.607789,8.081666,1272.24784786373,2004,8697,2023,3,151,26,36,0,121,24,1,1,237,15,10,5727,205,0,7,110,0,0,0,0,0
TN,Tunisia,country,Middle East and North Africa,33.886917,9.537499,NE,Niger,country,Sub-Saharan Africa,17.607789,8.081666,1817.98660575561,2004,8774,7690,0,0,0,0,0,0,1,0,0,0,0,1083,0,0,0,0,0,0,0,0,0,0
TR,Turkey,country,Europe and Central Asia,38.963745,35.243322,NE,Niger,country,Sub-Saharan Africa,17.607789,8.081666,3543.41235264415,2004,230,48,0,27,0,0,0,0,25,0,0,0,1,129,0,0,0,0,0,0,0,0,0,0
UG,Uganda,country,Sub-Saharan Africa,1.373333,32.290275,NE,Niger,country,Sub-Saharan Africa,17.607789,8.081666,3205.71345783431,2004,0,0,0,0,0,0,0,0,0,0,0,0,0,0,0,0,0,0,0,0,0,0,0,0
AE,United Arab Emirates,country,Middle East and North Africa,23.424076,53.847818,NE,Niger,country,Sub-Saharan Africa,17.607789,8.081666,4795.99261809536,2004,47,0,0,1,0,0,0,1,20,0,4,0,8,0,0,3,0,0,10,0,0,0,0,0
GB,United Kingdom,country,Europe and Central Asia,55.378051,-3.435973,NE,Niger,country,Sub-Saharan Africa,17.607789,8.081666,4316.8524605343,2004,314,2,0,42,0,0,0,0,0,0,0,0,0,204,0,0,0,0,66,0,0,0,0,0
US,USA,country,North America,37.09024,-95.712891,NE,Niger,country,Sub-Saharan Africa,17.607789,8.081666,10011.4917303107,2004,24737,21498,0,389,0,0,0,14,57,0,0,2,66,691,1950,13,0,0,57,0,0,0,0,0
VN,Vietnam,country,East Asia and Pacific,14.058324,108.277199,NE,Niger,country,Sub-Saharan Africa,17.607789,8.081666,10594.7293511354,2004,30528,30528,0,0,0,0,0,0,0,0,0,0,0,0,0,0,0,0,0,0,0,0,0,0
DZ,Algeria,country,Middle East and North Africa,28.033886,1.659626,NE,Niger,country,Sub-Saharan Africa,17.607789,8.081666,1333.92265391544,2005,12035,1122,0,4,7,0,0,1,9934,17,0,0,2,580,1,7,0,0,357,3,0,0,0,0
AO,Angola,country,Sub-Saharan Africa,-11.202692,17.873887,NE,Niger,country,Sub-Saharan Africa,17.607789,8.081666,3383.06591785044,2005,0,0,0,0,0,0,0,0,0,0,0,0,0,0,0,0,0,0,0,0,0,0,0,0
AR,Argentina,country,Latin America and the Caribbean,-38.416097,-63.616672,NE,Niger,country,Sub-Saharan Africa,17.607789,8.081666,9721.74439348601,2005,3785,0,0,0,0,0,0,0,0,0,0,0,0,0,0,0,0,0,3785,0,0,0,0,0
AT,Austria,country,Europe and Central Asia,47.516231,14.550072,NE,Niger,country,Sub-Saharan Africa,17.607789,8.081666,3381.44377511528,2005,0,0,0,0,0,0,0,0,0,0,0,0,0,0,0,0,0,0,0,0,0,0,0,0
BH,Bahrain,country,Middle East and North Africa,25.930414,50.637772,NE,Niger,country,Sub-Saharan Africa,17.607789,8.081666,4476.01644083189,2005,15,0,0,0,0,0,0,0,0,0,0,0,0,15,0,0,0,0,0,0,0,0,0,0
BD,Bangladesh,country,South Asia,23.684994,90.356331,NE,Niger,country,Sub-Saharan Africa,17.607789,8.081666,8480.46228650362,2005,72,0,0,2,0,0,0,0,69,0,0,0,1,0,0,0,0,0,0,0,0,0,0,0
BE,Belgium,country,Europe and Central Asia,50.503887,4.469936,NE,Niger,country,Sub-Saharan Africa,17.607789,8.081666,3676.09268033447,2005,1449,995,0,0,0,0,15,8,0,0,0,0,3,58,0,56,0,26,288,0,0,0,0,0
BJ,Benin,country,Sub-Saharan Africa,9.30769,2.315834,NE,Niger,country,Sub-Saharan Africa,17.607789,8.081666,1114.69626262521,2005,18323,15857,0,874,9,2,619,1,0,0,0,345,27,306,111,10,2,1,161,0,0,0,0,0
BR,Brazil,country,Latin America and the Caribbean,-14.235004,-51.92528,NE,Niger,country,Sub-Saharan Africa,17.607789,8.081666,7481.05304471793,2005,69761,16,0,69605,0,0,0,0,0,0,0,0,23,9,0,0,0,0,108,0,0,0,0,0
BF,Burkina Faso,country,Sub-Saharan Africa,12.238333,-1.561593,NE,Niger,country,Sub-Saharan Africa,17.607789,8.081666,1196.70110990139,2005,12608,2304,44,27,774,0,475,97,7476,0,1,280,2,342,383,390,38,0,13,0,0,0,0,0
CM,Cameroon,country,Sub-Saharan Africa,7.369722,12.354722,NE,Niger,country,Sub-Saharan Africa,17.607789,8.081666,1230.41841824464,2005,0,0,0,0,0,0,0,0,0,0,0,0,0,0,0,0,0,0,0,0,0,0,0,0
CA,Canada,country,North America,56.130366,-106.346771,NE,Niger,country,Sub-Saharan Africa,17.607789,8.081666,9817.8828466528,2005,205,204,0,0,1,0,0,0,0,0,0,0,0,0,0,0,0,0,0,0,0,0,0,0
CF,Central African Rep.,country,Sub-Saharan Africa,6.611111,20.939444,NE,Niger,country,Sub-Saharan Africa,17.607789,8.081666,1857.37294040236,2005,0,0,0,0,0,0,0,0,0,0,0,0,0,0,0,0,0,0,0,0,0,0,0,0
CL,Chile,country,Latin America and the Caribbean,-35.675147,-71.542969,NE,Niger,country,Sub-Saharan Africa,17.607789,8.081666,10254.6059862705,2005,1,0,0,0,0,0,0,0,1,0,0,0,0,0,0,0,0,0,0,0,0,0,0,0
HK,Hong Kong,country,East Asia and Pacific,22.396428,114.109497,NE,Niger,country,Sub-Saharan Africa,17.607789,8.081666,10837.7979429589,2005,1,0,0,0,0,0,0,0,0,0,0,0,0,0,0,0,0,0,1,0,0,0,0,0
CN,China,country,East Asia and Pacific,35.86166,104.195397,NE,Niger,country,Sub-Saharan Africa,17.607789,8.081666,9412.27477538131,2005,17473,9707,0,66,2333,0,0,270,8,0,14,0,4868,92,94,3,0,1,17,0,0,0,0,0
TW,Taiwan,country,East Asia and Pacific,23.69781,120.960515,NE,Niger,country,Sub-Saharan Africa,17.607789,8.081666,11418.7681057697,2005,0,0,0,0,0,0,0,0,0,0,0,0,0,0,0,0,0,0,0,0,0,0,0,0
CO,Colombia,country,Latin America and the Caribbean,4.570868,-74.297333,NE,Niger,country,Sub-Saharan Africa,17.607789,8.081666,9057.69177692492,2005,1,0,0,0,0,0,0,0,0,0,0,0,1,0,0,0,0,0,0,0,0,0,0,0
CR,Costa Rica,country,Latin America and the Caribbean,9.748917,-83.753428,NE,Niger,country,Sub-Saharan Africa,17.607789,8.081666,9883.90646618685,2005,0,0,0,0,0,0,0,0,0,0,0,0,0,0,0,0,0,0,0,0,0,0,0,0
CI,Ivory Coast,country,Sub-Saharan Africa,7.539989,-5.54708,NE,Niger,country,Sub-Saharan Africa,17.607789,8.081666,1855.18700208386,2005,44826,13868,0,52,140,962,33,0,933,0,0,89,237,438,28070,0,0,1,3,0,0,0,0,0
CZ,Czech Republic,country,Europe and Central Asia,49.817492,15.472962,NE,Niger,country,Sub-Saharan Africa,17.607789,8.081666,3646.25884247354,2005,0,0,0,0,0,0,0,0,0,0,0,0,0,0,0,0,0,0,0,0,0,0,0,0
DK,Denmark,country,Europe and Central Asia,56.26392,9.501785,NE,Niger,country,Sub-Saharan Africa,17.607789,8.081666,4304.84072701576,2005,295,6,0,0,130,0,0,0,0,0,0,0,0,0,143,16,0,0,0,0,0,0,0,0
EG,Egypt,country,Middle East and North Africa,26.820553,30.802498,NE,Niger,country,Sub-Saharan Africa,17.607789,8.081666,2550.76215206063,2005,141,28,0,33,0,0,0,0,23,0,0,0,46,11,0,0,0,0,0,0,0,0,0,0
ET,Ethiopia,country,Sub-Saharan Africa,9.145,40.489673,NE,Niger,country,Sub-Saharan Africa,17.607789,8.081666,3627.87862395319,2005,0,0,0,0,0,0,0,0,0,0,0,0,0,0,0,0,0,0,0,0,0,0,0,0
FR,France,country,Europe and Central Asia,46.227638,2.213749,NE,Niger,country,Sub-Saharan Africa,17.607789,8.081666,3231.65317649015,2005,34336,20982,60,5787,240,0,156,347,219,1,2,18,40,604,3207,944,6,27,1702,0,0,0,0,0
DE,Germany,country,Europe and Central Asia,51.165691,10.451526,NE,Niger,country,Sub-Saharan Africa,17.607789,8.081666,3741.54276679435,2005,2220,2011,0,0,0,0,0,0,5,0,0,0,5,5,0,30,0,0,164,0,0,0,0,0
GH,Ghana,country,Sub-Saharan Africa,7.946527,-1.023194,NE,Niger,country,Sub-Saharan Africa,17.607789,8.081666,1459.77048842897,2005,2916,407,14,344,0,1350,1,404,39,0,4,238,45,19,5,0,0,0,46,0,0,0,0,0
GR,Greece,country,Europe and Central Asia,39.074208,21.824312,NE,Niger,country,Sub-Saharan Africa,17.607789,8.081666,2735.19434584169,2005,0,0,0,0,0,0,0,0,0,0,0,0,0,0,0,0,0,0,0,0,0,0,0,0
HU,Hungary,country,Europe and Central Asia,47.162494,19.503304,NE,Niger,country,Sub-Saharan Africa,17.607789,8.081666,3452.34266162352,2005,0,0,0,0,0,0,0,0,0,0,0,0,0,0,0,0,0,0,0,0,0,0,0,0
IN,India,country,South Asia,20.593684,78.96288,NE,Niger,country,Sub-Saharan Africa,17.607789,8.081666,7403.54242611931,2005,56725,56658,0,17,0,0,0,0,0,0,1,0,0,4,45,0,0,0,0,0,0,0,0,0
ID,Indonesia,country,East Asia and Pacific,-0.789275,113.921327,NE,Niger,country,Sub-Saharan Africa,17.607789,8.081666,11724.7713149262,2005,279,71,0,0,0,0,0,0,3,0,0,0,0,0,205,0,0,0,0,0,0,0,0,0
IR,Iran,country,Middle East and North Africa,32.427908,53.688046,NE,Niger,country,Sub-Saharan Africa,17.607789,8.081666,4845.47494017277,2005,0,0,0,0,0,0,0,0,0,0,0,0,0,0,0,0,0,0,0,0,0,0,0,0
IE,Ireland,country,Europe and Central Asia,53.41291,-8.24389,NE,Niger,country,Sub-Saharan Africa,17.607789,8.081666,4229.16440180947,2005,71,30,0,0,0,0,0,0,0,0,0,0,0,0,0,0,0,0,41,0,0,0,0,0
IT,Italy,country,Europe and Central Asia,41.87194,12.56738,NE,Niger,country,Sub-Saharan Africa,17.607789,8.081666,2734.62037093547,2005,2227,828,0,0,50,0,0,1178,7,0,0,0,8,92,60,2,0,0,2,0,0,0,0,0
JP,Japan,country,East Asia and Pacific,36.204824,138.252924,NE,Niger,country,Sub-Saharan Africa,17.607789,8.081666,12079.1589883354,2005,5382,5379,0,0,0,2,0,0,0,0,0,0,0,1,0,0,0,0,0,0,0,0,0,0
KE,Kenya,country,Sub-Saharan Africa,-0.023559,37.906193,NE,Niger,country,Sub-Saharan Africa,17.607789,8.081666,3810.50250035848,2005,0,0,0,0,0,0,0,0,0,0,0,0,0,0,0,0,0,0,0,0,0,0,0,0
LB,Lebanon,country,Middle East and North Africa,33.854721,35.862285,NE,Niger,country,Sub-Saharan Africa,17.607789,8.081666,3303.62976861965,2005,241,1,0,0,0,0,0,0,192,0,1,0,1,2,1,43,0,0,0,0,0,0,0,0
LY,Libya,country,Middle East and North Africa,26.3351,17.228331,NE,Niger,country,Sub-Saharan Africa,17.607789,8.081666,1353.74473387438,2005,263,20,0,0,0,0,0,0,43,0,0,0,0,200,0,0,0,0,0,0,0,0,0,0
LU,Luxembourg,country,Europe and Central Asia,49.815273,6.129583,NE,Niger,country,Sub-Saharan Africa,17.607789,8.081666,3589.58963690145,2005,1,1,0,0,0,0,0,0,0,0,0,0,0,0,0,0,0,0,0,0,0,0,0,0
MG,Madagascar,country,Sub-Saharan Africa,-18.766947,46.869107,NE,Niger,country,Sub-Saharan Africa,17.607789,8.081666,5865.34346242293,2005,0,0,0,0,0,0,0,0,0,0,0,0,0,0,0,0,0,0,0,0,0,0,0,0
MY,Malaysia,country,East Asia and Pacific,4.210484,101.975766,NE,Niger,country,Sub-Saharan Africa,17.607789,8.081666,10288.9260871783,2005,10859,0,0,0,0,0,0,0,0,0,0,0,0,1,10751,0,0,0,107,0,0,0,0,0
ML,Mali,country,Sub-Saharan Africa,17.570692,-3.996166,NE,Niger,country,Sub-Saharan Africa,17.607789,8.081666,1281.428431896,2005,2614,2476,0,11,0,0,0,0,3,0,1,0,0,78,45,0,0,0,0,0,0,0,0,0
MT,Malta,country,Middle East and North Africa,35.937496,14.375416,NE,Niger,country,Sub-Saharan Africa,17.607789,8.081666,2132.77320937553,2005,110,0,0,0,0,0,0,0,0,0,0,0,0,110,0,0,0,0,0,0,0,0,0,0
MR,Mauritania,country,Sub-Saharan Africa,21.00789,-10.940835,NE,Niger,country,Sub-Saharan Africa,17.607789,8.081666,2032.60932604182,2005,5,0,0,0,0,0,0,0,0,0,0,4,0,0,0,0,0,1,0,0,0,0,0,0
MU,Mauritius,country,Sub-Saharan Africa,-20.348404,57.552152,NE,Niger,country,Sub-Saharan Africa,17.607789,8.081666,6857.79045907311,2005,0,0,0,0,0,0,0,0,0,0,0,0,0,0,0,0,0,0,0,0,0,0,0,0
MX,Mexico,country,Latin America and the Caribbean,23.634501,-102.552784,NE,Niger,country,Sub-Saharan Africa,17.607789,8.081666,11214.942087734,2005,0,0,0,0,0,0,0,0,0,0,0,0,0,0,0,0,0,0,0,0,0,0,0,0
MS,Montserrat,country,Latin America and the Caribbean,16.7425,-62.1874,NE,Niger,country,Sub-Saharan Africa,17.607789,8.081666,7426.80438578367,2005,40,40,0,0,0,0,0,0,0,0,0,0,0,0,0,0,0,0,0,0,0,0,0,0
MA,Morocco,country,Middle East and North Africa,31.791702,-7.09262,NE,Niger,country,Sub-Saharan Africa,17.607789,8.081666,2196.82997423061,2005,6473,6022,0,0,0,0,1,50,0,0,0,0,0,0,400,0,0,0,0,0,0,0,0,0
NL,Netherlands,country,Europe and Central Asia,52.132633,5.291266,NE,Niger,country,Sub-Saharan Africa,17.607789,8.081666,3851.08799266713,2005,2516,2155,0,20,87,0,0,0,0,0,0,0,1,100,0,59,0,7,87,0,0,0,0,0
NZ,New Zealand,country,East Asia and Pacific,-40.900557,174.885971,NE,Niger,country,Sub-Saharan Africa,17.607789,8.081666,17153.109969113,2005,875,0,0,0,0,0,0,0,0,0,0,0,0,0,0,0,0,0,875,0,0,0,0,0
NG,Nigeria,country,Sub-Saharan Africa,9.081999,8.675277,NE,Niger,country,Sub-Saharan Africa,17.607789,8.081666,951.257301733266,2005,28006,15512,1282,1026,178,1296,426,435,890,0,323,4685,25,574,1272,12,15,3,67,0,0,0,0,0
NO,Norway,country,Europe and Central Asia,60.472024,8.468946,NE,Niger,country,Sub-Saharan Africa,17.607789,8.081666,4771.72542797059,2005,26,6,0,0,0,0,0,0,0,0,0,0,0,0,20,0,0,0,0,0,0,0,0,0
PK,Pakistan,country,South Asia,30.375321,69.345116,NE,Niger,country,Sub-Saharan Africa,17.607789,8.081666,6317.20569061026,2005,94181,94142,0,10,0,0,0,0,0,0,0,0,0,0,29,0,0,0,0,0,0,0,0,0
PE,Peru,country,Latin America and the Caribbean,-9.189967,-75.015152,NE,Niger,country,Sub-Saharan Africa,17.607789,8.081666,9605.29682542844,2005,0,0,0,0,0,0,0,0,0,0,0,0,0,0,0,0,0,0,0,0,0,0,0,0
PL,Poland,country,Europe and Central Asia,51.919438,19.145136,NE,Niger,country,Sub-Saharan Africa,17.607789,8.081666,3941.47608227049,2005,32,0,0,0,0,0,0,0,0,0,0,0,0,0,0,0,0,0,32,0,0,0,0,0
PT,Portugal,country,Europe and Central Asia,39.399872,-8.224454,NE,Niger,country,Sub-Saharan Africa,17.607789,8.081666,2892.61399446648,2005,1,1,0,0,0,0,0,0,0,0,0,0,0,0,0,0,0,0,0,0,0,0,0,0
KR,"Korea, Rep.",country,East Asia and Pacific,35.907757,127.766922,NE,Niger,country,Sub-Saharan Africa,17.607789,8.081666,11335.0770400193,2005,15,0,0,0,0,0,0,0,0,0,0,0,0,15,0,0,0,0,0,0,0,0,0,0
RU,Russian Federation,country,Europe and Central Asia,61.52401,105.318756,NE,Niger,country,Sub-Saharan Africa,17.607789,8.081666,8678.09063402607,2005,920,515,0,0,0,0,0,0,0,0,0,0,0,26,261,0,0,0,118,0,0,0,0,0
SA,Saudi Arabia,country,Middle East and North Africa,23.885942,45.079162,NE,Niger,country,Sub-Saharan Africa,17.607789,8.081666,3903.05642180934,2005,203,46,0,2,0,0,0,1,146,0,0,0,1,0,2,4,0,0,1,0,0,0,0,0
SN,Senegal,country,Sub-Saharan Africa,14.497401,-14.452362,NE,Niger,country,Sub-Saharan Africa,17.607789,8.081666,2433.84565204456,2005,1239,0,0,0,0,0,0,0,0,0,0,0,0,1239,0,0,0,0,0,0,0,0,0,0
SG,Singapore,country,East Asia and Pacific,1.352083,103.819836,NE,Niger,country,Sub-Saharan Africa,17.607789,8.081666,10581.61551382,2005,1111,0,0,0,0,0,0,161,0,0,0,0,73,0,642,0,0,0,235,0,0,0,0,0
SK,Slovak Rep.,country,Europe and Central Asia,48.669026,19.699024,NE,Niger,country,Sub-Saharan Africa,17.607789,8.081666,3613.96644464662,2005,80,0,0,0,0,0,0,0,0,0,0,0,0,0,0,0,0,0,80,0,0,0,0,0
SI,Slovenia,country,Europe and Central Asia,46.151241,14.995463,NE,Niger,country,Sub-Saharan Africa,17.607789,8.081666,3240.95339141975,2005,0,0,0,0,0,0,0,0,0,0,0,0,0,0,0,0,0,0,0,0,0,0,0,0
ZA,S. Africa,country,Sub-Saharan Africa,-30.559482,22.937506,NE,Niger,country,Sub-Saharan Africa,17.607789,8.081666,5593.10345084676,2005,1008,770,0,0,0,0,0,0,58,0,0,0,0,118,0,62,0,0,0,0,0,0,0,0
ES,Spain,country,Europe and Central Asia,40.463667,-3.74922,NE,Niger,country,Sub-Saharan Africa,17.607789,8.081666,2786.42387917796,2005,854,6,0,0,0,0,0,2,271,0,0,0,1,88,0,486,0,0,0,0,0,0,0,0
LK,Sri Lanka,country,South Asia,7.873054,80.771797,NE,Niger,country,Sub-Saharan Africa,17.607789,8.081666,7925.29720993561,2005,4,0,0,0,0,0,0,0,0,0,0,0,4,0,0,0,0,0,0,0,0,0,0,0
CH,Switzerland,country,Europe and Central Asia,46.818188,8.227512,NE,Niger,country,Sub-Saharan Africa,17.607789,8.081666,3251.71436023697,2005,42,6,0,29,0,0,0,0,0,0,0,0,1,0,0,0,0,0,6,0,0,0,0,0
SY,Syrian Arab Rep.,country,Middle East and North Africa,34.802075,38.996815,NE,Niger,country,Sub-Saharan Africa,17.607789,8.081666,3609.28672414788,2005,1426,1426,0,0,0,0,0,0,0,0,0,0,0,0,0,0,0,0,0,0,0,0,0,0
TH,Thailand,country,East Asia and Pacific,15.870032,100.992541,NE,Niger,country,Sub-Saharan Africa,17.607789,8.081666,9788.05806046042,2005,73613,73545,0,5,0,0,0,0,56,0,0,0,0,0,7,0,0,0,0,0,0,0,0,0
TL,Timor-Leste,country,East Asia and Pacific,-8.874217,125.727539,NE,Niger,country,Sub-Saharan Africa,17.607789,8.081666,13238.4761513401,2005,28,0,0,0,0,0,0,0,0,0,0,0,0,28,0,0,0,0,0,0,0,0,0,0
TG,Togo,country,Sub-Saharan Africa,8.619543,0.824782,NE,Niger,country,Sub-Saharan Africa,17.607789,8.081666,1272.24784786373,2005,7388,2790,3,229,0,3,82,122,40,0,1,1770,14,55,2067,92,0,0,120,0,0,0,0,0
TN,Tunisia,country,Middle East and North Africa,33.886917,9.537499,NE,Niger,country,Sub-Saharan Africa,17.607789,8.081666,1817.98660575561,2005,7053,5997,0,6,0,0,0,22,4,0,0,0,0,1024,0,0,0,0,0,0,0,0,0,0
TR,Turkey,country,Europe and Central Asia,38.963745,35.243322,NE,Niger,country,Sub-Saharan Africa,17.607789,8.081666,3543.41235264415,2005,606,237,0,9,0,0,0,0,0,0,0,0,1,274,85,0,0,0,0,0,0,0,0,0
UA,Ukraine,country,Europe and Central Asia,48.379433,31.16558,NE,Niger,country,Sub-Saharan Africa,17.607789,8.081666,4012.8506673668,2005,16,0,0,0,0,0,0,0,0,0,0,0,0,0,0,0,0,0,16,0,0,0,0,0
AE,United Arab Emirates,country,Middle East and North Africa,23.424076,53.847818,NE,Niger,country,Sub-Saharan Africa,17.607789,8.081666,4795.99261809536,2005,256,197,0,4,0,0,0,8,0,0,0,0,1,43,2,1,0,0,0,0,0,0,0,0
GB,United Kingdom,country,Europe and Central Asia,55.378051,-3.435973,NE,Niger,country,Sub-Saharan Africa,17.607789,8.081666,4316.8524605343,2005,75,0,0,0,0,0,0,0,0,0,0,0,0,54,0,5,0,0,16,0,0,0,0,0
TZ,Tanzania,country,Sub-Saharan Africa,-6.369028,34.888822,NE,Niger,country,Sub-Saharan Africa,17.607789,8.081666,3976.03787012734,2005,0,0,0,0,0,0,0,0,0,0,0,0,0,0,0,0,0,0,0,0,0,0,0,0
US,USA,country,North America,37.09024,-95.712891,NE,Niger,country,Sub-Saharan Africa,17.607789,8.081666,10011.4917303107,2005,21014,16894,0,403,431,0,0,119,6,0,0,40,0,278,2824,0,0,0,19,0,0,0,0,0
VN,Vietnam,country,East Asia and Pacific,14.058324,108.277199,NE,Niger,country,Sub-Saharan Africa,17.607789,8.081666,10594.7293511354,2005,33356,33356,0,0,0,0,0,0,0,0,0,0,0,0,0,0,0,0,0,0,0,0,0,0
AF,Afghanistan,country,South Asia,33.93911,67.709953,NE,Niger,country,Sub-Saharan Africa,17.607789,8.081666,6160.4251604448,2006,21,0,0,0,0,0,0,0,0,0,0,0,0,21,0,0,0,0,0,0,0,0,0,0
DZ,Algeria,country,Middle East and North Africa,28.033886,1.659626,NE,Niger,country,Sub-Saharan Africa,17.607789,8.081666,1333.92265391544,2006,9460,1003,0,606,0,0,0,0,7331,0,0,0,0,391,3,0,0,0,125,1,0,0,0,0
WS,Samoa,country,East Asia and Pacific,-13.759029,-172.104629,NE,Niger,country,Sub-Saharan Africa,17.607789,8.081666,19608.6015776113,2006,4,0,0,0,0,0,0,0,4,0,0,0,0,0,0,0,0,0,0,0,0,0,0,0
AR,Argentina,country,Latin America and the Caribbean,-38.416097,-63.616672,NE,Niger,country,Sub-Saharan Africa,17.607789,8.081666,9721.74439348601,2006,5273,28,0,0,0,0,0,0,0,0,0,0,0,10,0,0,0,0,5235,0,0,0,0,0
AU,Australia,country,East Asia and Pacific,-25.274398,133.775136,NE,Niger,country,Sub-Saharan Africa,17.607789,8.081666,14382.5025487694,2006,40,40,0,0,0,0,0,0,0,0,0,0,0,0,0,0,0,0,0,0,0,0,0,0
AT,Austria,country,Europe and Central Asia,47.516231,14.550072,NE,Niger,country,Sub-Saharan Africa,17.607789,8.081666,3381.44377511528,2006,0,0,0,0,0,0,0,0,0,0,0,0,0,0,0,0,0,0,0,0,0,0,0,0
BD,Bangladesh,country,South Asia,23.684994,90.356331,NE,Niger,country,Sub-Saharan Africa,17.607789,8.081666,8480.46228650362,2006,47,0,0,0,0,0,0,0,47,0,0,0,0,0,0,0,0,0,0,0,0,0,0,0
BE,Belgium,country,Europe and Central Asia,50.503887,4.469936,NE,Niger,country,Sub-Saharan Africa,17.607789,8.081666,3676.09268033447,2006,5870,4906,0,50,294,0,0,7,2,0,0,0,1,42,0,80,0,0,488,0,0,0,0,0
BJ,Benin,country,Sub-Saharan Africa,9.30769,2.315834,NE,Niger,country,Sub-Saharan Africa,17.607789,8.081666,1114.69626262521,2006,27080,21420,20,1046,125,52,725,88,80,0,0,1957,0,837,557,57,0,0,116,0,0,0,0,0
BR,Brazil,country,Latin America and the Caribbean,-14.235004,-51.92528,NE,Niger,country,Sub-Saharan Africa,17.607789,8.081666,7481.05304471793,2006,51498,65,0,51365,0,0,0,0,0,0,0,0,2,38,0,0,0,0,28,0,0,0,0,0
BN,Brunei Darussalam,country,,4.535277,114.727669,NE,Niger,country,Sub-Saharan Africa,17.607789,8.081666,11618.9414096864,2006,55,0,0,0,0,0,0,0,0,0,0,0,0,0,55,0,0,0,0,0,0,0,0,0
BF,Burkina Faso,country,Sub-Saharan Africa,12.238333,-1.561593,NE,Niger,country,Sub-Saharan Africa,17.607789,8.081666,1196.70110990139,2006,30721,22189,2,90,97,30,1122,39,6062,0,0,95,0,99,389,504,0,0,3,0,0,0,0,0
CM,Cameroon,country,Sub-Saharan Africa,7.369722,12.354722,NE,Niger,country,Sub-Saharan Africa,17.607789,8.081666,1230.41841824464,2006,0,0,0,0,0,0,0,0,0,0,0,0,0,0,0,0,0,0,0,0,0,0,0,0
CA,Canada,country,North America,56.130366,-106.346771,NE,Niger,country,Sub-Saharan Africa,17.607789,8.081666,9817.8828466528,2006,90,30,0,0,60,0,0,0,0,0,0,0,0,0,0,0,0,0,0,0,0,0,0,0
CL,Chile,country,Latin America and the Caribbean,-35.675147,-71.542969,NE,Niger,country,Sub-Saharan Africa,17.607789,8.081666,10254.6059862705,2006,0,0,0,0,0,0,0,0,0,0,0,0,0,0,0,0,0,0,0,0,0,0,0,0
HK,Hong Kong,country,East Asia and Pacific,22.396428,114.109497,NE,Niger,country,Sub-Saharan Africa,17.607789,8.081666,10837.7979429589,2006,206,0,0,28,0,0,0,0,0,0,0,0,0,95,83,0,0,0,0,0,0,0,0,0
CN,China,country,East Asia and Pacific,35.86166,104.195397,NE,Niger,country,Sub-Saharan Africa,17.607789,8.081666,9412.27477538131,2006,36943,29571,0,654,0,0,0,545,4,0,13,0,4647,428,1023,1,0,3,54,0,0,0,0,0
CO,Colombia,country,Latin America and the Caribbean,4.570868,-74.297333,NE,Niger,country,Sub-Saharan Africa,17.607789,8.081666,9057.69177692492,2006,0,0,0,0,0,0,0,0,0,0,0,0,0,0,0,0,0,0,0,0,0,0,0,0
CR,Costa Rica,country,Latin America and the Caribbean,9.748917,-83.753428,NE,Niger,country,Sub-Saharan Africa,17.607789,8.081666,9883.90646618685,2006,0,0,0,0,0,0,0,0,0,0,0,0,0,0,0,0,0,0,0,0,0,0,0,0
CI,Ivory Coast,country,Sub-Saharan Africa,7.539989,-5.54708,NE,Niger,country,Sub-Saharan Africa,17.607789,8.081666,1855.18700208386,2006,28737,2968,0,19,110,812,136,0,1790,0,0,0,455,744,21703,0,0,0,0,0,0,0,0,0
CZ,Czech Republic,country,Europe and Central Asia,49.817492,15.472962,NE,Niger,country,Sub-Saharan Africa,17.607789,8.081666,3646.25884247354,2006,13,0,0,0,0,0,0,0,0,0,0,0,0,13,0,0,0,0,0,0,0,0,0,0
DK,Denmark,country,Europe and Central Asia,56.26392,9.501785,NE,Niger,country,Sub-Saharan Africa,17.607789,8.081666,4304.84072701576,2006,249,5,0,31,64,0,0,0,0,0,0,0,0,0,0,0,0,0,149,0,0,0,0,0
EG,Egypt,country,Middle East and North Africa,26.820553,30.802498,NE,Niger,country,Sub-Saharan Africa,17.607789,8.081666,2550.76215206063,2006,90,53,0,37,0,0,0,0,0,0,0,0,0,0,0,0,0,0,0,0,0,0,0,0
ET,Ethiopia,country,Sub-Saharan Africa,9.145,40.489673,NE,Niger,country,Sub-Saharan Africa,17.607789,8.081666,3627.87862395319,2006,261,0,0,0,261,0,0,0,0,0,0,0,0,0,0,0,0,0,0,0,0,0,0,0
FR,France,country,Europe and Central Asia,46.227638,2.213749,NE,Niger,country,Sub-Saharan Africa,17.607789,8.081666,3231.65317649015,2006,37728,20059,60,8053,269,0,102,576,152,0,16,16,36,1260,3284,1083,0,23,2739,0,0,0,0,0
DE,Germany,country,Europe and Central Asia,51.165691,10.451526,NE,Niger,country,Sub-Saharan Africa,17.607789,8.081666,3741.54276679435,2006,905,478,0,91,0,0,0,1,0,0,0,0,1,216,0,84,0,0,34,0,0,0,0,0
GH,Ghana,country,Sub-Saharan Africa,7.946527,-1.023194,NE,Niger,country,Sub-Saharan Africa,17.607789,8.081666,1459.77048842897,2006,4369,1592,0,314,0,1036,80,600,391,0,0,102,1,5,143,0,0,0,105,0,0,0,0,0
GR,Greece,country,Europe and Central Asia,39.074208,21.824312,NE,Niger,country,Sub-Saharan Africa,17.607789,8.081666,2735.19434584169,2006,0,0,0,0,0,0,0,0,0,0,0,0,0,0,0,0,0,0,0,0,0,0,0,0
HU,Hungary,country,Europe and Central Asia,47.162494,19.503304,NE,Niger,country,Sub-Saharan Africa,17.607789,8.081666,3452.34266162352,2006,0,0,0,0,0,0,0,0,0,0,0,0,0,0,0,0,0,0,0,0,0,0,0,0
IN,India,country,South Asia,20.593684,78.96288,NE,Niger,country,Sub-Saharan Africa,17.607789,8.081666,7403.54242611931,2006,69367,69216,0,122,0,0,0,0,0,0,0,0,0,0,0,29,0,0,0,0,0,0,0,0
ID,Indonesia,country,East Asia and Pacific,-0.789275,113.921327,NE,Niger,country,Sub-Saharan Africa,17.607789,8.081666,11724.7713149262,2006,69,26,0,0,0,0,0,0,2,0,0,0,0,0,41,0,0,0,0,0,0,0,0,0
IR,Iran,country,Middle East and North Africa,32.427908,53.688046,NE,Niger,country,Sub-Saharan Africa,17.607789,8.081666,4845.47494017277,2006,0,0,0,0,0,0,0,0,0,0,0,0,0,0,0,0,0,0,0,0,0,0,0,0
IE,Ireland,country,Europe and Central Asia,53.41291,-8.24389,NE,Niger,country,Sub-Saharan Africa,17.607789,8.081666,4229.16440180947,2006,124,0,0,0,0,0,0,0,0,0,0,0,0,0,0,0,0,0,124,0,0,0,0,0
IL,Israel,country,Middle East and North Africa,31.046051,34.851612,NE,Niger,country,Sub-Saharan Africa,17.607789,8.081666,3087.60334553128,2006,0,0,0,0,0,0,0,0,0,0,0,0,0,0,0,0,0,0,0,0,0,0,0,0
IT,Italy,country,Europe and Central Asia,41.87194,12.56738,NE,Niger,country,Sub-Saharan Africa,17.607789,8.081666,2734.62037093547,2006,4071,2213,0,0,0,0,0,1119,5,0,0,0,7,721,1,3,0,0,2,0,0,0,0,0
JP,Japan,country,East Asia and Pacific,36.204824,138.252924,NE,Niger,country,Sub-Saharan Africa,17.607789,8.081666,12079.1589883354,2006,549,468,0,14,0,0,0,0,0,0,0,0,64,3,0,0,0,0,0,0,0,0,0,0
LB,Lebanon,country,Middle East and North Africa,33.854721,35.862285,NE,Niger,country,Sub-Saharan Africa,17.607789,8.081666,3303.62976861965,2006,222,16,0,0,0,2,1,8,161,0,0,0,1,1,3,26,0,1,2,0,0,0,0,0
LY,Libya,country,Middle East and North Africa,26.3351,17.228331,NE,Niger,country,Sub-Saharan Africa,17.607789,8.081666,1353.74473387438,2006,48,0,0,0,0,0,0,0,15,0,0,0,0,33,0,0,0,0,0,0,0,0,0,0
MG,Madagascar,country,Sub-Saharan Africa,-18.766947,46.869107,NE,Niger,country,Sub-Saharan Africa,17.607789,8.081666,5865.34346242293,2006,0,0,0,0,0,0,0,0,0,0,0,0,0,0,0,0,0,0,0,0,0,0,0,0
MY,Malaysia,country,East Asia and Pacific,4.210484,101.975766,NE,Niger,country,Sub-Saharan Africa,17.607789,8.081666,10288.9260871783,2006,26099,983,0,55,0,0,0,0,0,0,0,0,4,38,24768,0,0,0,251,0,0,0,0,0
ML,Mali,country,Sub-Saharan Africa,17.570692,-3.996166,NE,Niger,country,Sub-Saharan Africa,17.607789,8.081666,1281.428431896,2006,947,899,0,34,0,0,0,0,4,0,0,0,1,9,0,0,0,0,0,0,0,0,0,0
MT,Malta,country,Middle East and North Africa,35.937496,14.375416,NE,Niger,country,Sub-Saharan Africa,17.607789,8.081666,2132.77320937553,2006,199,0,0,0,0,0,0,0,20,0,0,0,0,179,0,0,0,0,0,0,0,0,0,0
MR,Mauritania,country,Sub-Saharan Africa,21.00789,-10.940835,NE,Niger,country,Sub-Saharan Africa,17.607789,8.081666,2032.60932604182,2006,79,78,0,0,0,1,0,0,0,0,0,0,0,0,0,0,0,0,0,0,0,0,0,0
MX,Mexico,country,Latin America and the Caribbean,23.634501,-102.552784,NE,Niger,country,Sub-Saharan Africa,17.607789,8.081666,11214.942087734,2006,0,0,0,0,0,0,0,0,0,0,0,0,0,0,0,0,0,0,0,0,0,0,0,0
MS,Montserrat,country,Latin America and the Caribbean,16.7425,-62.1874,NE,Niger,country,Sub-Saharan Africa,17.607789,8.081666,7426.80438578367,2006,589,589,0,0,0,0,0,0,0,0,0,0,0,0,0,0,0,0,0,0,0,0,0,0
MA,Morocco,country,Middle East and North Africa,31.791702,-7.09262,NE,Niger,country,Sub-Saharan Africa,17.607789,8.081666,2196.82997423061,2006,552,164,0,165,0,0,0,0,1,0,0,0,0,18,123,1,0,0,80,0,0,0,0,0
NL,Netherlands,country,Europe and Central Asia,52.132633,5.291266,NE,Niger,country,Sub-Saharan Africa,17.607789,8.081666,3851.08799266713,2006,821,722,0,20,0,0,0,0,0,0,0,0,0,0,0,54,0,0,25,0,0,0,0,0
NZ,New Zealand,country,East Asia and Pacific,-40.900557,174.885971,NE,Niger,country,Sub-Saharan Africa,17.607789,8.081666,17153.109969113,2006,180,0,0,0,0,0,0,0,0,0,0,0,0,0,0,0,0,0,180,0,0,0,0,0
NI,Nicaragua,country,Latin America and the Caribbean,12.865416,-85.207229,NE,Niger,country,Sub-Saharan Africa,17.607789,8.081666,9929.16952257511,2006,0,0,0,0,0,0,0,0,0,0,0,0,0,0,0,0,0,0,0,0,0,0,0,0
NG,Nigeria,country,Sub-Saharan Africa,9.081999,8.675277,NE,Niger,country,Sub-Saharan Africa,17.607789,8.081666,951.257301733266,2006,23365,14613,445,1756,6,1951,63,469,625,2,432,1218,44,779,910,41,1,0,10,1,0,0,0,0
NO,Norway,country,Europe and Central Asia,60.472024,8.468946,NE,Niger,country,Sub-Saharan Africa,17.607789,8.081666,4771.72542797059,2006,2318,2318,0,0,0,0,0,0,0,0,0,0,0,0,0,0,0,0,0,0,0,0,0,0
PK,Pakistan,country,South Asia,30.375321,69.345116,NE,Niger,country,Sub-Saharan Africa,17.607789,8.081666,6317.20569061026,2006,51859,51814,0,45,0,0,0,0,0,0,0,0,0,0,0,0,0,0,0,0,0,0,0,0
PE,Peru,country,Latin America and the Caribbean,-9.189967,-75.015152,NE,Niger,country,Sub-Saharan Africa,17.607789,8.081666,9605.29682542844,2006,21,0,0,0,0,0,0,0,0,0,0,0,0,0,0,0,0,0,21,0,0,0,0,0
PH,Philippines,country,East Asia and Pacific,12.879721,121.774017,NE,Niger,country,Sub-Saharan Africa,17.607789,8.081666,12001.8464014099,2006,5,0,0,0,0,0,0,0,0,0,0,0,0,0,5,0,0,0,0,0,0,0,0,0
PL,Poland,country,Europe and Central Asia,51.919438,19.145136,NE,Niger,country,Sub-Saharan Africa,17.607789,8.081666,3941.47608227049,2006,32,0,0,0,0,0,0,0,0,0,0,0,0,0,0,0,0,0,32,0,0,0,0,0
PT,Portugal,country,Europe and Central Asia,39.399872,-8.224454,NE,Niger,country,Sub-Saharan Africa,17.607789,8.081666,2892.61399446648,2006,0,0,0,0,0,0,0,0,0,0,0,0,0,0,0,0,0,0,0,0,0,0,0,0
QA,Qatar,country,Middle East and North Africa,25.354826,51.183884,NE,Niger,country,Sub-Saharan Africa,17.607789,8.081666,4527.81827178124,2006,0,0,0,0,0,0,0,0,0,0,0,0,0,0,0,0,0,0,0,0,0,0,0,0
KR,"Korea, Rep.",country,East Asia and Pacific,35.907757,127.766922,NE,Niger,country,Sub-Saharan Africa,17.607789,8.081666,11335.0770400193,2006,30,0,0,0,0,0,0,0,0,0,0,0,0,30,0,0,0,0,0,0,0,0,0,0
RU,Russian Federation,country,Europe and Central Asia,61.52401,105.318756,NE,Niger,country,Sub-Saharan Africa,17.607789,8.081666,8678.09063402607,2006,204,0,0,0,0,0,0,0,0,0,0,0,0,0,140,0,0,0,64,0,0,0,0,0
SA,Saudi Arabia,country,Middle East and North Africa,23.885942,45.079162,NE,Niger,country,Sub-Saharan Africa,17.607789,8.081666,3903.05642180934,2006,229,49,0,26,0,0,0,1,74,0,0,0,33,0,2,0,0,21,23,0,0,0,0,0
SN,Senegal,country,Sub-Saharan Africa,14.497401,-14.452362,NE,Niger,country,Sub-Saharan Africa,17.607789,8.081666,2433.84565204456,2006,1526,14,0,0,0,0,0,0,0,0,0,0,0,1512,0,0,0,0,0,0,0,0,0,0
SG,Singapore,country,East Asia and Pacific,1.352083,103.819836,NE,Niger,country,Sub-Saharan Africa,17.607789,8.081666,10581.61551382,2006,598,30,0,0,0,0,0,0,0,0,0,0,12,0,124,0,0,0,432,0,0,0,0,0
ZA,S. Africa,country,Sub-Saharan Africa,-30.559482,22.937506,NE,Niger,country,Sub-Saharan Africa,17.607789,8.081666,5593.10345084676,2006,1026,590,0,0,0,0,0,0,81,0,0,0,0,355,0,0,0,0,0,0,0,0,0,0
ES,Spain,country,Europe and Central Asia,40.463667,-3.74922,NE,Niger,country,Sub-Saharan Africa,17.607789,8.081666,2786.42387917796,2006,1117,9,0,0,0,0,0,2,436,0,0,0,0,134,0,505,0,0,31,0,0,0,0,0
LK,Sri Lanka,country,South Asia,7.873054,80.771797,NE,Niger,country,Sub-Saharan Africa,17.607789,8.081666,7925.29720993561,2006,13,0,0,0,0,0,0,0,0,0,0,0,13,0,0,0,0,0,0,0,0,0,0,0
CH,Switzerland,country,Europe and Central Asia,46.818188,8.227512,NE,Niger,country,Sub-Saharan Africa,17.607789,8.081666,3251.71436023697,2006,315,278,0,0,0,0,0,0,0,0,0,0,18,13,0,0,0,0,6,0,0,0,0,0
SY,Syrian Arab Rep.,country,Middle East and North Africa,34.802075,38.996815,NE,Niger,country,Sub-Saharan Africa,17.607789,8.081666,3609.28672414788,2006,90,70,0,0,0,0,0,0,0,0,0,0,0,0,0,0,0,11,9,0,0,0,0,0
TH,Thailand,country,East Asia and Pacific,15.870032,100.992541,NE,Niger,country,Sub-Saharan Africa,17.607789,8.081666,9788.05806046042,2006,15907,15886,0,0,0,0,0,0,21,0,0,0,0,0,0,0,0,0,0,0,0,0,0,0
TL,Timor-Leste,country,East Asia and Pacific,-8.874217,125.727539,NE,Niger,country,Sub-Saharan Africa,17.607789,8.081666,13238.4761513401,2006,88,0,0,0,0,0,0,0,0,0,0,0,0,88,0,0,0,0,0,0,0,0,0,0
TG,Togo,country,Sub-Saharan Africa,8.619543,0.824782,NE,Niger,country,Sub-Saharan Africa,17.607789,8.081666,1272.24784786373,2006,4254,2670,0,215,0,0,0,12,22,0,0,812,2,6,235,160,0,0,120,0,0,0,0,0
