sourceCode,sourceName,sourceGrouping,sourceRegion,sourceLat,sourceLong,destCode,destName,destGrouping,destRegion,destLat,destLong,distance,year,totalTons,cereals,roots,sugarCrops,pulses,nuts,oilCrops,vegetables,fruits,fibers,spices,fodderCrops,coffeeTea,tobaccoRubber,oilsFats,beverages,livestock,animalMeats,animalProducts,animalHides,nimalOther,pesticides,fertilizers,machinery
AR,Argentina,country,Latin America and the Caribbean,-38.416097,-63.616672,HK,Hong Kong,country,East Asia and Pacific,22.396428,114.109497,18241.0711946673,1986,2278,0,0,0,0,0,0,0,0,0,0,0,0,0,189,0,0,2089,0,0,0,0,0,0
AU,Australia,country,East Asia and Pacific,-25.274398,133.775136,HK,Hong Kong,country,East Asia and Pacific,22.396428,114.109497,5715.74799743523,1986,169278,79753,242,464,38,30,0,11825,15372,20239,2,7347,631,1853,4984,1801,14,8952,15387,358,0,0,0,0
AT,Austria,country,Europe and Central Asia,47.516231,14.550072,HK,Hong Kong,country,East Asia and Pacific,22.396428,114.109497,8882.00143487563,1986,817,7,0,32,9,1,0,59,129,0,6,0,22,150,0,27,0,0,375,0,0,0,0,0
BH,Bahrain,country,Middle East and North Africa,25.930414,50.637772,HK,Hong Kong,country,East Asia and Pacific,22.396428,114.109497,6395.68679765839,1986,1,0,0,0,0,0,0,0,0,0,0,0,1,0,0,0,0,0,0,0,0,0,0,0
BD,Bangladesh,country,South Asia,23.684994,90.356331,HK,Hong Kong,country,East Asia and Pacific,22.396428,114.109497,2434.69734247981,1986,2,0,0,0,0,0,0,0,0,0,0,0,0,0,0,0,0,2,0,0,0,0,0,0
BE,Belgium,country,Europe and Central Asia,50.503887,4.469936,HK,Hong Kong,country,East Asia and Pacific,22.396428,114.109497,9403.13526781859,1986,10187,1156,0,42,0,0,0,37,71,2,0,155,99,806,330,1625,0,687,4787,390,0,0,0,0
BW,Botswana,country,Sub-Saharan Africa,-22.328474,24.684866,HK,Hong Kong,country,East Asia and Pacific,22.396428,114.109497,10889.9362728192,1986,329,0,0,0,0,0,0,0,0,0,0,0,0,0,0,0,0,329,0,0,0,0,0,0
BR,Brazil,country,Latin America and the Caribbean,-14.235004,-51.92528,HK,Hong Kong,country,East Asia and Pacific,22.396428,114.109497,18306.1615705447,1986,26459,0,0,95,0,0,0,24,144,3857,15,0,26,737,8618,10,0,12902,16,15,0,0,0,0
CA,Canada,country,North America,56.130366,-106.346771,HK,Hong Kong,country,East Asia and Pacific,22.396428,114.109497,10502.1050885388,1986,56656,9646,0,98,37,9,17551,574,611,0,9,2797,122,984,21235,22,0,2453,89,419,0,0,0,0
CF,Central African Rep.,country,Sub-Saharan Africa,6.611111,20.939444,HK,Hong Kong,country,East Asia and Pacific,22.396428,114.109497,10062.9070488438,1986,2,0,0,0,0,0,0,0,0,0,0,0,0,2,0,0,0,0,0,0,0,0,0,0
CL,Chile,country,Latin America and the Caribbean,-35.675147,-71.542969,HK,Hong Kong,country,East Asia and Pacific,22.396428,114.109497,18461.1184276931,1986,10577,0,0,12,0,0,0,0,10453,0,0,0,0,112,0,0,0,0,0,0,0,0,0,0
MO,"Macao SAR, China",country,East Asia and Pacific,22.198745,113.543873,HK,Hong Kong,country,East Asia and Pacific,22.396428,114.109497,62.274473695268,1986,7873,269,0,134,46,47,267,98,264,528,11,385,45,3284,61,1588,104,251,407,188,0,0,0,0
CN,China,country,East Asia and Pacific,35.86166,104.195397,HK,Hong Kong,country,East Asia and Pacific,22.396428,114.109497,1779.71468142797,1986,2233802,275145,30827,49740,228339,19599,116623,331277,143631,154830,31406,113822,15112,118874,15284,407985,48464,94879,72299,14130,0,0,0,0
TW,Taiwan,country,East Asia and Pacific,23.69781,120.960515,HK,Hong Kong,country,East Asia and Pacific,22.396428,114.109497,716.490551733354,1986,122788,5365,6372,279,1114,22,835,58244,31467,461,16,923,264,12056,422,4466,278,92,374,16,0,0,0,0
CO,Colombia,country,Latin America and the Caribbean,4.570868,-74.297333,HK,Hong Kong,country,East Asia and Pacific,22.396428,114.109497,16899.0961351163,1986,28,0,0,0,0,0,0,0,0,0,0,0,0,28,0,0,0,0,0,0,0,0,0,0
CR,Costa Rica,country,Latin America and the Caribbean,9.748917,-83.753428,HK,Hong Kong,country,East Asia and Pacific,22.396428,114.109497,15962.7507466209,1986,0,0,0,0,0,0,0,0,0,0,0,0,0,0,0,0,0,0,0,0,0,0,0,0
CI,Ivory Coast,country,Sub-Saharan Africa,7.539989,-5.54708,HK,Hong Kong,country,East Asia and Pacific,22.396428,114.109497,12668.0234094945,1986,1787,0,0,0,0,197,0,0,0,1583,0,0,7,0,0,0,0,0,0,0,0,0,0,0
CU,Cuba,country,Latin America and the Caribbean,21.521757,-77.781167,HK,Hong Kong,country,East Asia and Pacific,22.396428,114.109497,14981.1159798285,1986,0,0,0,0,0,0,0,0,0,0,0,0,0,0,0,0,0,0,0,0,0,0,0,0
CY,Cyprus,country,Europe and Central Asia,35.126413,33.429859,HK,Hong Kong,country,East Asia and Pacific,22.396428,114.109497,7794.56015784003,1986,2,0,0,0,0,0,0,0,0,0,0,0,0,0,0,2,0,0,0,0,0,0,0,0
CZ,Czech Republic,country,Europe and Central Asia,49.817492,15.472962,HK,Hong Kong,country,East Asia and Pacific,22.396428,114.109497,8724.64170148005,1986,917,900,0,1,0,0,0,0,0,0,0,0,2,0,0,0,0,0,14,0,0,0,0,0
KP,"Korea, Dem. Rep.",country,East Asia and Pacific,40.339852,127.510093,HK,Hong Kong,country,East Asia and Pacific,22.396428,114.109497,2362.61396027019,1986,3134,0,0,0,0,2484,0,102,0,171,43,0,0,314,0,8,0,12,0,0,0,0,0,0
DK,Denmark,country,Europe and Central Asia,56.26392,9.501785,HK,Hong Kong,country,East Asia and Pacific,22.396428,114.109497,8816.68547695129,1986,13850,3247,449,10,0,0,0,21,693,0,0,366,26,232,19,9,0,5171,3532,75,0,0,0,0
DJ,Djibouti,country,Middle East and North Africa,11.825138,42.590275,HK,Hong Kong,country,East Asia and Pacific,22.396428,114.109497,7636.11435693242,1986,0,0,0,0,0,0,0,0,0,0,0,0,0,0,0,0,0,0,0,0,0,0,0,0
EC,Ecuador,country,Latin America and the Caribbean,-1.831239,-78.183406,HK,Hong Kong,country,East Asia and Pacific,22.396428,114.109497,17390.0920467956,1986,0,0,0,0,0,0,0,0,0,0,0,0,0,0,0,0,0,0,0,0,0,0,0,0
SV,El Salvador,country,Latin America and the Caribbean,13.794185,-88.89653,HK,Hong Kong,country,East Asia and Pacific,22.396428,114.109497,15291.0034425231,1986,228,0,0,0,0,228,0,0,0,0,0,0,0,0,0,0,0,0,0,0,0,0,0,0
ET,Ethiopia,country,Sub-Saharan Africa,9.145,40.489673,HK,Hong Kong,country,East Asia and Pacific,22.396428,114.109497,7954.80745280836,1986,0,0,0,0,0,0,0,0,0,0,0,0,0,0,0,0,0,0,0,0,0,0,0,0
FJ,Fiji,country,East Asia and Pacific,-16.578193,179.414413,HK,Hong Kong,country,East Asia and Pacific,22.396428,114.109497,8331.2109237792,1986,170,0,0,0,0,0,0,56,0,0,0,0,0,4,0,0,0,0,0,110,0,0,0,0
FI,Finland,country,Europe and Central Asia,61.92411,25.748151,HK,Hong Kong,country,East Asia and Pacific,22.396428,114.109497,7747.50800074592,1986,45,0,0,0,0,0,0,0,0,0,0,0,27,0,0,1,0,0,17,0,0,0,0,0
FR,France,country,Europe and Central Asia,46.227638,2.213749,HK,Hong Kong,country,East Asia and Pacific,22.396428,114.109497,9785.24090761307,1986,32518,7671,3554,482,38,0,43,174,243,2,3,131,127,2076,2654,11887,7,1303,1870,260,0,0,0,0
GR,Greece,country,Europe and Central Asia,39.074208,21.824312,HK,Hong Kong,country,East Asia and Pacific,22.396428,114.109497,8659.2365233818,1986,162,0,0,0,0,0,0,0,34,0,0,0,19,10,0,23,0,0,76,0,0,0,0,0
GT,Guatemala,country,Latin America and the Caribbean,15.783471,-90.230759,HK,Hong Kong,country,East Asia and Pacific,22.396428,114.109497,15027.0864784705,1986,52,0,0,0,0,0,0,0,0,0,0,0,52,0,0,0,0,0,0,0,0,0,0,0
HN,Honduras,country,Latin America and the Caribbean,15.199999,-86.241905,HK,Hong Kong,country,East Asia and Pacific,22.396428,114.109497,15300.3462890196,1986,35,0,0,0,0,0,0,0,0,0,0,0,35,0,0,0,0,0,0,0,0,0,0,0
HU,Hungary,country,Europe and Central Asia,47.162494,19.503304,HK,Hong Kong,country,East Asia and Pacific,22.396428,114.109497,8545.6911150926,1986,1240,0,0,0,0,0,0,0,19,0,0,0,0,0,0,0,0,1221,0,0,0,0,0,0
IN,India,country,South Asia,20.593684,78.96288,HK,Hong Kong,country,East Asia and Pacific,22.396428,114.109497,3637.78716429995,1986,17418,17,0,1,28,697,0,43,15,15271,154,5,6,1181,0,0,0,0,0,0,0,0,0,0
ID,Indonesia,country,East Asia and Pacific,-0.789275,113.921327,HK,Hong Kong,country,East Asia and Pacific,22.396428,114.109497,2581.10141824003,1986,43199,38,0,130,0,988,82,2031,46,22,771,1100,1221,36453,3,0,0,310,0,4,0,0,0,0
IE,Ireland,country,Europe and Central Asia,53.41291,-8.24389,HK,Hong Kong,country,East Asia and Pacific,22.396428,114.109497,9948.41595196937,1986,74,8,0,0,0,0,0,0,0,0,0,0,0,31,0,7,0,20,8,0,0,0,0,0
IL,Israel,country,Middle East and North Africa,31.046051,34.851612,HK,Hong Kong,country,East Asia and Pacific,22.396428,114.109497,7777.95427366951,1986,1529,0,0,1,0,0,0,31,325,216,5,29,0,5,0,530,0,0,387,0,0,0,0,0
IT,Italy,country,Europe and Central Asia,41.87194,12.56738,HK,Hong Kong,country,East Asia and Pacific,22.396428,114.109497,9273.63108306991,1986,6244,2676,0,1513,0,259,0,131,102,6,0,0,126,663,54,283,0,68,73,290,0,0,0,0
JM,Jamaica,country,Latin America and the Caribbean,18.109581,-77.297508,HK,Hong Kong,country,East Asia and Pacific,22.396428,114.109497,15360.5141179002,1986,0,0,0,0,0,0,0,0,0,0,0,0,0,0,0,0,0,0,0,0,0,0,0,0
JP,Japan,country,East Asia and Pacific,36.204824,138.252924,HK,Hong Kong,country,East Asia and Pacific,22.396428,114.109497,2790.06002661141,1986,137885,81357,0,6991,10,44,135,1286,7528,193,34,13935,223,7232,4309,4371,9,9648,69,520,0,0,0,0
KE,Kenya,country,Sub-Saharan Africa,-0.023559,37.906193,HK,Hong Kong,country,East Asia and Pacific,22.396428,114.109497,8601.81788260244,1986,320,0,0,0,0,0,0,0,0,0,0,0,6,314,0,0,0,0,0,0,0,0,0,0
LB,Lebanon,country,Middle East and North Africa,33.854721,35.862285,HK,Hong Kong,country,East Asia and Pacific,22.396428,114.109497,7610.6271693753,1986,0,0,0,0,0,0,0,0,0,0,0,0,0,0,0,0,0,0,0,0,0,0,0,0
MY,Malaysia,country,East Asia and Pacific,4.210484,101.975766,HK,Hong Kong,country,East Asia and Pacific,22.396428,114.109497,2410.16537078811,1986,27694,193,0,953,1,1,3418,70,5208,1053,13,38,960,3361,9048,17,2,5,3355,0,0,0,0,0
MU,Mauritius,country,Sub-Saharan Africa,-20.348404,57.552152,HK,Hong Kong,country,East Asia and Pacific,22.396428,114.109497,7770.45178057071,1986,26,0,0,0,0,0,0,0,0,26,0,0,0,0,0,0,0,0,0,0,0,0,0,0
MX,Mexico,country,Latin America and the Caribbean,23.634501,-102.552784,HK,Hong Kong,country,East Asia and Pacific,22.396428,114.109497,13556.8200698007,1986,253,0,0,0,0,0,0,0,0,231,0,0,0,11,0,11,0,0,0,0,0,0,0,0
MZ,Mozambique,country,Sub-Saharan Africa,-18.665695,35.529562,HK,Hong Kong,country,East Asia and Pacific,22.396428,114.109497,9690.16666046945,1986,3523,0,0,0,0,0,0,0,0,100,0,0,0,0,3423,0,0,0,0,0,0,0,0,0
MM,Myanmar,country,East Asia and Pacific,21.913965,95.956223,HK,Hong Kong,country,East Asia and Pacific,22.396428,114.109497,1871.24782839445,1986,2756,2527,0,0,0,0,0,0,0,0,0,0,0,8,0,0,0,0,0,221,0,0,0,0
NP,Nepal,country,South Asia,28.394857,84.124008,HK,Hong Kong,country,East Asia and Pacific,22.396428,114.109497,3079.87405816682,1986,0,0,0,0,0,0,0,0,0,0,0,0,0,0,0,0,0,0,0,0,0,0,0,0
NL,Netherlands,country,Europe and Central Asia,52.132633,5.291266,HK,Hong Kong,country,East Asia and Pacific,22.396428,114.109497,9266.1960756805,1986,52969,3073,5009,567,2,0,0,78,116,0,5,92,622,1062,3197,4842,1,3293,30437,574,0,0,0,0
NZ,New Zealand,country,East Asia and Pacific,-40.900557,174.885971,HK,Hong Kong,country,East Asia and Pacific,22.396428,114.109497,9432.9557257228,1986,27153,82,0,11,66,0,0,1762,5309,7757,0,983,42,216,225,25,0,4368,6252,55,0,0,0,0
NG,Nigeria,country,Sub-Saharan Africa,9.081999,8.675277,HK,Hong Kong,country,East Asia and Pacific,22.396428,114.109497,11191.4700865662,1986,387,0,0,0,0,387,0,0,0,0,0,0,0,0,0,0,0,0,0,0,0,0,0,0
NO,Norway,country,Europe and Central Asia,60.472024,8.468946,HK,Hong Kong,country,East Asia and Pacific,22.396428,114.109497,8677.94316454719,1986,147,16,0,0,0,0,0,0,0,0,0,0,0,5,108,4,0,0,14,0,0,0,0,0
PK,Pakistan,country,South Asia,30.375321,69.345116,HK,Hong Kong,country,East Asia and Pacific,22.396428,114.109497,4522.17029831529,1986,73048,0,0,0,0,0,0,7,32,72950,3,0,0,56,0,0,0,0,0,0,0,0,0,0
PA,Panama,country,Latin America and the Caribbean,8.537981,-80.782127,HK,Hong Kong,country,East Asia and Pacific,22.396428,114.109497,16230.007220814,1986,0,0,0,0,0,0,0,0,0,0,0,0,0,0,0,0,0,0,0,0,0,0,0,0
PG,Papua New Guinea,country,East Asia and Pacific,-6.314993,143.95555,HK,Hong Kong,country,East Asia and Pacific,22.396428,114.109497,4559.67115376636,1986,2946,0,0,0,0,0,0,0,0,0,0,2640,91,3,0,0,0,0,0,212,0,0,0,0
PY,Paraguay,country,Latin America and the Caribbean,-23.442503,-58.443832,HK,Hong Kong,country,East Asia and Pacific,22.396428,114.109497,19265.260167845,1986,5,0,0,0,0,0,0,0,0,0,0,0,0,5,0,0,0,0,0,0,0,0,0,0
PE,Peru,country,Latin America and the Caribbean,-9.189967,-75.015152,HK,Hong Kong,country,East Asia and Pacific,22.396428,114.109497,18273.6432372328,1986,514,0,0,0,0,0,0,0,0,160,0,351,0,3,0,0,0,0,0,0,0,0,0,0
PH,Philippines,country,East Asia and Pacific,12.879721,121.774017,HK,Hong Kong,country,East Asia and Pacific,22.396428,114.109497,1334.68207060713,1986,51988,49,0,1489,0,498,1115,1264,42361,148,0,25,1215,2386,1067,115,4,240,16,0,0,0,0,0
PL,Poland,country,Europe and Central Asia,51.919438,19.145136,HK,Hong Kong,country,East Asia and Pacific,22.396428,114.109497,8403.40166060393,1986,1524,0,1342,0,0,0,0,0,0,0,0,0,0,0,0,0,0,182,0,0,0,0,0,0
PT,Portugal,country,Europe and Central Asia,39.399872,-8.224454,HK,Hong Kong,country,East Asia and Pacific,22.396428,114.109497,10916.4701735176,1986,252,0,0,0,0,0,0,0,0,0,0,15,0,32,0,195,0,10,0,0,0,0,0,0
KR,"Korea, Rep.",country,East Asia and Pacific,35.907757,127.766922,HK,Hong Kong,country,East Asia and Pacific,22.396428,114.109497,2001.83242604701,1986,103478,812,0,94516,0,42,0,2983,347,81,68,53,116,2649,407,1400,0,2,2,0,0,0,0,0
RO,Romania,country,Europe and Central Asia,45.943161,24.96676,HK,Hong Kong,country,East Asia and Pacific,22.396428,114.109497,8185.84956305408,1986,30,0,0,0,0,0,0,0,0,0,0,0,0,0,0,0,0,30,0,0,0,0,0,0
SC,Seychelles,country,Sub-Saharan Africa,-4.679574,55.491977,HK,Hong Kong,country,East Asia and Pacific,22.396428,114.109497,7050.37678669228,1986,0,0,0,0,0,0,0,0,0,0,0,0,0,0,0,0,0,0,0,0,0,0,0,0
SG,Singapore,country,East Asia and Pacific,1.352083,103.819836,HK,Hong Kong,country,East Asia and Pacific,22.396428,114.109497,2593.89006017595,1986,97045,6612,302,8966,338,13,1659,1698,2946,61,379,787,1512,5856,43301,17166,7,9,5400,12,28,0,0,0
SB,Solomon Islands,country,East Asia and Pacific,-9.64571,160.156194,HK,Hong Kong,country,East Asia and Pacific,22.396428,114.109497,6159.64844116944,1986,104,0,0,0,0,0,0,0,0,0,0,85,0,12,0,0,0,0,0,7,0,0,0,0
SO,Somalia,country,Sub-Saharan Africa,5.152149,46.199616,HK,Hong Kong,country,East Asia and Pacific,22.396428,114.109497,7529.07452882237,1986,799,0,0,0,0,0,0,0,0,0,0,0,0,799,0,0,0,0,0,0,0,0,0,0
ZA,S. Africa,country,Sub-Saharan Africa,-30.559482,22.937506,HK,Hong Kong,country,East Asia and Pacific,22.396428,114.109497,11368.2308324559,1986,35209,2086,0,10342,0,73,0,244,7624,1255,0,0,52,355,10807,653,0,1460,61,197,0,0,0,0
ES,Spain,country,Europe and Central Asia,40.463667,-3.74922,HK,Hong Kong,country,East Asia and Pacific,22.396428,114.109497,10538.7859760622,1986,414,0,0,89,0,0,0,87,8,0,9,0,30,33,55,103,0,0,0,0,0,0,0,0
LK,Sri Lanka,country,South Asia,7.873054,80.771797,HK,Hong Kong,country,East Asia and Pacific,22.396428,114.109497,3916.31132901219,1986,1426,0,0,0,0,0,0,0,0,0,0,0,1360,66,0,0,0,0,0,0,0,0,0,0
SD,Sudan,country,Sub-Saharan Africa,12.862807,30.217636,HK,Hong Kong,country,East Asia and Pacific,22.396428,114.109497,8859.66127042641,1986,490,0,0,0,0,0,0,0,0,467,0,0,0,23,0,0,0,0,0,0,0,0,0,0
SE,Sweden,country,Europe and Central Asia,60.128161,18.643501,HK,Hong Kong,country,East Asia and Pacific,22.396428,114.109497,8165.26311587527,1986,1850,6,0,0,0,0,0,209,0,0,0,0,9,9,748,6,0,768,75,20,0,0,0,0
CH,Switzerland,country,Europe and Central Asia,46.818188,8.227512,HK,Hong Kong,country,East Asia and Pacific,22.396428,114.109497,9349.81980053958,1986,5033,55,0,1985,0,40,3,65,187,2,0,1,945,1071,0,13,0,26,640,0,0,0,0,0
TH,Thailand,country,East Asia and Pacific,15.870032,100.992541,HK,Hong Kong,country,East Asia and Pacific,22.396428,114.109497,1557.93898700177,1986,412529,344715,648,2646,3027,1024,367,4864,24170,1148,155,9777,544,9460,2,317,105,1838,7818,9,0,0,0,0
TG,Togo,country,Sub-Saharan Africa,8.619543,0.824782,HK,Hong Kong,country,East Asia and Pacific,22.396428,114.109497,11990.5716455864,1986,120,0,0,0,0,120,0,0,0,0,0,0,0,0,0,0,0,0,0,0,0,0,0,0
TO,Tonga,country,East Asia and Pacific,-21.178986,-175.198242,HK,Hong Kong,country,East Asia and Pacific,22.396428,114.109497,9075.17855576481,1986,10,0,0,0,0,0,0,0,0,0,0,0,0,10,0,0,0,0,0,0,0,0,0,0
TR,Turkey,country,Europe and Central Asia,38.963745,35.243322,HK,Hong Kong,country,East Asia and Pacific,22.396428,114.109497,7543.53328675246,1986,210,0,0,0,0,36,0,0,153,0,10,0,0,11,0,0,0,0,0,0,0,0,0,0
UG,Uganda,country,Sub-Saharan Africa,1.373333,32.290275,HK,Hong Kong,country,East Asia and Pacific,22.396428,114.109497,9118.63788193784,1986,92,0,0,0,0,0,0,0,0,92,0,0,0,0,0,0,0,0,0,0,0,0,0,0
AE,United Arab Emirates,country,Middle East and North Africa,23.424076,53.847818,HK,Hong Kong,country,East Asia and Pacific,22.396428,114.109497,6132.56532822792,1986,36,0,0,0,0,0,0,0,0,0,0,0,0,0,0,36,0,0,0,0,0,0,0,0
GB,United Kingdom,country,Europe and Central Asia,55.378051,-3.435973,HK,Hong Kong,country,East Asia and Pacific,22.396428,114.109497,9567.98654457727,1986,24106,3616,0,2797,23,0,44,1690,913,19,6,164,2068,3281,940,5042,18,1675,1807,21,0,0,0,0
TZ,Tanzania,country,Sub-Saharan Africa,-6.369028,34.888822,HK,Hong Kong,country,East Asia and Pacific,22.396428,114.109497,9189.90783033,1986,2852,0,0,0,0,2,0,0,0,2850,0,0,0,0,0,0,0,0,0,0,0,0,0,0
US,USA,country,North America,37.09024,-95.712891,HK,Hong Kong,country,East Asia and Pacific,22.396428,114.109497,12713.7159928997,1986,472751,114337,484,1121,1423,185,721,36459,178879,1939,228,9822,2276,41800,11136,17946,34,42199,8416,3380,0,0,0,0
UY,Uruguay,country,Latin America and the Caribbean,-32.522779,-55.765835,HK,Hong Kong,country,East Asia and Pacific,22.396428,114.109497,18532.3094784223,1986,3683,0,0,0,0,0,0,0,0,0,0,45,0,0,0,0,0,3638,0,0,0,0,0,0
RU,Russian Federation,country,Europe and Central Asia,61.52401,105.318756,HK,Hong Kong,country,East Asia and Pacific,22.396428,114.109497,4407.74024068889,1986,1215,0,86,0,0,0,0,0,0,1050,0,0,0,24,0,55,0,0,0,0,0,0,0,0
VU,Vanuatu,country,East Asia and Pacific,-15.376706,166.959158,HK,Hong Kong,country,East Asia and Pacific,22.396428,114.109497,7131.78154469223,1986,20,0,0,0,0,0,0,0,0,0,0,0,0,0,0,0,0,0,0,20,0,0,0,0
VE,Venezuela,country,Latin America and the Caribbean,6.42375,-66.58973,HK,Hong Kong,country,East Asia and Pacific,22.396428,114.109497,16828.355706758,1986,0,0,0,0,0,0,0,0,0,0,0,0,0,0,0,0,0,0,0,0,0,0,0,0
VN,Vietnam,country,East Asia and Pacific,14.058324,108.277199,HK,Hong Kong,country,East Asia and Pacific,22.396428,114.109497,1113.95857390625,1986,52785,14073,0,0,3972,145,13167,202,1230,38,671,1598,4091,5200,4146,0,0,442,2390,1420,0,0,0,0
BA,Bosnia & Herzegovina,country,Europe and Central Asia,43.915886,17.679076,HK,Hong Kong,country,East Asia and Pacific,22.396428,114.109497,8801.58197685603,1986,18,0,0,11,0,0,0,0,0,0,0,0,4,3,0,0,0,0,0,0,0,0,0,0
ZM,Zambia,country,Sub-Saharan Africa,-13.133897,27.849332,HK,Hong Kong,country,East Asia and Pacific,22.396428,114.109497,10196.3954516003,1986,6,0,0,0,0,0,0,0,0,0,0,0,0,6,0,0,0,0,0,0,0,0,0,0
ZW,Zimbabwe,country,Sub-Saharan Africa,-19.015438,29.154857,HK,Hong Kong,country,East Asia and Pacific,22.396428,114.109497,10320.3548174353,1986,1533,0,0,0,0,0,0,0,0,1182,0,0,0,250,0,0,0,101,0,0,0,0,0,0
AR,Argentina,country,Latin America and the Caribbean,-38.416097,-63.616672,HK,Hong Kong,country,East Asia and Pacific,22.396428,114.109497,18241.0711946673,1987,10794,0,0,0,0,0,0,0,240,1874,0,0,0,0,2903,0,0,5665,0,112,0,0,0,0
AU,Australia,country,East Asia and Pacific,-25.274398,133.775136,HK,Hong Kong,country,East Asia and Pacific,22.396428,114.109497,5715.74799743523,1987,146463,54838,605,488,0,21,0,13475,18591,13179,2,6551,1810,2652,5062,1875,16,10541,15627,1146,0,0,0,0
AT,Austria,country,Europe and Central Asia,47.516231,14.550072,HK,Hong Kong,country,East Asia and Pacific,22.396428,114.109497,8882.00143487563,1987,1303,19,0,8,0,0,0,332,147,0,14,0,16,67,0,49,0,4,647,0,0,0,0,0
BH,Bahrain,country,Middle East and North Africa,25.930414,50.637772,HK,Hong Kong,country,East Asia and Pacific,22.396428,114.109497,6395.68679765839,1987,1,0,0,0,0,0,0,1,0,0,0,0,0,0,0,0,0,0,0,0,0,0,0,0
BE,Belgium,country,Europe and Central Asia,50.503887,4.469936,HK,Hong Kong,country,East Asia and Pacific,22.396428,114.109497,9403.13526781859,1987,10426,549,0,89,0,0,20,20,13,381,20,60,137,452,0,1829,0,600,5221,1035,0,0,0,0
BJ,Benin,country,Sub-Saharan Africa,9.30769,2.315834,HK,Hong Kong,country,East Asia and Pacific,22.396428,114.109497,11809.6898192153,1987,120,0,0,0,0,18,0,0,0,102,0,0,0,0,0,0,0,0,0,0,0,0,0,0
BW,Botswana,country,Sub-Saharan Africa,-22.328474,24.684866,HK,Hong Kong,country,East Asia and Pacific,22.396428,114.109497,10889.9362728192,1987,85,0,0,0,0,0,0,0,0,0,0,0,0,0,0,0,0,85,0,0,0,0,0,0
BR,Brazil,country,Latin America and the Caribbean,-14.235004,-51.92528,HK,Hong Kong,country,East Asia and Pacific,22.396428,114.109497,18306.1615705447,1987,75422,0,0,12,0,0,0,10,277,46312,0,0,0,1879,11221,20,27,15638,0,53,0,0,0,0
BN,Brunei Darussalam,country,,4.535277,114.727669,HK,Hong Kong,country,East Asia and Pacific,22.396428,114.109497,1989.40946092368,1987,17,0,0,0,0,0,0,0,0,0,0,0,0,0,0,0,0,0,0,17,0,0,0,0
CA,Canada,country,North America,56.130366,-106.346771,HK,Hong Kong,country,East Asia and Pacific,22.396428,114.109497,10502.1050885388,1987,53177,12806,0,68,62,30,14779,817,1025,0,52,2590,33,2697,14978,115,0,3100,25,0,0,0,0,0
CL,Chile,country,Latin America and the Caribbean,-35.675147,-71.542969,HK,Hong Kong,country,East Asia and Pacific,22.396428,114.109497,18461.1184276931,1987,13345,3,0,17,0,0,0,0,13257,20,0,0,0,35,0,2,0,11,0,0,0,0,0,0
MO,"Macao SAR, China",country,East Asia and Pacific,22.198745,113.543873,HK,Hong Kong,country,East Asia and Pacific,22.396428,114.109497,62.274473695268,1987,8398,149,0,108,10,84,84,66,342,546,15,373,24,2215,17,3678,116,174,411,102,0,0,0,0
CN,China,country,East Asia and Pacific,35.86166,104.195397,HK,Hong Kong,country,East Asia and Pacific,22.396428,114.109497,1779.71468142797,1987,2321901,272768,22869,54022,92851,41515,130171,303515,148183,188493,30066,164441,15120,151588,15639,492062,49130,78259,78526,41813,0,0,0,0
TW,Taiwan,country,East Asia and Pacific,23.69781,120.960515,HK,Hong Kong,country,East Asia and Pacific,22.396428,114.109497,716.490551733354,1987,128292,5269,8719,442,476,310,913,57494,21538,1231,87,5072,172,20960,1006,4151,284,99,342,11,0,0,0,0
CO,Colombia,country,Latin America and the Caribbean,4.570868,-74.297333,HK,Hong Kong,country,East Asia and Pacific,22.396428,114.109497,16899.0961351163,1987,640,0,0,0,0,0,0,0,0,311,0,0,105,224,0,0,0,0,0,0,0,0,0,0
CG,"Congo, Rep.",country,Sub-Saharan Africa,-0.228021,15.827659,HK,Hong Kong,country,East Asia and Pacific,22.396428,114.109497,10880.4612892507,1987,11,0,0,0,0,0,0,0,0,0,0,0,0,11,0,0,0,0,0,0,0,0,0,0
CR,Costa Rica,country,Latin America and the Caribbean,9.748917,-83.753428,HK,Hong Kong,country,East Asia and Pacific,22.396428,114.109497,15962.7507466209,1987,0,0,0,0,0,0,0,0,0,0,0,0,0,0,0,0,0,0,0,0,0,0,0,0
CI,Ivory Coast,country,Sub-Saharan Africa,7.539989,-5.54708,HK,Hong Kong,country,East Asia and Pacific,22.396428,114.109497,12668.0234094945,1987,519,0,0,0,0,0,0,0,0,519,0,0,0,0,0,0,0,0,0,0,0,0,0,0
CY,Cyprus,country,Europe and Central Asia,35.126413,33.429859,HK,Hong Kong,country,East Asia and Pacific,22.396428,114.109497,7794.56015784003,1987,151,0,0,0,0,0,0,0,0,0,0,0,0,136,0,15,0,0,0,0,0,0,0,0
CZ,Czech Republic,country,Europe and Central Asia,49.817492,15.472962,HK,Hong Kong,country,East Asia and Pacific,22.396428,114.109497,8724.64170148005,1987,2140,2010,0,0,0,0,0,0,0,0,0,0,2,0,0,0,0,0,128,0,0,0,0,0
KP,"Korea, Dem. Rep.",country,East Asia and Pacific,40.339852,127.510093,HK,Hong Kong,country,East Asia and Pacific,22.396428,114.109497,2362.61396027019,1987,1456,0,0,187,0,433,201,18,0,283,0,0,0,317,0,0,0,17,0,0,0,0,0,0
DK,Denmark,country,Europe and Central Asia,56.26392,9.501785,HK,Hong Kong,country,East Asia and Pacific,22.396428,114.109497,8816.68547695129,1987,11729,2946,0,14,0,0,0,36,541,0,0,0,15,273,25,6,0,4272,3601,0,0,0,0,0
EC,Ecuador,country,Latin America and the Caribbean,-1.831239,-78.183406,HK,Hong Kong,country,East Asia and Pacific,22.396428,114.109497,17390.0920467956,1987,0,0,0,0,0,0,0,0,0,0,0,0,0,0,0,0,0,0,0,0,0,0,0,0
SV,El Salvador,country,Latin America and the Caribbean,13.794185,-88.89653,HK,Hong Kong,country,East Asia and Pacific,22.396428,114.109497,15291.0034425231,1987,152,0,0,0,0,0,0,0,0,152,0,0,0,0,0,0,0,0,0,0,0,0,0,0
ET,Ethiopia,country,Sub-Saharan Africa,9.145,40.489673,HK,Hong Kong,country,East Asia and Pacific,22.396428,114.109497,7954.80745280836,1987,5,0,0,0,0,0,0,0,0,0,0,0,0,5,0,0,0,0,0,0,0,0,0,0
FJ,Fiji,country,East Asia and Pacific,-16.578193,179.414413,HK,Hong Kong,country,East Asia and Pacific,22.396428,114.109497,8331.2109237792,1987,706,0,0,0,0,0,0,492,0,0,0,0,0,27,0,0,0,0,0,187,0,0,0,0
FI,Finland,country,Europe and Central Asia,61.92411,25.748151,HK,Hong Kong,country,East Asia and Pacific,22.396428,114.109497,7747.50800074592,1987,485,0,0,10,0,0,0,0,0,0,0,0,22,0,0,0,0,0,453,0,0,0,0,0
FR,France,country,Europe and Central Asia,46.227638,2.213749,HK,Hong Kong,country,East Asia and Pacific,22.396428,114.109497,9785.24090761307,1987,41737,13436,3457,337,36,0,37,389,194,0,1,227,236,2827,2180,15168,7,1648,1489,75,0,0,0,0
GR,Greece,country,Europe and Central Asia,39.074208,21.824312,HK,Hong Kong,country,East Asia and Pacific,22.396428,114.109497,8659.2365233818,1987,837,0,0,0,0,0,0,0,40,0,0,0,1,7,0,789,0,0,0,0,0,0,0,0
GT,Guatemala,country,Latin America and the Caribbean,15.783471,-90.230759,HK,Hong Kong,country,East Asia and Pacific,22.396428,114.109497,15027.0864784705,1987,17,0,0,0,0,0,0,0,0,0,0,0,17,0,0,0,0,0,0,0,0,0,0,0
HN,Honduras,country,Latin America and the Caribbean,15.199999,-86.241905,HK,Hong Kong,country,East Asia and Pacific,22.396428,114.109497,15300.3462890196,1987,35,0,0,0,0,0,0,0,0,0,0,0,35,0,0,0,0,0,0,0,0,0,0,0
HU,Hungary,country,Europe and Central Asia,47.162494,19.503304,HK,Hong Kong,country,East Asia and Pacific,22.396428,114.109497,8545.6911150926,1987,1331,0,0,0,0,0,0,0,0,0,0,0,0,0,0,0,0,1331,0,0,0,0,0,0
IN,India,country,South Asia,20.593684,78.96288,HK,Hong Kong,country,East Asia and Pacific,22.396428,114.109497,3637.78716429995,1987,35613,45,0,2,233,1003,0,80,35,32280,193,5,7,1728,2,0,0,0,0,0,0,0,0,0
ID,Indonesia,country,East Asia and Pacific,-0.789275,113.921327,HK,Hong Kong,country,East Asia and Pacific,22.396428,114.109497,2581.10141824003,1987,52881,150,13,148,15,844,23,1906,264,0,1206,300,2025,45495,180,0,16,257,25,30,0,0,0,0
IR,Iran,country,Middle East and North Africa,32.427908,53.688046,HK,Hong Kong,country,East Asia and Pacific,22.396428,114.109497,5997.47837805847,1987,70,0,0,0,0,70,0,0,0,0,0,0,0,0,0,0,0,0,0,0,0,0,0,0
IE,Ireland,country,Europe and Central Asia,53.41291,-8.24389,HK,Hong Kong,country,East Asia and Pacific,22.396428,114.109497,9948.41595196937,1987,163,0,0,54,0,0,0,0,0,0,0,0,0,37,0,6,0,66,0,0,0,0,0,0
IL,Israel,country,Middle East and North Africa,31.046051,34.851612,HK,Hong Kong,country,East Asia and Pacific,22.396428,114.109497,7777.95427366951,1987,416,0,0,0,0,36,0,4,163,0,0,9,0,84,0,0,14,0,120,0,0,0,0,0
IT,Italy,country,Europe and Central Asia,41.87194,12.56738,HK,Hong Kong,country,East Asia and Pacific,22.396428,114.109497,9273.63108306991,1987,9259,3427,0,1762,0,244,0,118,33,2,2,1,432,305,60,385,0,368,74,2046,0,0,0,0
JP,Japan,country,East Asia and Pacific,36.204824,138.252924,HK,Hong Kong,country,East Asia and Pacific,22.396428,114.109497,2790.06002661141,1987,141567,81139,6,6662,7,134,243,2252,6956,327,35,15989,394,7838,3830,3527,3,11521,65,642,0,0,0,0
KE,Kenya,country,Sub-Saharan Africa,-0.023559,37.906193,HK,Hong Kong,country,East Asia and Pacific,22.396428,114.109497,8601.81788260244,1987,120,0,0,0,0,0,0,0,0,0,0,0,31,69,0,0,0,0,0,20,0,0,0,0
KW,Kuwait,country,Middle East and North Africa,29.31166,47.481766,HK,Hong Kong,country,East Asia and Pacific,22.396428,114.109497,6632.30451435456,1987,18,0,0,0,0,18,0,0,0,0,0,0,0,0,0,0,0,0,0,0,0,0,0,0
MY,Malaysia,country,East Asia and Pacific,4.210484,101.975766,HK,Hong Kong,country,East Asia and Pacific,22.396428,114.109497,2410.16537078811,1987,29806,246,0,1605,3,2,3719,178,7472,454,40,125,167,7466,3754,21,0,0,4554,0,0,0,0,0
ML,Mali,country,Sub-Saharan Africa,17.570692,-3.996166,HK,Hong Kong,country,East Asia and Pacific,22.396428,114.109497,11963.6088852354,1987,34,0,0,0,0,0,0,0,0,0,0,0,0,34,0,0,0,0,0,0,0,0,0,0
MX,Mexico,country,Latin America and the Caribbean,23.634501,-102.552784,HK,Hong Kong,country,East Asia and Pacific,22.396428,114.109497,13556.8200698007,1987,204,0,0,0,0,0,0,0,0,0,0,0,17,10,0,177,0,0,0,0,0,0,0,0
MZ,Mozambique,country,Sub-Saharan Africa,-18.665695,35.529562,HK,Hong Kong,country,East Asia and Pacific,22.396428,114.109497,9690.16666046945,1987,4330,0,0,0,0,0,0,0,0,0,0,0,0,0,4330,0,0,0,0,0,0,0,0,0
MM,Myanmar,country,East Asia and Pacific,21.913965,95.956223,HK,Hong Kong,country,East Asia and Pacific,22.396428,114.109497,1871.24782839445,1987,701,0,32,0,0,0,0,0,0,80,0,0,0,301,0,0,0,0,0,288,0,0,0,0
NP,Nepal,country,South Asia,28.394857,84.124008,HK,Hong Kong,country,East Asia and Pacific,22.396428,114.109497,3079.87405816682,1987,0,0,0,0,0,0,0,0,0,0,0,0,0,0,0,0,0,0,0,0,0,0,0,0
NL,Netherlands,country,Europe and Central Asia,52.132633,5.291266,HK,Hong Kong,country,East Asia and Pacific,22.396428,114.109497,9266.1960756805,1987,63302,4824,10492,527,2,0,0,263,163,0,5,87,420,1178,6886,884,3,6339,29956,1276,0,0,0,0
NZ,New Zealand,country,East Asia and Pacific,-40.900557,174.885971,HK,Hong Kong,country,East Asia and Pacific,22.396428,114.109497,9432.9557257228,1987,26228,60,0,95,222,6,0,2336,4779,6408,0,549,33,207,26,32,0,5436,5866,173,0,0,0,0
NI,Nicaragua,country,Latin America and the Caribbean,12.865416,-85.207229,HK,Hong Kong,country,East Asia and Pacific,22.396428,114.109497,15582.1024115825,1987,678,0,0,0,0,0,0,0,0,678,0,0,0,0,0,0,0,0,0,0,0,0,0,0
NG,Nigeria,country,Sub-Saharan Africa,9.081999,8.675277,HK,Hong Kong,country,East Asia and Pacific,22.396428,114.109497,11191.4700865662,1987,975,0,0,0,0,346,0,0,0,0,0,0,0,629,0,0,0,0,0,0,0,0,0,0
NO,Norway,country,Europe and Central Asia,60.472024,8.468946,HK,Hong Kong,country,East Asia and Pacific,22.396428,114.109497,8677.94316454719,1987,476,16,0,10,0,0,0,0,0,0,0,16,0,4,398,13,0,0,19,0,0,0,0,0
PK,Pakistan,country,South Asia,30.375321,69.345116,HK,Hong Kong,country,East Asia and Pacific,22.396428,114.109497,4522.17029831529,1987,48306,20,0,1,0,2,0,0,22,48178,12,0,0,71,0,0,0,0,0,0,0,0,0,0
PA,Panama,country,Latin America and the Caribbean,8.537981,-80.782127,HK,Hong Kong,country,East Asia and Pacific,22.396428,114.109497,16230.007220814,1987,8,0,0,0,0,0,0,0,0,0,0,0,0,0,0,8,0,0,0,0,0,0,0,0
PG,Papua New Guinea,country,East Asia and Pacific,-6.314993,143.95555,HK,Hong Kong,country,East Asia and Pacific,22.396428,114.109497,4559.67115376636,1987,3621,0,0,0,0,0,0,0,0,0,0,3196,147,106,0,0,0,0,0,172,0,0,0,0
PY,Paraguay,country,Latin America and the Caribbean,-23.442503,-58.443832,HK,Hong Kong,country,East Asia and Pacific,22.396428,114.109497,19265.260167845,1987,50,0,0,0,0,0,0,0,0,50,0,0,0,0,0,0,0,0,0,0,0,0,0,0
PE,Peru,country,Latin America and the Caribbean,-9.189967,-75.015152,HK,Hong Kong,country,East Asia and Pacific,22.396428,114.109497,18273.6432372328,1987,40,0,0,0,0,0,0,0,0,0,0,40,0,0,0,0,0,0,0,0,0,0,0,0
PH,Philippines,country,East Asia and Pacific,12.879721,121.774017,HK,Hong Kong,country,East Asia and Pacific,22.396428,114.109497,1334.68207060713,1987,55552,592,0,1642,0,529,615,2002,47910,6,3,0,90,1781,163,49,0,131,37,2,0,0,0,0
PL,Poland,country,Europe and Central Asia,51.919438,19.145136,HK,Hong Kong,country,East Asia and Pacific,22.396428,114.109497,8403.40166060393,1987,1149,0,972,0,0,0,0,0,0,0,0,0,0,0,0,0,0,161,16,0,0,0,0,0
PT,Portugal,country,Europe and Central Asia,39.399872,-8.224454,HK,Hong Kong,country,East Asia and Pacific,22.396428,114.109497,10916.4701735176,1987,431,0,0,0,0,0,0,0,0,0,0,0,0,202,0,212,0,15,2,0,0,0,0,0
PR,Puerto Rico,country,Latin America and the Caribbean,18.220833,-66.590149,HK,Hong Kong,country,East Asia and Pacific,22.396428,114.109497,15515.3740848971,1987,292,0,0,1,0,0,0,0,0,0,0,0,0,291,0,0,0,0,0,0,0,0,0,0
KR,"Korea, Rep.",country,East Asia and Pacific,35.907757,127.766922,HK,Hong Kong,country,East Asia and Pacific,22.396428,114.109497,2001.83242604701,1987,119138,1566,0,103380,0,0,0,2592,166,826,0,13,53,9543,0,860,0,92,0,47,0,0,0,0
SA,Saudi Arabia,country,Middle East and North Africa,23.885942,45.079162,HK,Hong Kong,country,East Asia and Pacific,22.396428,114.109497,6992.86356798329,1987,33,0,0,0,26,7,0,0,0,0,0,0,0,0,0,0,0,0,0,0,0,0,0,0
SC,Seychelles,country,Sub-Saharan Africa,-4.679574,55.491977,HK,Hong Kong,country,East Asia and Pacific,22.396428,114.109497,7050.37678669228,1987,1,0,0,0,0,0,0,0,0,0,0,0,0,1,0,0,0,0,0,0,0,0,0,0
SG,Singapore,country,East Asia and Pacific,1.352083,103.819836,HK,Hong Kong,country,East Asia and Pacific,22.396428,114.109497,2593.89006017595,1987,103126,6451,7,15393,161,657,2203,3990,3482,167,754,960,1058,25477,14637,21383,0,15,6312,19,0,0,0,0
SB,Solomon Islands,country,East Asia and Pacific,-9.64571,160.156194,HK,Hong Kong,country,East Asia and Pacific,22.396428,114.109497,6159.64844116944,1987,36,0,0,0,0,0,0,0,0,0,0,0,0,0,0,0,0,0,0,36,0,0,0,0
SO,Somalia,country,Sub-Saharan Africa,5.152149,46.199616,HK,Hong Kong,country,East Asia and Pacific,22.396428,114.109497,7529.07452882237,1987,46,0,0,0,0,0,0,0,0,0,0,0,0,46,0,0,0,0,0,0,0,0,0,0
ZA,S. Africa,country,Sub-Saharan Africa,-30.559482,22.937506,HK,Hong Kong,country,East Asia and Pacific,22.396428,114.109497,11368.2308324559,1987,53054,2355,0,21634,0,12,0,562,11670,3129,0,0,7,935,10975,265,0,741,0,769,0,0,0,0
ES,Spain,country,Europe and Central Asia,40.463667,-3.74922,HK,Hong Kong,country,East Asia and Pacific,22.396428,114.109497,10538.7859760622,1987,517,1,2,76,0,0,0,151,20,13,29,0,6,21,56,74,0,68,0,0,0,0,0,0
LK,Sri Lanka,country,South Asia,7.873054,80.771797,HK,Hong Kong,country,East Asia and Pacific,22.396428,114.109497,3916.31132901219,1987,1561,0,0,0,0,0,0,0,0,0,0,0,1407,154,0,0,0,0,0,0,0,0,0,0
SD,Sudan,country,Sub-Saharan Africa,12.862807,30.217636,HK,Hong Kong,country,East Asia and Pacific,22.396428,114.109497,8859.66127042641,1987,6311,0,0,0,0,0,0,0,0,6290,0,0,0,21,0,0,0,0,0,0,0,0,0,0
SE,Sweden,country,Europe and Central Asia,60.128161,18.643501,HK,Hong Kong,country,East Asia and Pacific,22.396428,114.109497,8165.26311587527,1987,3254,38,0,7,0,0,0,230,12,0,0,0,0,5,609,3,0,1247,1060,43,0,0,0,0
CH,Switzerland,country,Europe and Central Asia,46.818188,8.227512,HK,Hong Kong,country,East Asia and Pacific,22.396428,114.109497,9349.81980053958,1987,4886,113,0,1628,0,56,3,8,239,122,5,2,984,1129,2,27,0,31,537,0,0,0,0,0
TH,Thailand,country,East Asia and Pacific,15.870032,100.992541,HK,Hong Kong,country,East Asia and Pacific,22.396428,114.109497,1557.93898700177,1987,401355,314124,788,11286,3053,532,4210,4799,25489,863,90,7027,317,16933,110,486,49,1558,9536,154,0,0,0,0
TG,Togo,country,Sub-Saharan Africa,8.619543,0.824782,HK,Hong Kong,country,East Asia and Pacific,22.396428,114.109497,11990.5716455864,1987,397,0,0,0,0,197,0,0,0,200,0,0,0,0,0,0,0,0,0,0,0,0,0,0
TR,Turkey,country,Europe and Central Asia,38.963745,35.243322,HK,Hong Kong,country,East Asia and Pacific,22.396428,114.109497,7543.53328675246,1987,1525,8,0,0,0,0,0,0,194,1254,14,0,0,55,0,0,0,0,0,0,0,0,0,0
UG,Uganda,country,Sub-Saharan Africa,1.373333,32.290275,HK,Hong Kong,country,East Asia and Pacific,22.396428,114.109497,9118.63788193784,1987,0,0,0,0,0,0,0,0,0,0,0,0,0,0,0,0,0,0,0,0,0,0,0,0
AE,United Arab Emirates,country,Middle East and North Africa,23.424076,53.847818,HK,Hong Kong,country,East Asia and Pacific,22.396428,114.109497,6132.56532822792,1987,205,0,0,0,0,120,0,18,0,0,0,0,0,47,0,20,0,0,0,0,0,0,0,0
GB,United Kingdom,country,Europe and Central Asia,55.378051,-3.435973,HK,Hong Kong,country,East Asia and Pacific,22.396428,114.109497,9567.98654457727,1987,29539,5814,23,3539,83,19,33,1470,836,44,16,135,2560,4197,989,5629,19,2118,1885,149,0,0,0,0
TZ,Tanzania,country,Sub-Saharan Africa,-6.369028,34.888822,HK,Hong Kong,country,East Asia and Pacific,22.396428,114.109497,9189.90783033,1987,6225,0,0,0,0,0,0,0,0,6225,0,0,0,0,0,0,0,0,0,0,0,0,0,0
US,USA,country,North America,37.09024,-95.712891,HK,Hong Kong,country,East Asia and Pacific,22.396428,114.109497,12713.7159928997,1987,556163,134418,543,1553,1356,1512,2658,36407,197212,17184,190,10854,1513,48702,7042,19568,83,62962,10681,1808,0,0,0,0
UY,Uruguay,country,Latin America and the Caribbean,-32.522779,-55.765835,HK,Hong Kong,country,East Asia and Pacific,22.396428,114.109497,18532.3094784223,1987,2430,0,0,0,0,0,0,0,0,0,0,0,0,0,0,0,0,2430,0,0,0,0,0,0
RU,Russian Federation,country,Europe and Central Asia,61.52401,105.318756,HK,Hong Kong,country,East Asia and Pacific,22.396428,114.109497,4407.74024068889,1987,9816,0,494,0,0,0,0,0,0,8358,0,0,0,33,0,59,0,0,0,872,0,0,0,0
VU,Vanuatu,country,East Asia and Pacific,-15.376706,166.959158,HK,Hong Kong,country,East Asia and Pacific,22.396428,114.109497,7131.78154469223,1987,17,0,0,0,0,0,0,0,0,0,0,0,0,0,0,0,0,0,0,17,0,0,0,0
VE,Venezuela,country,Latin America and the Caribbean,6.42375,-66.58973,HK,Hong Kong,country,East Asia and Pacific,22.396428,114.109497,16828.355706758,1987,0,0,0,0,0,0,0,0,0,0,0,0,0,0,0,0,0,0,0,0,0,0,0,0
VN,Vietnam,country,East Asia and Pacific,14.058324,108.277199,HK,Hong Kong,country,East Asia and Pacific,22.396428,114.109497,1113.95857390625,1987,56459,17061,0,0,6265,1814,12318,113,882,126,1974,478,2475,5189,730,0,0,250,3346,3438,0,0,0,0
BA,Bosnia & Herzegovina,country,Europe and Central Asia,43.915886,17.679076,HK,Hong Kong,country,East Asia and Pacific,22.396428,114.109497,8801.58197685603,1987,26,0,0,22,0,0,0,0,0,0,0,0,0,0,0,4,0,0,0,0,0,0,0,0
ZM,Zambia,country,Sub-Saharan Africa,-13.133897,27.849332,HK,Hong Kong,country,East Asia and Pacific,22.396428,114.109497,10196.3954516003,1987,0,0,0,0,0,0,0,0,0,0,0,0,0,0,0,0,0,0,0,0,0,0,0,0
ZW,Zimbabwe,country,Sub-Saharan Africa,-19.015438,29.154857,HK,Hong Kong,country,East Asia and Pacific,22.396428,114.109497,10320.3548174353,1987,1581,0,0,0,0,0,0,0,0,844,0,0,0,665,0,0,0,72,0,0,0,0,0,0
AR,Argentina,country,Latin America and the Caribbean,-38.416097,-63.616672,HK,Hong Kong,country,East Asia and Pacific,22.396428,114.109497,18241.0711946673,1988,30456,0,0,0,0,0,0,0,8910,9784,0,0,0,5,0,0,0,11757,0,0,0,0,0,0
AU,Australia,country,East Asia and Pacific,-25.274398,133.775136,HK,Hong Kong,country,East Asia and Pacific,22.396428,114.109497,5715.74799743523,1988,156428,67406,343,667,14,98,25,14153,14624,10793,41,6960,2247,2524,6530,1796,20,8865,18342,1000,0,0,0,0
AT,Austria,country,Europe and Central Asia,47.516231,14.550072,HK,Hong Kong,country,East Asia and Pacific,22.396428,114.109497,8882.00143487563,1988,896,13,226,12,0,0,2,134,166,0,23,0,22,37,0,8,0,0,253,0,0,0,0,0
BH,Bahrain,country,Middle East and North Africa,25.930414,50.637772,HK,Hong Kong,country,East Asia and Pacific,22.396428,114.109497,6395.68679765839,1988,7,0,0,0,0,7,0,0,0,0,0,0,0,0,0,0,0,0,0,0,0,0,0,0
BD,Bangladesh,country,South Asia,23.684994,90.356331,HK,Hong Kong,country,East Asia and Pacific,22.396428,114.109497,2434.69734247981,1988,1,0,0,0,0,0,0,0,1,0,0,0,0,0,0,0,0,0,0,0,0,0,0,0
BE,Belgium,country,Europe and Central Asia,50.503887,4.469936,HK,Hong Kong,country,East Asia and Pacific,22.396428,114.109497,9403.13526781859,1988,14549,2260,74,318,15,0,0,71,0,0,0,92,132,473,2702,1161,0,1361,5457,433,0,0,0,0
BZ,Belize,country,Latin America and the Caribbean,17.189877,-88.49765,HK,Hong Kong,country,East Asia and Pacific,22.396428,114.109497,14989.375558158,1988,500,0,0,0,0,0,0,0,0,0,0,0,0,0,500,0,0,0,0,0,0,0,0,0
BO,Bolivia,country,Latin America and the Caribbean,-16.290154,-63.588653,HK,Hong Kong,country,East Asia and Pacific,22.396428,114.109497,19316.0962056682,1988,0,0,0,0,0,0,0,0,0,0,0,0,0,0,0,0,0,0,0,0,0,0,0,0
BW,Botswana,country,Sub-Saharan Africa,-22.328474,24.684866,HK,Hong Kong,country,East Asia and Pacific,22.396428,114.109497,10889.9362728192,1988,12,0,0,0,0,0,0,0,0,0,0,0,0,0,0,0,0,12,0,0,0,0,0,0
BR,Brazil,country,Latin America and the Caribbean,-14.235004,-51.92528,HK,Hong Kong,country,East Asia and Pacific,22.396428,114.109497,18306.1615705447,1988,64316,0,0,26,0,0,0,26,100,12269,97,0,1528,4201,11509,0,0,34436,0,124,0,0,0,0
BF,Burkina Faso,country,Sub-Saharan Africa,12.238333,-1.561593,HK,Hong Kong,country,East Asia and Pacific,22.396428,114.109497,12033.5187979411,1988,20,0,0,0,0,0,0,0,0,20,0,0,0,0,0,0,0,0,0,0,0,0,0,0
KH,Cambodia,country,East Asia and Pacific,12.565679,104.990963,HK,Hong Kong,country,East Asia and Pacific,22.396428,114.109497,1460.0811164022,1988,18,0,0,0,0,0,0,0,0,0,0,0,0,18,0,0,0,0,0,0,0,0,0,0
CA,Canada,country,North America,56.130366,-106.346771,HK,Hong Kong,country,East Asia and Pacific,22.396428,114.109497,10502.1050885388,1988,51611,12409,165,80,20,19,16265,166,4138,0,7,5062,68,3245,4589,248,0,4365,716,49,0,0,0,0
CL,Chile,country,Latin America and the Caribbean,-35.675147,-71.542969,HK,Hong Kong,country,East Asia and Pacific,22.396428,114.109497,18461.1184276931,1988,13592,0,0,13,0,0,0,360,12993,21,0,0,7,12,0,13,0,173,0,0,0,0,0,0
MO,"Macao SAR, China",country,East Asia and Pacific,22.198745,113.543873,HK,Hong Kong,country,East Asia and Pacific,22.396428,114.109497,62.274473695268,1988,5719,93,0,107,37,19,49,86,232,564,3,82,28,1476,10,2252,98,231,305,145,0,0,0,0
CN,China,country,East Asia and Pacific,35.86166,104.195397,HK,Hong Kong,country,East Asia and Pacific,22.396428,114.109497,1779.71468142797,1988,2456078,180878,29067,94057,109788,17995,88326,360656,118337,83028,29244,348769,18119,181780,11282,576020,47648,92411,71874,44447,0,0,0,0
TW,Taiwan,country,East Asia and Pacific,23.69781,120.960515,HK,Hong Kong,country,East Asia and Pacific,22.396428,114.109497,716.490551733354,1988,131183,5648,6007,693,300,61,1649,60247,20871,2206,103,15242,203,13320,1003,2418,114,54,213,945,0,0,0,0
CO,Colombia,country,Latin America and the Caribbean,4.570868,-74.297333,HK,Hong Kong,country,East Asia and Pacific,22.396428,114.109497,16899.0961351163,1988,14,0,0,0,0,0,0,0,0,0,0,0,0,14,0,0,0,0,0,0,0,0,0,0
CG,"Congo, Rep.",country,Sub-Saharan Africa,-0.228021,15.827659,HK,Hong Kong,country,East Asia and Pacific,22.396428,114.109497,10880.4612892507,1988,12,0,0,0,0,0,0,0,0,0,0,0,0,12,0,0,0,0,0,0,0,0,0,0
CR,Costa Rica,country,Latin America and the Caribbean,9.748917,-83.753428,HK,Hong Kong,country,East Asia and Pacific,22.396428,114.109497,15962.7507466209,1988,1190,0,0,0,0,0,0,0,0,0,0,0,1190,0,0,0,0,0,0,0,0,0,0,0
CI,Ivory Coast,country,Sub-Saharan Africa,7.539989,-5.54708,HK,Hong Kong,country,East Asia and Pacific,22.396428,114.109497,12668.0234094945,1988,499,0,0,0,0,0,0,0,0,499,0,0,0,0,0,0,0,0,0,0,0,0,0,0
CU,Cuba,country,Latin America and the Caribbean,21.521757,-77.781167,HK,Hong Kong,country,East Asia and Pacific,22.396428,114.109497,14981.1159798285,1988,3,0,0,0,0,0,0,0,0,0,0,0,0,3,0,0,0,0,0,0,0,0,0,0
CY,Cyprus,country,Europe and Central Asia,35.126413,33.429859,HK,Hong Kong,country,East Asia and Pacific,22.396428,114.109497,7794.56015784003,1988,223,0,0,0,0,0,0,0,0,0,0,0,0,219,0,4,0,0,0,0,0,0,0,0
CZ,Czech Republic,country,Europe and Central Asia,49.817492,15.472962,HK,Hong Kong,country,East Asia and Pacific,22.396428,114.109497,8724.64170148005,1988,157,0,0,0,0,0,0,0,0,0,0,0,0,0,0,0,0,0,145,12,0,0,0,0
KP,"Korea, Dem. Rep.",country,East Asia and Pacific,40.339852,127.510093,HK,Hong Kong,country,East Asia and Pacific,22.396428,114.109497,2362.61396027019,1988,2609,0,0,51,0,1857,195,18,0,168,0,0,0,297,0,0,0,23,0,0,0,0,0,0
DK,Denmark,country,Europe and Central Asia,56.26392,9.501785,HK,Hong Kong,country,East Asia and Pacific,22.396428,114.109497,8816.68547695129,1988,17059,3579,220,32,0,0,0,3,636,0,0,40,31,470,43,105,0,7628,4272,0,0,0,0,0
DJ,Djibouti,country,Middle East and North Africa,11.825138,42.590275,HK,Hong Kong,country,East Asia and Pacific,22.396428,114.109497,7636.11435693242,1988,11,0,0,0,0,0,0,0,0,0,0,0,0,11,0,0,0,0,0,0,0,0,0,0
EC,Ecuador,country,Latin America and the Caribbean,-1.831239,-78.183406,HK,Hong Kong,country,East Asia and Pacific,22.396428,114.109497,17390.0920467956,1988,13,0,0,0,0,0,0,0,0,0,0,0,13,0,0,0,0,0,0,0,0,0,0,0
EG,Egypt,country,Middle East and North Africa,26.820553,30.802498,HK,Hong Kong,country,East Asia and Pacific,22.396428,114.109497,8287.74431451014,1988,82,0,0,0,0,0,0,0,0,82,0,0,0,0,0,0,0,0,0,0,0,0,0,0
SV,El Salvador,country,Latin America and the Caribbean,13.794185,-88.89653,HK,Hong Kong,country,East Asia and Pacific,22.396428,114.109497,15291.0034425231,1988,12,0,0,0,0,0,0,0,0,0,12,0,0,0,0,0,0,0,0,0,0,0,0,0
ET,Ethiopia,country,Sub-Saharan Africa,9.145,40.489673,HK,Hong Kong,country,East Asia and Pacific,22.396428,114.109497,7954.80745280836,1988,0,0,0,0,0,0,0,0,0,0,0,0,0,0,0,0,0,0,0,0,0,0,0,0
FJ,Fiji,country,East Asia and Pacific,-16.578193,179.414413,HK,Hong Kong,country,East Asia and Pacific,22.396428,114.109497,8331.2109237792,1988,373,0,0,0,0,0,0,173,0,0,0,0,0,13,0,0,0,0,0,187,0,0,0,0
FI,Finland,country,Europe and Central Asia,61.92411,25.748151,HK,Hong Kong,country,East Asia and Pacific,22.396428,114.109497,7747.50800074592,1988,586,0,0,0,0,0,0,0,0,0,0,0,16,0,0,10,0,0,560,0,0,0,0,0
FR,France,country,Europe and Central Asia,46.227638,2.213749,HK,Hong Kong,country,East Asia and Pacific,22.396428,114.109497,9785.24090761307,1988,38000,8861,3637,622,0,5,41,191,234,84,13,284,315,2961,121,15810,12,2891,1772,158,0,0,0,0
GH,Ghana,country,Sub-Saharan Africa,7.946527,-1.023194,HK,Hong Kong,country,East Asia and Pacific,22.396428,114.109497,12205.9167588467,1988,0,0,0,0,0,0,0,0,0,0,0,0,0,0,0,0,0,0,0,0,0,0,0,0
GR,Greece,country,Europe and Central Asia,39.074208,21.824312,HK,Hong Kong,country,East Asia and Pacific,22.396428,114.109497,8659.2365233818,1988,324,0,0,0,0,0,0,0,86,0,0,0,2,7,0,229,0,0,0,0,0,0,0,0
GD,Grenada,country,Latin America and the Caribbean,12.262776,-61.604171,HK,Hong Kong,country,East Asia and Pacific,22.396428,114.109497,16151.0121690511,1988,6,0,0,0,0,0,0,0,0,0,0,0,0,0,0,6,0,0,0,0,0,0,0,0
GT,Guatemala,country,Latin America and the Caribbean,15.783471,-90.230759,HK,Hong Kong,country,East Asia and Pacific,22.396428,114.109497,15027.0864784705,1988,35,0,0,0,0,0,0,0,0,0,0,0,35,0,0,0,0,0,0,0,0,0,0,0
GY,Guyana,country,Latin America and the Caribbean,4.860416,-58.93018,HK,Hong Kong,country,East Asia and Pacific,22.396428,114.109497,16910.0574407299,1988,9,0,0,0,0,0,0,0,0,0,0,0,0,0,0,9,0,0,0,0,0,0,0,0
HN,Honduras,country,Latin America and the Caribbean,15.199999,-86.241905,HK,Hong Kong,country,East Asia and Pacific,22.396428,114.109497,15300.3462890196,1988,290,0,0,0,0,0,0,0,0,0,0,0,290,0,0,0,0,0,0,0,0,0,0,0
HU,Hungary,country,Europe and Central Asia,47.162494,19.503304,HK,Hong Kong,country,East Asia and Pacific,22.396428,114.109497,8545.6911150926,1988,3489,0,0,0,0,0,0,48,0,0,0,0,0,16,0,0,0,3425,0,0,0,0,0,0
IN,India,country,South Asia,20.593684,78.96288,HK,Hong Kong,country,East Asia and Pacific,22.396428,114.109497,3637.78716429995,1988,2994,33,0,0,121,1145,0,44,22,9,296,0,0,1322,2,0,0,0,0,0,0,0,0,0
ID,Indonesia,country,East Asia and Pacific,-0.789275,113.921327,HK,Hong Kong,country,East Asia and Pacific,22.396428,114.109497,2581.10141824003,1988,50365,652,19,176,0,3402,7,846,214,25,2340,2007,8232,31848,306,131,1,160,0,0,0,0,0,0
IR,Iran,country,Middle East and North Africa,32.427908,53.688046,HK,Hong Kong,country,East Asia and Pacific,22.396428,114.109497,5997.47837805847,1988,289,0,0,0,0,289,0,0,0,0,0,0,0,0,0,0,0,0,0,0,0,0,0,0
IE,Ireland,country,Europe and Central Asia,53.41291,-8.24389,HK,Hong Kong,country,East Asia and Pacific,22.396428,114.109497,9948.41595196937,1988,555,0,0,20,0,0,0,0,0,0,0,0,0,406,0,0,0,25,104,0,0,0,0,0
IL,Israel,country,Middle East and North Africa,31.046051,34.851612,HK,Hong Kong,country,East Asia and Pacific,22.396428,114.109497,7777.95427366951,1988,971,0,0,0,0,0,34,62,262,0,0,20,0,33,0,1,4,0,559,0,0,0,0,0
IT,Italy,country,Europe and Central Asia,41.87194,12.56738,HK,Hong Kong,country,East Asia and Pacific,22.396428,114.109497,9273.63108306991,1988,13523,3226,0,757,0,137,0,173,16,2316,3,2,721,404,83,735,0,419,109,4422,0,0,0,0
JM,Jamaica,country,Latin America and the Caribbean,18.109581,-77.297508,HK,Hong Kong,country,East Asia and Pacific,22.396428,114.109497,15360.5141179002,1988,5,0,0,0,0,0,5,0,0,0,0,0,0,0,0,0,0,0,0,0,0,0,0,0
JP,Japan,country,East Asia and Pacific,36.204824,138.252924,HK,Hong Kong,country,East Asia and Pacific,22.396428,114.109497,2790.06002661141,1988,160990,96578,136,4755,49,93,253,843,7537,579,154,20347,520,7663,3761,4797,0,12216,97,612,0,0,0,0
KE,Kenya,country,Sub-Saharan Africa,-0.023559,37.906193,HK,Hong Kong,country,East Asia and Pacific,22.396428,114.109497,8601.81788260244,1988,437,0,0,0,0,288,0,0,0,0,0,0,60,13,0,0,0,0,0,76,0,0,0,0
MG,Madagascar,country,Sub-Saharan Africa,-18.766947,46.869107,HK,Hong Kong,country,East Asia and Pacific,22.396428,114.109497,8629.55259567838,1988,20,0,0,0,0,0,0,0,0,0,0,0,0,20,0,0,0,0,0,0,0,0,0,0
MY,Malaysia,country,East Asia and Pacific,4.210484,101.975766,HK,Hong Kong,country,East Asia and Pacific,22.396428,114.109497,2410.16537078811,1988,49088,628,0,3733,34,2,4021,392,9218,707,30,185,1751,15171,6933,294,0,16,5973,0,0,0,0,0
ML,Mali,country,Sub-Saharan Africa,17.570692,-3.996166,HK,Hong Kong,country,East Asia and Pacific,22.396428,114.109497,11963.6088852354,1988,136,0,0,0,0,0,0,0,0,0,0,0,0,136,0,0,0,0,0,0,0,0,0,0
MU,Mauritius,country,Sub-Saharan Africa,-20.348404,57.552152,HK,Hong Kong,country,East Asia and Pacific,22.396428,114.109497,7770.45178057071,1988,0,0,0,0,0,0,0,0,0,0,0,0,0,0,0,0,0,0,0,0,0,0,0,0
MX,Mexico,country,Latin America and the Caribbean,23.634501,-102.552784,HK,Hong Kong,country,East Asia and Pacific,22.396428,114.109497,13556.8200698007,1988,320,0,0,0,0,0,0,43,0,168,0,0,35,0,0,74,0,0,0,0,0,0,0,0
MN,Mongolia,country,East Asia and Pacific,46.862496,103.846656,HK,Hong Kong,country,East Asia and Pacific,22.396428,114.109497,2875.35864589832,1988,7,0,0,0,0,0,0,0,0,0,0,0,0,7,0,0,0,0,0,0,0,0,0,0
MA,Morocco,country,Middle East and North Africa,31.791702,-7.09262,HK,Hong Kong,country,East Asia and Pacific,22.396428,114.109497,11344.6629127389,1988,52,0,0,0,0,0,0,0,0,52,0,0,0,0,0,0,0,0,0,0,0,0,0,0
MZ,Mozambique,country,Sub-Saharan Africa,-18.665695,35.529562,HK,Hong Kong,country,East Asia and Pacific,22.396428,114.109497,9690.16666046945,1988,27265,0,0,24775,0,0,0,0,0,0,0,0,0,14,2476,0,0,0,0,0,0,0,0,0
MM,Myanmar,country,East Asia and Pacific,21.913965,95.956223,HK,Hong Kong,country,East Asia and Pacific,22.396428,114.109497,1871.24782839445,1988,200,0,60,0,0,0,0,0,0,0,0,0,0,13,0,0,0,0,0,127,0,0,0,0
NP,Nepal,country,South Asia,28.394857,84.124008,HK,Hong Kong,country,East Asia and Pacific,22.396428,114.109497,3079.87405816682,1988,1,0,0,0,0,0,0,0,0,0,0,0,0,1,0,0,0,0,0,0,0,0,0,0
NL,Netherlands,country,Europe and Central Asia,52.132633,5.291266,HK,Hong Kong,country,East Asia and Pacific,22.396428,114.109497,9266.1960756805,1988,82569,3343,12622,1066,0,0,1,428,79,0,172,221,1254,1068,11457,943,4,10862,38001,1052,0,0,0,0
NZ,New Zealand,country,East Asia and Pacific,-40.900557,174.885971,HK,Hong Kong,country,East Asia and Pacific,22.396428,114.109497,9432.9557257228,1988,30706,59,30,14,143,0,0,4924,5195,5410,0,2258,24,203,238,87,0,5003,7118,0,0,0,0,0
NG,Nigeria,country,Sub-Saharan Africa,9.081999,8.675277,HK,Hong Kong,country,East Asia and Pacific,22.396428,114.109497,11191.4700865662,1988,4941,0,0,0,0,981,0,0,0,0,0,0,0,3960,0,0,0,0,0,0,0,0,0,0
NO,Norway,country,Europe and Central Asia,60.472024,8.468946,HK,Hong Kong,country,East Asia and Pacific,22.396428,114.109497,8677.94316454719,1988,408,18,0,0,0,0,0,0,0,0,0,0,0,1,0,10,0,364,15,0,0,0,0,0
PK,Pakistan,country,South Asia,30.375321,69.345116,HK,Hong Kong,country,East Asia and Pacific,22.396428,114.109497,4522.17029831529,1988,104973,0,0,1,0,0,0,0,29,104861,3,0,0,79,0,0,0,0,0,0,0,0,0,0
PA,Panama,country,Latin America and the Caribbean,8.537981,-80.782127,HK,Hong Kong,country,East Asia and Pacific,22.396428,114.109497,16230.007220814,1988,177,2,0,0,5,0,0,0,2,0,0,0,122,37,0,9,0,0,0,0,0,0,0,0
PG,Papua New Guinea,country,East Asia and Pacific,-6.314993,143.95555,HK,Hong Kong,country,East Asia and Pacific,22.396428,114.109497,4559.67115376636,1988,5607,0,0,0,0,0,0,0,0,0,0,3630,1418,396,0,0,0,0,1,162,0,0,0,0
PY,Paraguay,country,Latin America and the Caribbean,-23.442503,-58.443832,HK,Hong Kong,country,East Asia and Pacific,22.396428,114.109497,19265.260167845,1988,2425,0,0,0,0,0,0,0,0,2425,0,0,0,0,0,0,0,0,0,0,0,0,0,0
PE,Peru,country,Latin America and the Caribbean,-9.189967,-75.015152,HK,Hong Kong,country,East Asia and Pacific,22.396428,114.109497,18273.6432372328,1988,99,0,0,0,0,0,0,0,0,0,0,0,97,0,0,0,0,2,0,0,0,0,0,0
PH,Philippines,country,East Asia and Pacific,12.879721,121.774017,HK,Hong Kong,country,East Asia and Pacific,22.396428,114.109497,1334.68207060713,1988,55846,263,0,1886,0,949,637,3608,43605,30,0,0,730,3472,289,91,0,202,51,33,0,0,0,0
PL,Poland,country,Europe and Central Asia,51.919438,19.145136,HK,Hong Kong,country,East Asia and Pacific,22.396428,114.109497,8403.40166060393,1988,1584,0,1351,0,0,0,0,0,0,0,0,0,0,0,0,0,0,193,40,0,0,0,0,0
PT,Portugal,country,Europe and Central Asia,39.399872,-8.224454,HK,Hong Kong,country,East Asia and Pacific,22.396428,114.109497,10916.4701735176,1988,394,0,0,1,4,0,0,7,5,0,0,0,3,145,0,218,0,10,1,0,0,0,0,0
KR,"Korea, Rep.",country,East Asia and Pacific,35.907757,127.766922,HK,Hong Kong,country,East Asia and Pacific,22.396428,114.109497,2001.83242604701,1988,139380,1721,0,115133,3,59,38,2647,379,899,60,0,88,8501,87,8834,0,53,2,876,0,0,0,0
SA,Saudi Arabia,country,Middle East and North Africa,23.885942,45.079162,HK,Hong Kong,country,East Asia and Pacific,22.396428,114.109497,6992.86356798329,1988,64,0,0,0,0,0,0,0,0,0,0,0,0,64,0,0,0,0,0,0,0,0,0,0
SN,Senegal,country,Sub-Saharan Africa,14.497401,-14.452362,HK,Hong Kong,country,East Asia and Pacific,22.396428,114.109497,13086.2114601148,1988,277,0,0,0,0,0,0,0,0,260,0,0,0,17,0,0,0,0,0,0,0,0,0,0
SC,Seychelles,country,Sub-Saharan Africa,-4.679574,55.491977,HK,Hong Kong,country,East Asia and Pacific,22.396428,114.109497,7050.37678669228,1988,0,0,0,0,0,0,0,0,0,0,0,0,0,0,0,0,0,0,0,0,0,0,0,0
SG,Singapore,country,East Asia and Pacific,1.352083,103.819836,HK,Hong Kong,country,East Asia and Pacific,22.396428,114.109497,2593.89006017595,1988,134604,7500,68,23072,513,374,3350,4798,3641,607,1896,1140,3585,32657,19044,24431,10,199,7559,170,0,0,0,0
SB,Solomon Islands,country,East Asia and Pacific,-9.64571,160.156194,HK,Hong Kong,country,East Asia and Pacific,22.396428,114.109497,6159.64844116944,1988,306,0,0,0,0,0,0,0,0,0,0,255,0,51,0,0,0,0,0,0,0,0,0,0
SO,Somalia,country,Sub-Saharan Africa,5.152149,46.199616,HK,Hong Kong,country,East Asia and Pacific,22.396428,114.109497,7529.07452882237,1988,107,0,0,0,0,0,0,0,0,0,0,0,0,107,0,0,0,0,0,0,0,0,0,0
ZA,S. Africa,country,Sub-Saharan Africa,-30.559482,22.937506,HK,Hong Kong,country,East Asia and Pacific,22.396428,114.109497,11368.2308324559,1988,42554,3453,0,5522,0,58,0,250,17492,1331,0,0,296,1627,11476,220,0,665,102,62,0,0,0,0
ES,Spain,country,Europe and Central Asia,40.463667,-3.74922,HK,Hong Kong,country,East Asia and Pacific,22.396428,114.109497,10538.7859760622,1988,1224,34,0,121,0,0,0,129,63,0,8,29,0,21,55,80,0,552,0,132,0,0,0,0
LK,Sri Lanka,country,South Asia,7.873054,80.771797,HK,Hong Kong,country,East Asia and Pacific,22.396428,114.109497,3916.31132901219,1988,1630,0,0,0,0,32,0,0,0,1,10,0,1329,258,0,0,0,0,0,0,0,0,0,0
SD,Sudan,country,Sub-Saharan Africa,12.862807,30.217636,HK,Hong Kong,country,East Asia and Pacific,22.396428,114.109497,8859.66127042641,1988,813,0,0,0,0,0,0,0,0,761,0,0,0,52,0,0,0,0,0,0,0,0,0,0
SR,Suriname,country,Latin America and the Caribbean,3.919305,-56.027783,HK,Hong Kong,country,East Asia and Pacific,22.396428,114.109497,16917.6410839933,1988,50,0,0,0,0,0,0,0,0,50,0,0,0,0,0,0,0,0,0,0,0,0,0,0
SE,Sweden,country,Europe and Central Asia,60.128161,18.643501,HK,Hong Kong,country,East Asia and Pacific,22.396428,114.109497,8165.26311587527,1988,2388,0,0,6,0,0,0,144,0,0,2,8,6,11,2,3,0,1472,716,18,0,0,0,0
CH,Switzerland,country,Europe and Central Asia,46.818188,8.227512,HK,Hong Kong,country,East Asia and Pacific,22.396428,114.109497,9349.81980053958,1988,4414,50,0,1159,0,56,2,12,262,5,1,31,1124,1179,0,39,0,31,370,93,0,0,0,0
TH,Thailand,country,East Asia and Pacific,15.870032,100.992541,HK,Hong Kong,country,East Asia and Pacific,22.396428,114.109497,1557.93898700177,1988,407750,247203,1519,17204,2705,965,4635,7976,37357,478,329,53587,1127,22322,80,691,63,3410,5222,940,0,0,0,0
TG,Togo,country,Sub-Saharan Africa,8.619543,0.824782,HK,Hong Kong,country,East Asia and Pacific,22.396428,114.109497,11990.5716455864,1988,1110,0,0,0,0,1110,0,0,0,0,0,0,0,0,0,0,0,0,0,0,0,0,0,0
TR,Turkey,country,Europe and Central Asia,38.963745,35.243322,HK,Hong Kong,country,East Asia and Pacific,22.396428,114.109497,7543.53328675246,1988,964,0,0,0,0,0,0,0,279,591,49,0,0,45,0,0,0,0,0,0,0,0,0,0
UG,Uganda,country,Sub-Saharan Africa,1.373333,32.290275,HK,Hong Kong,country,East Asia and Pacific,22.396428,114.109497,9118.63788193784,1988,0,0,0,0,0,0,0,0,0,0,0,0,0,0,0,0,0,0,0,0,0,0,0,0
AE,United Arab Emirates,country,Middle East and North Africa,23.424076,53.847818,HK,Hong Kong,country,East Asia and Pacific,22.396428,114.109497,6132.56532822792,1988,2455,0,0,0,0,696,0,0,1500,108,0,0,0,149,2,0,0,0,0,0,0,0,0,0
GB,United Kingdom,country,Europe and Central Asia,55.378051,-3.435973,HK,Hong Kong,country,East Asia and Pacific,22.396428,114.109497,9567.98654457727,1988,31039,5333,3,2283,8,5,53,1342,721,16,5,107,3138,5875,773,4834,3,3644,2611,288,0,0,0,0
TZ,Tanzania,country,Sub-Saharan Africa,-6.369028,34.888822,HK,Hong Kong,country,East Asia and Pacific,22.396428,114.109497,9189.90783033,1988,5703,0,0,0,0,0,0,0,0,5682,0,0,0,21,0,0,0,0,0,0,0,0,0,0
US,USA,country,North America,37.09024,-95.712891,HK,Hong Kong,country,East Asia and Pacific,22.396428,114.109497,12713.7159928997,1988,569036,120103,4509,2080,2051,2013,1925,53187,193458,12726,240,23320,3989,58226,3797,6474,178,59915,18900,2123,0,0,0,0
UY,Uruguay,country,Latin America and the Caribbean,-32.522779,-55.765835,HK,Hong Kong,country,East Asia and Pacific,22.396428,114.109497,18532.3094784223,1988,3141,0,0,0,0,0,0,0,0,303,0,0,0,0,0,0,0,2838,0,0,0,0,0,0
RU,Russian Federation,country,Europe and Central Asia,61.52401,105.318756,HK,Hong Kong,country,East Asia and Pacific,22.396428,114.109497,4407.74024068889,1988,8220,0,204,0,0,0,0,0,0,7879,0,0,0,18,0,71,0,0,0,48,0,0,0,0
VE,Venezuela,country,Latin America and the Caribbean,6.42375,-66.58973,HK,Hong Kong,country,East Asia and Pacific,22.396428,114.109497,16828.355706758,1988,450,0,0,0,0,0,0,0,0,0,0,0,450,0,0,0,0,0,0,0,0,0,0,0
VN,Vietnam,country,East Asia and Pacific,14.058324,108.277199,HK,Hong Kong,country,East Asia and Pacific,22.396428,114.109497,1113.95857390625,1988,42644,9882,0,0,4085,2442,5577,48,858,356,729,2174,2771,8341,336,0,0,350,2261,2434,0,0,0,0
BA,Bosnia & Herzegovina,country,Europe and Central Asia,43.915886,17.679076,HK,Hong Kong,country,East Asia and Pacific,22.396428,114.109497,8801.58197685603,1988,39,0,0,33,0,0,6,0,0,0,0,0,0,0,0,0,0,0,0,0,0,0,0,0
ZM,Zambia,country,Sub-Saharan Africa,-13.133897,27.849332,HK,Hong Kong,country,East Asia and Pacific,22.396428,114.109497,10196.3954516003,1988,1,0,0,0,0,0,0,0,0,0,0,0,0,1,0,0,0,0,0,0,0,0,0,0
ZW,Zimbabwe,country,Sub-Saharan Africa,-19.015438,29.154857,HK,Hong Kong,country,East Asia and Pacific,22.396428,114.109497,10320.3548174353,1988,17823,0,0,16000,0,0,0,0,0,0,0,0,0,1823,0,0,0,0,0,0,0,0,0,0
DZ,Algeria,country,Middle East and North Africa,28.033886,1.659626,HK,Hong Kong,country,East Asia and Pacific,22.396428,114.109497,10866.8047962523,1989,0,0,0,0,0,0,0,0,0,0,0,0,0,0,0,0,0,0,0,0,0,0,0,0
AR,Argentina,country,Latin America and the Caribbean,-38.416097,-63.616672,HK,Hong Kong,country,East Asia and Pacific,22.396428,114.109497,18241.0711946673,1989,25831,0,0,0,0,0,0,19,681,10543,0,0,0,56,0,0,0,14532,0,0,0,0,0,0
AU,Australia,country,East Asia and Pacific,-25.274398,133.775136,HK,Hong Kong,country,East Asia and Pacific,22.396428,114.109497,5715.74799743523,1989,178513,87493,395,769,43,51,10,13353,11498,16124,15,8269,2215,1995,6483,2537,10,8865,17916,482,0,0,0,0
AT,Austria,country,Europe and Central Asia,47.516231,14.550072,HK,Hong Kong,country,East Asia and Pacific,22.396428,114.109497,8882.00143487563,1989,756,26,0,12,0,0,1,50,108,0,17,0,309,38,4,26,0,0,165,0,0,0,0,0
BH,Bahrain,country,Middle East and North Africa,25.930414,50.637772,HK,Hong Kong,country,East Asia and Pacific,22.396428,114.109497,6395.68679765839,1989,20,0,0,0,0,0,0,15,0,0,0,0,0,4,0,1,0,0,0,0,0,0,0,0
BD,Bangladesh,country,South Asia,23.684994,90.356331,HK,Hong Kong,country,East Asia and Pacific,22.396428,114.109497,2434.69734247981,1989,77,0,0,0,0,0,0,0,0,0,0,0,0,0,0,0,0,77,0,0,0,0,0,0
BE,Belgium,country,Europe and Central Asia,50.503887,4.469936,HK,Hong Kong,country,East Asia and Pacific,22.396428,114.109497,9403.13526781859,1989,27262,1235,20,317,7,0,0,325,32,217,0,967,195,442,14849,1283,0,1115,5732,526,0,0,0,0
BJ,Benin,country,Sub-Saharan Africa,9.30769,2.315834,HK,Hong Kong,country,East Asia and Pacific,22.396428,114.109497,11809.6898192153,1989,2234,0,0,0,0,267,0,0,0,1967,0,0,0,0,0,0,0,0,0,0,0,0,0,0
BW,Botswana,country,Sub-Saharan Africa,-22.328474,24.684866,HK,Hong Kong,country,East Asia and Pacific,22.396428,114.109497,10889.9362728192,1989,25,0,0,0,0,0,0,0,0,0,0,0,0,0,0,0,0,25,0,0,0,0,0,0
BR,Brazil,country,Latin America and the Caribbean,-14.235004,-51.92528,HK,Hong Kong,country,East Asia and Pacific,22.396428,114.109497,18306.1615705447,1989,87475,0,0,194,0,0,0,13,99,48785,25,0,51,3583,5468,0,0,29035,0,222,0,0,0,0
BN,Brunei Darussalam,country,,4.535277,114.727669,HK,Hong Kong,country,East Asia and Pacific,22.396428,114.109497,1989.40946092368,1989,74,0,0,0,0,0,0,0,0,0,0,0,0,0,0,0,0,0,0,74,0,0,0,0
BF,Burkina Faso,country,Sub-Saharan Africa,12.238333,-1.561593,HK,Hong Kong,country,East Asia and Pacific,22.396428,114.109497,12033.5187979411,1989,2087,0,0,0,0,0,0,0,0,2087,0,0,0,0,0,0,0,0,0,0,0,0,0,0
CM,Cameroon,country,Sub-Saharan Africa,7.369722,12.354722,HK,Hong Kong,country,East Asia and Pacific,22.396428,114.109497,10901.2872518085,1989,3352,0,0,0,0,0,0,0,0,3352,0,0,0,0,0,0,0,0,0,0,0,0,0,0
CA,Canada,country,North America,56.130366,-106.346771,HK,Hong Kong,country,East Asia and Pacific,22.396428,114.109497,10502.1050885388,1989,49533,13735,162,53,74,3,19271,598,4046,0,29,3135,91,1883,997,388,0,4132,680,256,0,0,0,0
CF,Central African Rep.,country,Sub-Saharan Africa,6.611111,20.939444,HK,Hong Kong,country,East Asia and Pacific,22.396428,114.109497,10062.9070488438,1989,985,0,0,0,0,0,0,0,0,985,0,0,0,0,0,0,0,0,0,0,0,0,0,0
TD,Chad,country,Sub-Saharan Africa,15.454166,18.732207,HK,Hong Kong,country,East Asia and Pacific,22.396428,114.109497,9903.84347999574,1989,1601,0,0,0,0,0,0,0,0,1600,0,0,0,1,0,0,0,0,0,0,0,0,0,0
CL,Chile,country,Latin America and the Caribbean,-35.675147,-71.542969,HK,Hong Kong,country,East Asia and Pacific,22.396428,114.109497,18461.1184276931,1989,22698,0,0,0,0,0,0,55,22059,54,0,0,0,39,0,35,0,456,0,0,0,0,0,0
MO,"Macao SAR, China",country,East Asia and Pacific,22.198745,113.543873,HK,Hong Kong,country,East Asia and Pacific,22.396428,114.109497,62.274473695268,1989,5887,171,10,104,14,9,72,108,191,398,7,52,69,1266,12,2789,41,156,363,96,0,0,0,0
CN,China,country,East Asia and Pacific,35.86166,104.195397,HK,Hong Kong,country,East Asia and Pacific,22.396428,114.109497,1779.71468142797,1989,2348478,137398,25774,81724,63780,24916,77843,376597,109836,38361,31800,272466,15867,206831,23815,676735,46114,90120,58720,35895,0,0,0,0
TW,Taiwan,country,East Asia and Pacific,23.69781,120.960515,HK,Hong Kong,country,East Asia and Pacific,22.396428,114.109497,716.490551733354,1989,130980,5435,6887,899,640,9,2242,56616,21385,2221,58,18124,357,14452,528,320,16,65,186,556,0,0,0,0
CO,Colombia,country,Latin America and the Caribbean,4.570868,-74.297333,HK,Hong Kong,country,East Asia and Pacific,22.396428,114.109497,16899.0961351163,1989,501,0,0,0,0,0,0,0,0,496,0,0,5,0,0,0,0,0,0,0,0,0,0,0
CG,"Congo, Rep.",country,Sub-Saharan Africa,-0.228021,15.827659,HK,Hong Kong,country,East Asia and Pacific,22.396428,114.109497,10880.4612892507,1989,0,0,0,0,0,0,0,0,0,0,0,0,0,0,0,0,0,0,0,0,0,0,0,0
CR,Costa Rica,country,Latin America and the Caribbean,9.748917,-83.753428,HK,Hong Kong,country,East Asia and Pacific,22.396428,114.109497,15962.7507466209,1989,19,0,0,0,0,0,0,0,0,0,0,0,19,0,0,0,0,0,0,0,0,0,0,0
CI,Ivory Coast,country,Sub-Saharan Africa,7.539989,-5.54708,HK,Hong Kong,country,East Asia and Pacific,22.396428,114.109497,12668.0234094945,1989,1494,0,0,0,0,0,0,0,0,1494,0,0,0,0,0,0,0,0,0,0,0,0,0,0
CY,Cyprus,country,Europe and Central Asia,35.126413,33.429859,HK,Hong Kong,country,East Asia and Pacific,22.396428,114.109497,7794.56015784003,1989,196,22,0,0,0,0,0,0,0,0,0,0,0,149,0,25,0,0,0,0,0,0,0,0
KP,"Korea, Dem. Rep.",country,East Asia and Pacific,40.339852,127.510093,HK,Hong Kong,country,East Asia and Pacific,22.396428,114.109497,2362.61396027019,1989,3547,0,5,17,0,2444,66,40,0,245,11,0,0,685,0,8,0,26,0,0,0,0,0,0
DK,Denmark,country,Europe and Central Asia,56.26392,9.501785,HK,Hong Kong,country,East Asia and Pacific,22.396428,114.109497,8816.68547695129,1989,18490,3001,140,15,0,0,0,30,795,0,0,80,12,254,206,25,0,9157,4775,0,0,0,0,0
EC,Ecuador,country,Latin America and the Caribbean,-1.831239,-78.183406,HK,Hong Kong,country,East Asia and Pacific,22.396428,114.109497,17390.0920467956,1989,0,0,0,0,0,0,0,0,0,0,0,0,0,0,0,0,0,0,0,0,0,0,0,0
SV,El Salvador,country,Latin America and the Caribbean,13.794185,-88.89653,HK,Hong Kong,country,East Asia and Pacific,22.396428,114.109497,15291.0034425231,1989,0,0,0,0,0,0,0,0,0,0,0,0,0,0,0,0,0,0,0,0,0,0,0,0
FJ,Fiji,country,East Asia and Pacific,-16.578193,179.414413,HK,Hong Kong,country,East Asia and Pacific,22.396428,114.109497,8331.2109237792,1989,144,0,0,0,0,0,0,98,0,0,0,0,0,0,0,0,0,0,0,46,0,0,0,0
FI,Finland,country,Europe and Central Asia,61.92411,25.748151,HK,Hong Kong,country,East Asia and Pacific,22.396428,114.109497,7747.50800074592,1989,1584,3,0,2,0,0,0,0,0,0,0,0,17,0,0,19,0,175,1368,0,0,0,0,0
FR,France,country,Europe and Central Asia,46.227638,2.213749,HK,Hong Kong,country,East Asia and Pacific,22.396428,114.109497,9785.24090761307,1989,39484,5797,2744,1100,21,4,38,188,321,359,8,466,459,3252,169,19234,15,3429,1895,0,0,0,0,0
GH,Ghana,country,Sub-Saharan Africa,7.946527,-1.023194,HK,Hong Kong,country,East Asia and Pacific,22.396428,114.109497,12205.9167588467,1989,140,0,0,0,0,0,0,0,0,0,0,0,0,140,0,0,0,0,0,0,0,0,0,0
GR,Greece,country,Europe and Central Asia,39.074208,21.824312,HK,Hong Kong,country,East Asia and Pacific,22.396428,114.109497,8659.2365233818,1989,65,13,0,0,0,0,0,0,0,0,0,0,0,14,0,38,0,0,0,0,0,0,0,0
GT,Guatemala,country,Latin America and the Caribbean,15.783471,-90.230759,HK,Hong Kong,country,East Asia and Pacific,22.396428,114.109497,15027.0864784705,1989,888,0,0,0,0,0,0,0,0,888,0,0,0,0,0,0,0,0,0,0,0,0,0,0
HN,Honduras,country,Latin America and the Caribbean,15.199999,-86.241905,HK,Hong Kong,country,East Asia and Pacific,22.396428,114.109497,15300.3462890196,1989,69,0,0,0,0,0,0,0,0,0,0,0,69,0,0,0,0,0,0,0,0,0,0,0
HU,Hungary,country,Europe and Central Asia,47.162494,19.503304,HK,Hong Kong,country,East Asia and Pacific,22.396428,114.109497,8545.6911150926,1989,3295,0,0,20,0,0,0,81,0,0,0,0,0,0,0,0,0,3194,0,0,0,0,0,0
IN,India,country,South Asia,20.593684,78.96288,HK,Hong Kong,country,East Asia and Pacific,22.396428,114.109497,3637.78716429995,1989,2169,86,0,0,406,832,0,44,26,3,125,0,24,623,0,0,0,0,0,0,0,0,0,0
ID,Indonesia,country,East Asia and Pacific,-0.789275,113.921327,HK,Hong Kong,country,East Asia and Pacific,22.396428,114.109497,2581.10141824003,1989,31410,9054,0,732,0,357,81,1878,220,90,319,11238,756,6139,193,132,0,219,0,2,0,0,0,0
IR,Iran,country,Middle East and North Africa,32.427908,53.688046,HK,Hong Kong,country,East Asia and Pacific,22.396428,114.109497,5997.47837805847,1989,747,0,0,0,0,747,0,0,0,0,0,0,0,0,0,0,0,0,0,0,0,0,0,0
IE,Ireland,country,Europe and Central Asia,53.41291,-8.24389,HK,Hong Kong,country,East Asia and Pacific,22.396428,114.109497,9948.41595196937,1989,624,0,0,0,0,0,0,0,0,0,0,0,0,219,0,0,0,25,380,0,0,0,0,0
IL,Israel,country,Middle East and North Africa,31.046051,34.851612,HK,Hong Kong,country,East Asia and Pacific,22.396428,114.109497,7777.95427366951,1989,2366,0,0,0,0,0,0,83,246,260,14,8,18,51,0,0,11,0,1686,0,0,0,0,0
IT,Italy,country,Europe and Central Asia,41.87194,12.56738,HK,Hong Kong,country,East Asia and Pacific,22.396428,114.109497,9273.63108306991,1989,10020,3817,0,43,0,131,0,218,65,37,0,22,880,467,113,298,0,407,97,3425,0,0,0,0
JP,Japan,country,East Asia and Pacific,36.204824,138.252924,HK,Hong Kong,country,East Asia and Pacific,22.396428,114.109497,2790.06002661141,1989,184664,119914,730,4723,23,433,411,1642,5011,297,269,20821,501,6827,4374,3988,3,14409,164,127,0,0,0,0
KE,Kenya,country,Sub-Saharan Africa,-0.023559,37.906193,HK,Hong Kong,country,East Asia and Pacific,22.396428,114.109497,8601.81788260244,1989,135,0,0,0,0,15,0,0,0,0,0,0,41,79,0,0,0,0,0,0,0,0,0,0
MG,Madagascar,country,Sub-Saharan Africa,-18.766947,46.869107,HK,Hong Kong,country,East Asia and Pacific,22.396428,114.109497,8629.55259567838,1989,33,0,0,0,0,0,0,0,0,0,0,0,0,21,0,0,0,0,0,12,0,0,0,0
MY,Malaysia,country,East Asia and Pacific,4.210484,101.975766,HK,Hong Kong,country,East Asia and Pacific,22.396428,114.109497,2410.16537078811,1989,57031,1358,0,3553,16,30,5138,1810,10438,794,13,131,903,11743,12243,1486,0,205,7170,0,0,0,0,0
MT,Malta,country,Middle East and North Africa,35.937496,14.375416,HK,Hong Kong,country,East Asia and Pacific,22.396428,114.109497,9398.78177733022,1989,25,25,0,0,0,0,0,0,0,0,0,0,0,0,0,0,0,0,0,0,0,0,0,0
MU,Mauritius,country,Sub-Saharan Africa,-20.348404,57.552152,HK,Hong Kong,country,East Asia and Pacific,22.396428,114.109497,7770.45178057071,1989,0,0,0,0,0,0,0,0,0,0,0,0,0,0,0,0,0,0,0,0,0,0,0,0
MX,Mexico,country,Latin America and the Caribbean,23.634501,-102.552784,HK,Hong Kong,country,East Asia and Pacific,22.396428,114.109497,13556.8200698007,1989,1665,0,0,9,0,0,0,0,0,1425,0,0,0,9,0,222,0,0,0,0,0,0,0,0
MA,Morocco,country,Middle East and North Africa,31.791702,-7.09262,HK,Hong Kong,country,East Asia and Pacific,22.396428,114.109497,11344.6629127389,1989,25,0,0,0,0,0,0,0,0,25,0,0,0,0,0,0,0,0,0,0,0,0,0,0
MZ,Mozambique,country,Sub-Saharan Africa,-18.665695,35.529562,HK,Hong Kong,country,East Asia and Pacific,22.396428,114.109497,9690.16666046945,1989,48131,0,0,46499,0,0,0,0,0,273,0,0,0,1,1358,0,0,0,0,0,0,0,0,0
MM,Myanmar,country,East Asia and Pacific,21.913965,95.956223,HK,Hong Kong,country,East Asia and Pacific,22.396428,114.109497,1871.24782839445,1989,99,0,45,0,0,0,0,0,0,0,0,0,0,54,0,0,0,0,0,0,0,0,0,0
NL,Netherlands,country,Europe and Central Asia,52.132633,5.291266,HK,Hong Kong,country,East Asia and Pacific,22.396428,114.109497,9266.1960756805,1989,97223,5501,11472,1465,1,0,2,990,93,0,4,239,555,1671,15858,848,2,12919,45141,464,0,0,0,0
NZ,New Zealand,country,East Asia and Pacific,-40.900557,174.885971,HK,Hong Kong,country,East Asia and Pacific,22.396428,114.109497,9432.9557257228,1989,22910,61,20,20,0,0,0,4285,3204,3358,0,1705,26,209,429,79,0,4768,4741,5,0,0,0,0
NG,Nigeria,country,Sub-Saharan Africa,9.081999,8.675277,HK,Hong Kong,country,East Asia and Pacific,22.396428,114.109497,11191.4700865662,1989,2480,0,0,0,0,660,0,0,0,0,0,0,0,1820,0,0,0,0,0,0,0,0,0,0
NO,Norway,country,Europe and Central Asia,60.472024,8.468946,HK,Hong Kong,country,East Asia and Pacific,22.396428,114.109497,8677.94316454719,1989,82,12,0,0,0,0,0,0,0,0,0,0,0,11,0,17,0,32,10,0,0,0,0,0
PK,Pakistan,country,South Asia,30.375321,69.345116,HK,Hong Kong,country,East Asia and Pacific,22.396428,114.109497,4522.17029831529,1989,99219,0,0,0,0,0,0,1,146,98981,6,0,0,85,0,0,0,0,0,0,0,0,0,0
PA,Panama,country,Latin America and the Caribbean,8.537981,-80.782127,HK,Hong Kong,country,East Asia and Pacific,22.396428,114.109497,16230.007220814,1989,57,0,0,0,0,0,0,0,0,0,0,0,0,57,0,0,0,0,0,0,0,0,0,0
PG,Papua New Guinea,country,East Asia and Pacific,-6.314993,143.95555,HK,Hong Kong,country,East Asia and Pacific,22.396428,114.109497,4559.67115376636,1989,4103,0,0,0,0,0,0,0,0,0,0,3585,251,162,0,0,0,0,0,105,0,0,0,0
PY,Paraguay,country,Latin America and the Caribbean,-23.442503,-58.443832,HK,Hong Kong,country,East Asia and Pacific,22.396428,114.109497,19265.260167845,1989,1577,0,0,0,0,0,0,0,0,1577,0,0,0,0,0,0,0,0,0,0,0,0,0,0
PE,Peru,country,Latin America and the Caribbean,-9.189967,-75.015152,HK,Hong Kong,country,East Asia and Pacific,22.396428,114.109497,18273.6432372328,1989,507,0,0,0,0,0,0,0,0,171,0,271,65,0,0,0,0,0,0,0,0,0,0,0
PH,Philippines,country,East Asia and Pacific,12.879721,121.774017,HK,Hong Kong,country,East Asia and Pacific,22.396428,114.109497,1334.68207060713,1989,57522,119,0,1609,8,372,1782,4166,46367,40,0,5,41,2680,8,150,0,119,56,0,0,0,0,0
PL,Poland,country,Europe and Central Asia,51.919438,19.145136,HK,Hong Kong,country,East Asia and Pacific,22.396428,114.109497,8403.40166060393,1989,1082,0,836,0,0,0,0,20,0,0,0,0,0,0,0,0,0,213,13,0,0,0,0,0
PT,Portugal,country,Europe and Central Asia,39.399872,-8.224454,HK,Hong Kong,country,East Asia and Pacific,22.396428,114.109497,10916.4701735176,1989,445,0,0,0,0,0,0,21,0,0,0,0,0,161,0,256,0,7,0,0,0,0,0,0
PR,Puerto Rico,country,Latin America and the Caribbean,18.220833,-66.590149,HK,Hong Kong,country,East Asia and Pacific,22.396428,114.109497,15515.3740848971,1989,4,0,0,4,0,0,0,0,0,0,0,0,0,0,0,0,0,0,0,0,0,0,0,0
KR,"Korea, Rep.",country,East Asia and Pacific,35.907757,127.766922,HK,Hong Kong,country,East Asia and Pacific,22.396428,114.109497,2001.83242604701,1989,152145,1551,15,120571,15,20,8,1427,2508,919,14,90,124,6374,2,17625,0,81,0,801,0,0,0,0
SA,Saudi Arabia,country,Middle East and North Africa,23.885942,45.079162,HK,Hong Kong,country,East Asia and Pacific,22.396428,114.109497,6992.86356798329,1989,170,4,0,0,0,0,0,160,0,0,0,0,0,6,0,0,0,0,0,0,0,0,0,0
SN,Senegal,country,Sub-Saharan Africa,14.497401,-14.452362,HK,Hong Kong,country,East Asia and Pacific,22.396428,114.109497,13086.2114601148,1989,750,0,0,0,0,0,0,0,0,750,0,0,0,0,0,0,0,0,0,0,0,0,0,0
SC,Seychelles,country,Sub-Saharan Africa,-4.679574,55.491977,HK,Hong Kong,country,East Asia and Pacific,22.396428,114.109497,7050.37678669228,1989,1,0,0,0,0,0,0,0,0,0,0,0,0,1,0,0,0,0,0,0,0,0,0,0
SG,Singapore,country,East Asia and Pacific,1.352083,103.819836,HK,Hong Kong,country,East Asia and Pacific,22.396428,114.109497,2593.89006017595,1989,175785,10247,90,20597,556,601,2671,7897,5619,126,546,7871,1666,27275,51071,31237,4,131,7571,13,0,0,0,0
SB,Solomon Islands,country,East Asia and Pacific,-9.64571,160.156194,HK,Hong Kong,country,East Asia and Pacific,22.396428,114.109497,6159.64844116944,1989,1363,0,0,0,0,0,0,0,0,0,0,1351,0,12,0,0,0,0,0,0,0,0,0,0
SO,Somalia,country,Sub-Saharan Africa,5.152149,46.199616,HK,Hong Kong,country,East Asia and Pacific,22.396428,114.109497,7529.07452882237,1989,125,0,0,0,0,0,0,0,0,0,0,0,0,125,0,0,0,0,0,0,0,0,0,0
ZA,S. Africa,country,Sub-Saharan Africa,-30.559482,22.937506,HK,Hong Kong,country,East Asia and Pacific,22.396428,114.109497,11368.2308324559,1989,58617,4136,0,8720,0,67,0,1587,18428,4719,10,0,61,739,19183,200,0,613,79,75,0,0,0,0
ES,Spain,country,Europe and Central Asia,40.463667,-3.74922,HK,Hong Kong,country,East Asia and Pacific,22.396428,114.109497,10538.7859760622,1989,1369,299,0,151,0,0,0,193,232,0,5,91,0,11,80,122,0,41,0,144,0,0,0,0
LK,Sri Lanka,country,South Asia,7.873054,80.771797,HK,Hong Kong,country,East Asia and Pacific,22.396428,114.109497,3916.31132901219,1989,1620,0,0,0,0,0,0,0,0,0,0,0,1469,151,0,0,0,0,0,0,0,0,0,0
SD,Sudan,country,Sub-Saharan Africa,12.862807,30.217636,HK,Hong Kong,country,East Asia and Pacific,22.396428,114.109497,8859.66127042641,1989,2514,0,0,0,0,0,0,0,0,2514,0,0,0,0,0,0,0,0,0,0,0,0,0,0
SZ,Swaziland,country,Sub-Saharan Africa,-26.522503,31.465866,HK,Hong Kong,country,East Asia and Pacific,22.396428,114.109497,10428.62319358,1989,487,0,0,0,0,0,0,0,0,487,0,0,0,0,0,0,0,0,0,0,0,0,0,0
SE,Sweden,country,Europe and Central Asia,60.128161,18.643501,HK,Hong Kong,country,East Asia and Pacific,22.396428,114.109497,8165.26311587527,1989,5075,0,0,2,0,0,0,377,4,0,0,5,10,6,2850,8,0,1450,363,0,0,0,0,0
CH,Switzerland,country,Europe and Central Asia,46.818188,8.227512,HK,Hong Kong,country,East Asia and Pacific,22.396428,114.109497,9349.81980053958,1989,4273,53,9,901,0,57,4,20,266,6,0,73,1178,1173,1,82,0,69,360,21,0,0,0,0
TH,Thailand,country,East Asia and Pacific,15.870032,100.992541,HK,Hong Kong,country,East Asia and Pacific,22.396428,114.109497,1557.93898700177,1989,474738,308689,7865,10219,3084,65,7897,8715,36562,418,285,61307,533,17712,165,943,35,5582,4109,588,0,0,0,0
TG,Togo,country,Sub-Saharan Africa,8.619543,0.824782,HK,Hong Kong,country,East Asia and Pacific,22.396428,114.109497,11990.5716455864,1989,2361,0,0,0,0,1631,0,0,0,730,0,0,0,0,0,0,0,0,0,0,0,0,0,0
TR,Turkey,country,Europe and Central Asia,38.963745,35.243322,HK,Hong Kong,country,East Asia and Pacific,22.396428,114.109497,7543.53328675246,1989,2221,20,0,29,0,0,0,0,202,1854,15,0,0,101,0,0,0,0,0,0,0,0,0,0
UG,Uganda,country,Sub-Saharan Africa,1.373333,32.290275,HK,Hong Kong,country,East Asia and Pacific,22.396428,114.109497,9118.63788193784,1989,33,0,0,0,0,0,0,0,0,26,0,0,0,7,0,0,0,0,0,0,0,0,0,0
AE,United Arab Emirates,country,Middle East and North Africa,23.424076,53.847818,HK,Hong Kong,country,East Asia and Pacific,22.396428,114.109497,6132.56532822792,1989,371,0,0,0,0,99,0,33,9,42,0,0,0,141,30,17,0,0,0,0,0,0,0,0
GB,United Kingdom,country,Europe and Central Asia,55.378051,-3.435973,HK,Hong Kong,country,East Asia and Pacific,22.396428,114.109497,9567.98654457727,1989,39033,5612,24,3526,43,43,45,2014,789,37,5,91,2578,6845,683,5708,3,3931,6385,674,0,0,0,0
TZ,Tanzania,country,Sub-Saharan Africa,-6.369028,34.888822,HK,Hong Kong,country,East Asia and Pacific,22.396428,114.109497,9189.90783033,1989,14573,0,0,0,0,30,0,0,0,14540,0,0,0,3,0,0,0,0,0,0,0,0,0,0
US,USA,country,North America,37.09024,-95.712891,HK,Hong Kong,country,East Asia and Pacific,22.396428,114.109497,12713.7159928997,1989,656521,123498,7618,2763,1836,3095,978,54038,210565,41740,157,26388,1640,55768,3664,19205,83,89880,13220,468,0,0,0,0
UY,Uruguay,country,Latin America and the Caribbean,-32.522779,-55.765835,HK,Hong Kong,country,East Asia and Pacific,22.396428,114.109497,18532.3094784223,1989,2638,0,0,0,0,0,0,0,0,0,0,0,0,0,0,0,0,2602,0,36,0,0,0,0
RU,Russian Federation,country,Europe and Central Asia,61.52401,105.318756,HK,Hong Kong,country,East Asia and Pacific,22.396428,114.109497,4407.74024068889,1989,13481,0,232,0,0,0,0,0,0,12240,0,0,0,22,0,58,0,0,0,929,0,0,0,0
VU,Vanuatu,country,East Asia and Pacific,-15.376706,166.959158,HK,Hong Kong,country,East Asia and Pacific,22.396428,114.109497,7131.78154469223,1989,2,0,0,0,0,0,0,0,0,0,0,0,0,2,0,0,0,0,0,0,0,0,0,0
VE,Venezuela,country,Latin America and the Caribbean,6.42375,-66.58973,HK,Hong Kong,country,East Asia and Pacific,22.396428,114.109497,16828.355706758,1989,0,0,0,0,0,0,0,0,0,0,0,0,0,0,0,0,0,0,0,0,0,0,0,0
VN,Vietnam,country,East Asia and Pacific,14.058324,108.277199,HK,Hong Kong,country,East Asia and Pacific,22.396428,114.109497,1113.95857390625,1989,83515,43557,0,34,3398,4919,7995,61,1388,106,1479,3720,3049,6411,0,0,0,583,3786,3029,0,0,0,0
BA,Bosnia & Herzegovina,country,Europe and Central Asia,43.915886,17.679076,HK,Hong Kong,country,East Asia and Pacific,22.396428,114.109497,8801.58197685603,1989,138,0,0,31,19,0,0,0,0,0,0,0,23,65,0,0,0,0,0,0,0,0,0,0
ZM,Zambia,country,Sub-Saharan Africa,-13.133897,27.849332,HK,Hong Kong,country,East Asia and Pacific,22.396428,114.109497,10196.3954516003,1989,0,0,0,0,0,0,0,0,0,0,0,0,0,0,0,0,0,0,0,0,0,0,0,0
ZW,Zimbabwe,country,Sub-Saharan Africa,-19.015438,29.154857,HK,Hong Kong,country,East Asia and Pacific,22.396428,114.109497,10320.3548174353,1989,2594,0,0,0,0,0,0,7,0,1262,0,0,0,1308,0,0,0,0,17,0,0,0,0,0
AR,Argentina,country,Latin America and the Caribbean,-38.416097,-63.616672,HK,Hong Kong,country,East Asia and Pacific,22.396428,114.109497,18241.0711946673,1990,23889,0,0,0,0,0,0,0,57,7077,0,0,9,134,0,2,0,16610,0,0,0,0,0,0
AU,Australia,country,East Asia and Pacific,-25.274398,133.775136,HK,Hong Kong,country,East Asia and Pacific,22.396428,114.109497,5715.74799743523,1990,181859,78051,913,9805,8,159,0,14931,11943,10612,28,6636,2688,1861,10053,2393,10,9715,21128,935,0,0,0,0
AT,Austria,country,Europe and Central Asia,47.516231,14.550072,HK,Hong Kong,country,East Asia and Pacific,22.396428,114.109497,8882.00143487563,1990,1157,23,0,5,2,0,3,85,88,453,28,0,183,26,0,93,0,15,153,0,0,0,0,0
BH,Bahrain,country,Middle East and North Africa,25.930414,50.637772,HK,Hong Kong,country,East Asia and Pacific,22.396428,114.109497,6395.68679765839,1990,0,0,0,0,0,0,0,0,0,0,0,0,0,0,0,0,0,0,0,0,0,0,0,0
BD,Bangladesh,country,South Asia,23.684994,90.356331,HK,Hong Kong,country,East Asia and Pacific,22.396428,114.109497,2434.69734247981,1990,0,0,0,0,0,0,0,0,0,0,0,0,0,0,0,0,0,0,0,0,0,0,0,0
BE,Belgium,country,Europe and Central Asia,50.503887,4.469936,HK,Hong Kong,country,East Asia and Pacific,22.396428,114.109497,9403.13526781859,1990,25111,1791,33,163,11,0,0,291,63,302,0,127,329,5943,5148,1723,0,3247,5453,487,0,0,0,0
BJ,Benin,country,Sub-Saharan Africa,9.30769,2.315834,HK,Hong Kong,country,East Asia and Pacific,22.396428,114.109497,11809.6898192153,1990,72,0,0,0,0,0,0,0,0,72,0,0,0,0,0,0,0,0,0,0,0,0,0,0
BW,Botswana,country,Sub-Saharan Africa,-22.328474,24.684866,HK,Hong Kong,country,East Asia and Pacific,22.396428,114.109497,10889.9362728192,1990,35,0,0,0,0,0,0,0,0,0,0,0,0,11,0,0,0,24,0,0,0,0,0,0
BR,Brazil,country,Latin America and the Caribbean,-14.235004,-51.92528,HK,Hong Kong,country,East Asia and Pacific,22.396428,114.109497,18306.1615705447,1990,69042,0,0,118,0,0,0,12,164,20176,5,200,210,7328,7287,0,0,33497,1,44,0,0,0,0
BN,Brunei Darussalam,country,,4.535277,114.727669,HK,Hong Kong,country,East Asia and Pacific,22.396428,114.109497,1989.40946092368,1990,376,0,0,0,0,0,0,0,0,0,0,356,20,0,0,0,0,0,0,0,0,0,0,0
BG,Bulgaria,country,Europe and Central Asia,42.733883,25.48583,HK,Hong Kong,country,East Asia and Pacific,22.396428,114.109497,8242.76848679233,1990,6,0,0,0,0,0,0,0,0,0,0,0,0,2,0,4,0,0,0,0,0,0,0,0
KH,Cambodia,country,East Asia and Pacific,12.565679,104.990963,HK,Hong Kong,country,East Asia and Pacific,22.396428,114.109497,1460.0811164022,1990,53,0,0,0,0,0,0,0,0,0,0,0,0,53,0,0,0,0,0,0,0,0,0,0
CM,Cameroon,country,Sub-Saharan Africa,7.369722,12.354722,HK,Hong Kong,country,East Asia and Pacific,22.396428,114.109497,10901.2872518085,1990,603,0,0,0,0,0,0,0,0,600,0,0,0,3,0,0,0,0,0,0,0,0,0,0
CA,Canada,country,North America,56.130366,-106.346771,HK,Hong Kong,country,East Asia and Pacific,22.396428,114.109497,10502.1050885388,1990,46056,12499,11,73,549,22,17854,391,2688,0,12,2391,40,2775,46,317,0,4979,1309,100,0,0,0,0
CL,Chile,country,Latin America and the Caribbean,-35.675147,-71.542969,HK,Hong Kong,country,East Asia and Pacific,22.396428,114.109497,18461.1184276931,1990,13170,0,0,36,0,0,0,41,11538,23,0,0,0,144,0,15,0,1373,0,0,0,0,0,0
MO,"Macao SAR, China",country,East Asia and Pacific,22.198745,113.543873,HK,Hong Kong,country,East Asia and Pacific,22.396428,114.109497,62.274473695268,1990,4392,105,0,461,13,33,92,109,144,448,0,0,532,802,21,802,0,101,646,83,0,0,0,0
CN,China,country,East Asia and Pacific,35.86166,104.195397,HK,Hong Kong,country,East Asia and Pacific,22.396428,114.109497,1779.71468142797,1990,2313950,123167,30466,48111,62998,21299,85608,355378,105144,23422,29513,223777,17949,244184,76425,653306,50579,103146,58429,51628,0,0,0,0
TW,Taiwan,country,East Asia and Pacific,23.69781,120.960515,HK,Hong Kong,country,East Asia and Pacific,22.396428,114.109497,716.490551733354,1990,113534,2605,1709,1376,193,48,3003,44008,11681,1300,130,20516,192,24434,1007,949,32,43,199,141,0,0,0,0
CO,Colombia,country,Latin America and the Caribbean,4.570868,-74.297333,HK,Hong Kong,country,East Asia and Pacific,22.396428,114.109497,16899.0961351163,1990,21,0,0,0,0,0,0,0,3,0,0,0,18,0,0,0,0,0,0,0,0,0,0,0
CR,Costa Rica,country,Latin America and the Caribbean,9.748917,-83.753428,HK,Hong Kong,country,East Asia and Pacific,22.396428,114.109497,15962.7507466209,1990,70,0,0,0,0,0,0,0,0,0,0,0,52,0,0,0,0,18,0,0,0,0,0,0
CI,Ivory Coast,country,Sub-Saharan Africa,7.539989,-5.54708,HK,Hong Kong,country,East Asia and Pacific,22.396428,114.109497,12668.0234094945,1990,651,0,0,0,0,0,0,0,0,651,0,0,0,0,0,0,0,0,0,0,0,0,0,0
CU,Cuba,country,Latin America and the Caribbean,21.521757,-77.781167,HK,Hong Kong,country,East Asia and Pacific,22.396428,114.109497,14981.1159798285,1990,0,0,0,0,0,0,0,0,0,0,0,0,0,0,0,0,0,0,0,0,0,0,0,0
CY,Cyprus,country,Europe and Central Asia,35.126413,33.429859,HK,Hong Kong,country,East Asia and Pacific,22.396428,114.109497,7794.56015784003,1990,617,23,0,0,0,0,0,0,0,0,0,0,0,579,0,15,0,0,0,0,0,0,0,0
CZ,Czech Republic,country,Europe and Central Asia,49.817492,15.472962,HK,Hong Kong,country,East Asia and Pacific,22.396428,114.109497,8724.64170148005,1990,1711,0,0,0,0,0,0,0,0,0,0,0,0,0,0,0,0,0,1711,0,0,0,0,0
KP,"Korea, Dem. Rep.",country,East Asia and Pacific,40.339852,127.510093,HK,Hong Kong,country,East Asia and Pacific,22.396428,114.109497,2362.61396027019,1990,1140,0,0,0,0,399,184,32,0,101,0,0,0,397,0,8,0,19,0,0,0,0,0,0
DK,Denmark,country,Europe and Central Asia,56.26392,9.501785,HK,Hong Kong,country,East Asia and Pacific,22.396428,114.109497,8816.68547695129,1990,13961,2568,20,42,0,0,0,1,682,0,4,39,42,643,367,1,4,6180,3372,0,0,0,0,0
DO,Dominican Republic,country,Latin America and the Caribbean,18.735693,-70.162651,HK,Hong Kong,country,East Asia and Pacific,22.396428,114.109497,15435.1621229936,1990,0,0,0,0,0,0,0,0,0,0,0,0,0,0,0,0,0,0,0,0,0,0,0,0
EC,Ecuador,country,Latin America and the Caribbean,-1.831239,-78.183406,HK,Hong Kong,country,East Asia and Pacific,22.396428,114.109497,17390.0920467956,1990,0,0,0,0,0,0,0,0,0,0,0,0,0,0,0,0,0,0,0,0,0,0,0,0
EG,Egypt,country,Middle East and North Africa,26.820553,30.802498,HK,Hong Kong,country,East Asia and Pacific,22.396428,114.109497,8287.74431451014,1990,8,0,0,0,0,0,0,0,0,0,0,0,0,8,0,0,0,0,0,0,0,0,0,0
SV,El Salvador,country,Latin America and the Caribbean,13.794185,-88.89653,HK,Hong Kong,country,East Asia and Pacific,22.396428,114.109497,15291.0034425231,1990,104,0,0,0,0,0,0,0,0,104,0,0,0,0,0,0,0,0,0,0,0,0,0,0
FJ,Fiji,country,East Asia and Pacific,-16.578193,179.414413,HK,Hong Kong,country,East Asia and Pacific,22.396428,114.109497,8331.2109237792,1990,106,0,0,0,0,0,0,79,0,0,0,0,0,0,0,0,0,0,0,27,0,0,0,0
FI,Finland,country,Europe and Central Asia,61.92411,25.748151,HK,Hong Kong,country,East Asia and Pacific,22.396428,114.109497,7747.50800074592,1990,2186,0,0,0,0,0,0,151,0,0,0,0,11,1,0,21,0,54,1948,0,0,0,0,0
FR,France,country,Europe and Central Asia,46.227638,2.213749,HK,Hong Kong,country,East Asia and Pacific,22.396428,114.109497,9785.24090761307,1990,39961,5070,164,1277,0,2,67,275,267,82,3,786,704,4191,164,20079,7,5424,1406,0,0,0,0,0
GR,Greece,country,Europe and Central Asia,39.074208,21.824312,HK,Hong Kong,country,East Asia and Pacific,22.396428,114.109497,8659.2365233818,1990,62,0,0,0,0,0,18,0,0,0,0,0,6,28,0,10,0,0,0,0,0,0,0,0
GT,Guatemala,country,Latin America and the Caribbean,15.783471,-90.230759,HK,Hong Kong,country,East Asia and Pacific,22.396428,114.109497,15027.0864784705,1990,17,0,0,0,0,0,0,0,0,0,0,0,17,0,0,0,0,0,0,0,0,0,0,0
HN,Honduras,country,Latin America and the Caribbean,15.199999,-86.241905,HK,Hong Kong,country,East Asia and Pacific,22.396428,114.109497,15300.3462890196,1990,41,0,0,0,0,0,0,0,0,0,0,0,0,41,0,0,0,0,0,0,0,0,0,0
HU,Hungary,country,Europe and Central Asia,47.162494,19.503304,HK,Hong Kong,country,East Asia and Pacific,22.396428,114.109497,8545.6911150926,1990,1838,0,0,0,0,0,0,0,0,0,0,0,0,0,0,0,0,1838,0,0,0,0,0,0
IN,India,country,South Asia,20.593684,78.96288,HK,Hong Kong,country,East Asia and Pacific,22.396428,114.109497,3637.78716429995,1990,52597,276,0,0,33,1116,0,60,59,50269,107,5,0,637,8,0,0,0,27,0,0,0,0,0
ID,Indonesia,country,East Asia and Pacific,-0.789275,113.921327,HK,Hong Kong,country,East Asia and Pacific,22.396428,114.109497,2581.10141824003,1990,19038,2569,37,620,3,416,25,3601,432,0,1110,1615,1023,6346,608,402,0,198,33,0,0,0,0,0
IR,Iran,country,Middle East and North Africa,32.427908,53.688046,HK,Hong Kong,country,East Asia and Pacific,22.396428,114.109497,5997.47837805847,1990,862,0,0,0,0,862,0,0,0,0,0,0,0,0,0,0,0,0,0,0,0,0,0,0
IE,Ireland,country,Europe and Central Asia,53.41291,-8.24389,HK,Hong Kong,country,East Asia and Pacific,22.396428,114.109497,9948.41595196937,1990,564,0,0,0,0,0,0,0,0,0,0,0,0,87,0,0,0,34,443,0,0,0,0,0
IL,Israel,country,Middle East and North Africa,31.046051,34.851612,HK,Hong Kong,country,East Asia and Pacific,22.396428,114.109497,7777.95427366951,1990,1875,3,0,14,0,42,0,50,295,0,0,29,0,45,0,0,13,0,1397,0,0,0,0,0
IT,Italy,country,Europe and Central Asia,41.87194,12.56738,HK,Hong Kong,country,East Asia and Pacific,22.396428,114.109497,9273.63108306991,1990,12471,4447,0,1052,0,248,0,341,171,13,0,30,1653,269,107,591,0,57,114,3378,0,0,0,0
JP,Japan,country,East Asia and Pacific,36.204824,138.252924,HK,Hong Kong,country,East Asia and Pacific,22.396428,114.109497,2790.06002661141,1990,209974,129933,193,4156,3,79,616,2605,4966,455,209,33102,397,8996,3630,3589,3,16010,627,408,0,0,0,0
JO,Jordan,country,Middle East and North Africa,30.585164,36.238414,HK,Hong Kong,country,East Asia and Pacific,22.396428,114.109497,7662.35239368134,1990,224,0,0,0,0,0,0,0,224,0,0,0,0,0,0,0,0,0,0,0,0,0,0,0
KE,Kenya,country,Sub-Saharan Africa,-0.023559,37.906193,HK,Hong Kong,country,East Asia and Pacific,22.396428,114.109497,8601.81788260244,1990,187,0,0,0,0,0,0,0,0,0,0,0,89,65,0,0,0,0,0,33,0,0,0,0
LY,Libya,country,Middle East and North Africa,26.3351,17.228331,HK,Hong Kong,country,East Asia and Pacific,22.396428,114.109497,9573.52762935334,1990,21,0,0,0,0,0,0,0,0,0,0,0,0,0,0,0,0,21,0,0,0,0,0,0
MG,Madagascar,country,Sub-Saharan Africa,-18.766947,46.869107,HK,Hong Kong,country,East Asia and Pacific,22.396428,114.109497,8629.55259567838,1990,44,0,0,0,0,0,0,0,0,0,0,0,0,44,0,0,0,0,0,0,0,0,0,0
MY,Malaysia,country,East Asia and Pacific,4.210484,101.975766,HK,Hong Kong,country,East Asia and Pacific,22.396428,114.109497,2410.16537078811,1990,89320,1833,0,5053,63,21,8418,5386,13603,540,67,124,216,12497,27464,6532,0,705,6798,0,0,0,0,0
MT,Malta,country,Middle East and North Africa,35.937496,14.375416,HK,Hong Kong,country,East Asia and Pacific,22.396428,114.109497,9398.78177733022,1990,14,14,0,0,0,0,0,0,0,0,0,0,0,0,0,0,0,0,0,0,0,0,0,0
MU,Mauritius,country,Sub-Saharan Africa,-20.348404,57.552152,HK,Hong Kong,country,East Asia and Pacific,22.396428,114.109497,7770.45178057071,1990,0,0,0,0,0,0,0,0,0,0,0,0,0,0,0,0,0,0,0,0,0,0,0,0
MX,Mexico,country,Latin America and the Caribbean,23.634501,-102.552784,HK,Hong Kong,country,East Asia and Pacific,22.396428,114.109497,13556.8200698007,1990,487,0,0,9,0,0,0,0,0,255,0,0,35,4,0,60,0,80,0,44,0,0,0,0
MN,Mongolia,country,East Asia and Pacific,46.862496,103.846656,HK,Hong Kong,country,East Asia and Pacific,22.396428,114.109497,2875.35864589832,1990,0,0,0,0,0,0,0,0,0,0,0,0,0,0,0,0,0,0,0,0,0,0,0,0
MA,Morocco,country,Middle East and North Africa,31.791702,-7.09262,HK,Hong Kong,country,East Asia and Pacific,22.396428,114.109497,11344.6629127389,1990,19,0,0,0,0,0,0,0,0,19,0,0,0,0,0,0,0,0,0,0,0,0,0,0
MZ,Mozambique,country,Sub-Saharan Africa,-18.665695,35.529562,HK,Hong Kong,country,East Asia and Pacific,22.396428,114.109497,9690.16666046945,1990,2311,0,0,0,0,0,0,0,0,0,0,0,0,0,2311,0,0,0,0,0,0,0,0,0
MM,Myanmar,country,East Asia and Pacific,21.913965,95.956223,HK,Hong Kong,country,East Asia and Pacific,22.396428,114.109497,1871.24782839445,1990,772,0,43,0,104,0,50,0,0,0,0,0,0,530,0,0,0,0,0,45,0,0,0,0
NL,Netherlands,country,Europe and Central Asia,52.132633,5.291266,HK,Hong Kong,country,East Asia and Pacific,22.396428,114.109497,9266.1960756805,1990,110519,3388,11227,1145,2,40,0,980,116,0,4,188,560,1752,36110,2176,0,14431,38017,383,0,0,0,0
NZ,New Zealand,country,East Asia and Pacific,-40.900557,174.885971,HK,Hong Kong,country,East Asia and Pacific,22.396428,114.109497,9432.9557257228,1990,25223,157,531,17,0,0,0,5037,5178,2442,0,1067,36,388,188,168,0,4939,5073,2,0,0,0,0
NG,Nigeria,country,Sub-Saharan Africa,9.081999,8.675277,HK,Hong Kong,country,East Asia and Pacific,22.396428,114.109497,11191.4700865662,1990,1102,0,0,0,0,227,0,0,0,735,0,0,0,140,0,0,0,0,0,0,0,0,0,0
NO,Norway,country,Europe and Central Asia,60.472024,8.468946,HK,Hong Kong,country,East Asia and Pacific,22.396428,114.109497,8677.94316454719,1990,89,9,0,0,0,0,0,14,0,0,0,0,0,5,54,0,0,0,7,0,0,0,0,0
PK,Pakistan,country,South Asia,30.375321,69.345116,HK,Hong Kong,country,East Asia and Pacific,22.396428,114.109497,4522.17029831529,1990,54388,0,0,0,0,0,0,8,460,53820,13,0,0,87,0,0,0,0,0,0,0,0,0,0
PA,Panama,country,Latin America and the Caribbean,8.537981,-80.782127,HK,Hong Kong,country,East Asia and Pacific,22.396428,114.109497,16230.007220814,1990,29,0,0,0,0,0,0,0,0,0,0,0,0,29,0,0,0,0,0,0,0,0,0,0
PG,Papua New Guinea,country,East Asia and Pacific,-6.314993,143.95555,HK,Hong Kong,country,East Asia and Pacific,22.396428,114.109497,4559.67115376636,1990,3868,0,0,0,0,0,0,0,0,0,0,3620,99,53,0,0,0,0,0,96,0,0,0,0
PY,Paraguay,country,Latin America and the Caribbean,-23.442503,-58.443832,HK,Hong Kong,country,East Asia and Pacific,22.396428,114.109497,19265.260167845,1990,1027,0,0,0,0,0,0,0,0,1027,0,0,0,0,0,0,0,0,0,0,0,0,0,0
PE,Peru,country,Latin America and the Caribbean,-9.189967,-75.015152,HK,Hong Kong,country,East Asia and Pacific,22.396428,114.109497,18273.6432372328,1990,440,0,0,0,0,0,0,0,0,0,0,440,0,0,0,0,0,0,0,0,0,0,0,0
PH,Philippines,country,East Asia and Pacific,12.879721,121.774017,HK,Hong Kong,country,East Asia and Pacific,22.396428,114.109497,1334.68207060713,1990,62190,155,0,1402,0,95,1721,6547,47204,0,0,36,26,3295,984,157,0,490,78,0,0,0,0,0
PL,Poland,country,Europe and Central Asia,51.919438,19.145136,HK,Hong Kong,country,East Asia and Pacific,22.396428,114.109497,8403.40166060393,1990,513,0,114,0,0,0,0,0,75,0,0,0,0,0,0,0,0,148,176,0,0,0,0,0
PT,Portugal,country,Europe and Central Asia,39.399872,-8.224454,HK,Hong Kong,country,East Asia and Pacific,22.396428,114.109497,10916.4701735176,1990,385,1,0,0,0,0,0,84,0,0,0,0,0,126,0,164,0,8,2,0,0,0,0,0
KR,"Korea, Rep.",country,East Asia and Pacific,35.907757,127.766922,HK,Hong Kong,country,East Asia and Pacific,22.396428,114.109497,2001.83242604701,1990,136472,2478,0,106995,0,5,10,600,386,734,0,360,234,7550,0,16989,0,131,0,0,0,0,0,0
SA,Saudi Arabia,country,Middle East and North Africa,23.885942,45.079162,HK,Hong Kong,country,East Asia and Pacific,22.396428,114.109497,6992.86356798329,1990,14,0,0,0,0,0,0,14,0,0,0,0,0,0,0,0,0,0,0,0,0,0,0,0
SN,Senegal,country,Sub-Saharan Africa,14.497401,-14.452362,HK,Hong Kong,country,East Asia and Pacific,22.396428,114.109497,13086.2114601148,1990,300,0,0,0,0,0,0,0,0,300,0,0,0,0,0,0,0,0,0,0,0,0,0,0
SG,Singapore,country,East Asia and Pacific,1.352083,103.819836,HK,Hong Kong,country,East Asia and Pacific,22.396428,114.109497,2593.89006017595,1990,151009,7660,211,6161,500,540,2687,9638,2517,83,881,1271,1299,22769,40417,44511,1,498,9319,47,0,0,0,0
SB,Solomon Islands,country,East Asia and Pacific,-9.64571,160.156194,HK,Hong Kong,country,East Asia and Pacific,22.396428,114.109497,6159.64844116944,1990,738,0,0,0,0,0,0,0,0,0,0,735,0,3,0,0,0,0,0,0,0,0,0,0
SO,Somalia,country,Sub-Saharan Africa,5.152149,46.199616,HK,Hong Kong,country,East Asia and Pacific,22.396428,114.109497,7529.07452882237,1990,121,0,0,0,0,0,0,0,0,0,0,0,0,121,0,0,0,0,0,0,0,0,0,0
ZA,S. Africa,country,Sub-Saharan Africa,-30.559482,22.937506,HK,Hong Kong,country,East Asia and Pacific,22.396428,114.109497,11368.2308324559,1990,57626,4962,0,9276,0,80,0,679,20966,2948,4,0,8,485,16554,146,0,1084,369,65,0,0,0,0
ES,Spain,country,Europe and Central Asia,40.463667,-3.74922,HK,Hong Kong,country,East Asia and Pacific,22.396428,114.109497,10538.7859760622,1990,575,108,0,75,0,0,0,167,57,2,3,2,0,39,44,78,0,0,0,0,0,0,0,0
LK,Sri Lanka,country,South Asia,7.873054,80.771797,HK,Hong Kong,country,East Asia and Pacific,22.396428,114.109497,3916.31132901219,1990,1663,0,0,0,0,0,0,0,2,0,0,0,1490,171,0,0,0,0,0,0,0,0,0,0
SD,Sudan,country,Sub-Saharan Africa,12.862807,30.217636,HK,Hong Kong,country,East Asia and Pacific,22.396428,114.109497,8859.66127042641,1990,902,0,0,0,0,0,0,0,0,897,0,0,0,5,0,0,0,0,0,0,0,0,0,0
SE,Sweden,country,Europe and Central Asia,60.128161,18.643501,HK,Hong Kong,country,East Asia and Pacific,22.396428,114.109497,8165.26311587527,1990,13480,2,0,5,0,0,0,412,0,0,0,0,0,9,10282,28,0,1810,932,0,0,0,0,0
CH,Switzerland,country,Europe and Central Asia,46.818188,8.227512,HK,Hong Kong,country,East Asia and Pacific,22.396428,114.109497,9349.81980053958,1990,4567,86,25,978,0,95,4,28,350,0,0,65,949,1361,4,110,0,72,440,0,0,0,0,0
TH,Thailand,country,East Asia and Pacific,15.870032,100.992541,HK,Hong Kong,country,East Asia and Pacific,22.396428,114.109497,1557.93898700177,1990,504458,302068,9060,17267,4783,671,11792,8168,48259,213,291,68196,361,16725,50,1113,0,8708,6628,105,0,0,0,0
TR,Turkey,country,Europe and Central Asia,38.963745,35.243322,HK,Hong Kong,country,East Asia and Pacific,22.396428,114.109497,7543.53328675246,1990,745,28,0,86,0,14,0,40,157,293,19,0,3,105,0,0,0,0,0,0,0,0,0,0
UG,Uganda,country,Sub-Saharan Africa,1.373333,32.290275,HK,Hong Kong,country,East Asia and Pacific,22.396428,114.109497,9118.63788193784,1990,0,0,0,0,0,0,0,0,0,0,0,0,0,0,0,0,0,0,0,0,0,0,0,0
AE,United Arab Emirates,country,Middle East and North Africa,23.424076,53.847818,HK,Hong Kong,country,East Asia and Pacific,22.396428,114.109497,6132.56532822792,1990,887,7,0,0,0,179,0,32,31,0,0,0,0,350,45,243,0,0,0,0,0,0,0,0
GB,United Kingdom,country,Europe and Central Asia,55.378051,-3.435973,HK,Hong Kong,country,East Asia and Pacific,22.396428,114.109497,9567.98654457727,1990,40590,4013,8,1981,51,57,61,2012,829,145,0,109,2558,10116,934,5111,3,4579,7093,933,0,0,0,0
TZ,Tanzania,country,Sub-Saharan Africa,-6.369028,34.888822,HK,Hong Kong,country,East Asia and Pacific,22.396428,114.109497,9189.90783033,1990,7398,0,0,0,0,0,0,0,0,7395,0,0,0,3,0,0,0,0,0,0,0,0,0,0
US,USA,country,North America,37.09024,-95.712891,HK,Hong Kong,country,East Asia and Pacific,22.396428,114.109497,12713.7159928997,1990,721096,126499,10741,2000,1608,2804,3272,60147,224579,46126,106,28495,1914,64197,3701,24962,141,105675,13983,287,0,0,0,0
UY,Uruguay,country,Latin America and the Caribbean,-32.522779,-55.765835,HK,Hong Kong,country,East Asia and Pacific,22.396428,114.109497,18532.3094784223,1990,3477,0,0,0,0,0,0,0,0,678,0,0,0,0,0,0,0,2799,0,0,0,0,0,0
RU,Russian Federation,country,Europe and Central Asia,61.52401,105.318756,HK,Hong Kong,country,East Asia and Pacific,22.396428,114.109497,4407.74024068889,1990,4856,0,0,0,0,0,0,0,0,4372,0,0,0,31,0,43,0,0,230,180,0,0,0,0
VE,Venezuela,country,Latin America and the Caribbean,6.42375,-66.58973,HK,Hong Kong,country,East Asia and Pacific,22.396428,114.109497,16828.355706758,1990,38,0,0,0,0,0,0,0,0,0,0,0,0,0,0,0,0,0,0,38,0,0,0,0
VN,Vietnam,country,East Asia and Pacific,14.058324,108.277199,HK,Hong Kong,country,East Asia and Pacific,22.396428,114.109497,1113.95857390625,1990,56632,15123,0,0,506,1499,7973,1792,403,113,1376,1709,1532,16866,1707,0,0,1001,3777,1255,0,0,0,0
BA,Bosnia & Herzegovina,country,Europe and Central Asia,43.915886,17.679076,HK,Hong Kong,country,East Asia and Pacific,22.396428,114.109497,8801.58197685603,1990,75,0,0,36,0,0,0,0,0,0,0,0,11,28,0,0,0,0,0,0,0,0,0,0
ZM,Zambia,country,Sub-Saharan Africa,-13.133897,27.849332,HK,Hong Kong,country,East Asia and Pacific,22.396428,114.109497,10196.3954516003,1990,203,0,0,0,0,0,0,0,0,203,0,0,0,0,0,0,0,0,0,0,0,0,0,0
