sourceCode,sourceName,sourceGrouping,sourceRegion,sourceLat,sourceLong,destCode,destName,destGrouping,destRegion,destLat,destLong,distance,year,totalTons,cereals,roots,sugarCrops,pulses,nuts,oilCrops,vegetables,fruits,fibers,spices,fodderCrops,coffeeTea,tobaccoRubber,oilsFats,beverages,livestock,animalMeats,animalProducts,animalHides,nimalOther,pesticides,fertilizers,machinery
AG,Antigua & Barbuda,country,Latin America and the Caribbean,17.060816,-61.796428,TT,Trinidad and Tobago,country,Latin America and the Caribbean,10.691803,-61.222503,711.699837920978,1986,3,0,0,3,0,0,0,0,0,0,0,0,0,0,0,0,0,0,0,0,0,0,0,0
AR,Argentina,country,Latin America and the Caribbean,-38.416097,-63.616672,TT,Trinidad and Tobago,country,Latin America and the Caribbean,10.691803,-61.222503,5472.33471283131,1986,340,0,0,0,0,0,0,286,54,0,0,0,0,0,0,0,0,0,0,0,0,0,0,0
AU,Australia,country,East Asia and Pacific,-25.274398,133.775136,TT,Trinidad and Tobago,country,Latin America and the Caribbean,10.691803,-61.222503,17770.9081694862,1986,8501,436,0,0,0,0,0,15,467,0,0,0,0,7,0,11,0,6955,610,0,0,0,0,0
AT,Austria,country,Europe and Central Asia,47.516231,14.550072,TT,Trinidad and Tobago,country,Latin America and the Caribbean,10.691803,-61.222503,8075.86832320684,1986,15,0,0,0,0,0,0,0,0,0,0,0,0,0,0,2,0,0,13,0,0,0,0,0
BD,Bangladesh,country,South Asia,23.684994,90.356331,TT,Trinidad and Tobago,country,Latin America and the Caribbean,10.691803,-61.222503,15116.9386815602,1986,6,0,0,0,0,0,0,0,0,0,0,0,6,0,0,0,0,0,0,0,0,0,0,0
BB,Barbados,country,Latin America and the Caribbean,13.193887,-59.543198,TT,Trinidad and Tobago,country,Latin America and the Caribbean,10.691803,-61.222503,333.201247831015,1986,796,76,127,0,0,0,0,0,12,0,0,0,5,116,82,187,0,158,33,0,0,0,0,0
BE,Belgium,country,Europe and Central Asia,50.503887,4.469936,TT,Trinidad and Tobago,country,Latin America and the Caribbean,10.691803,-61.222503,7391.05388046573,1986,2786,313,0,475,1590,0,3,0,0,0,0,5,0,0,0,0,15,0,400,0,0,0,0,0
BZ,Belize,country,Latin America and the Caribbean,17.189877,-88.49765,TT,Trinidad and Tobago,country,Latin America and the Caribbean,10.691803,-61.222503,3030.87617195751,1986,158,0,0,0,0,0,0,0,158,0,0,0,0,0,0,0,0,0,0,0,0,0,0,0
BR,Brazil,country,Latin America and the Caribbean,-14.235004,-51.92528,TT,Trinidad and Tobago,country,Latin America and the Caribbean,10.691803,-61.222503,2958.52425611145,1986,764,78,0,20,0,0,0,0,233,0,0,0,0,422,11,0,0,0,0,0,0,0,0,0
VG,British Virgin Islands,country,Latin America and the Caribbean,18.420695,-64.639968,TT,Trinidad and Tobago,country,Latin America and the Caribbean,10.691803,-61.222503,935.725867270579,1986,1,0,0,0,0,0,1,0,0,0,0,0,0,0,0,0,0,0,0,0,0,0,0,0
BN,Brunei Darussalam,country,,4.535277,114.727669,TT,Trinidad and Tobago,country,Latin America and the Caribbean,10.691803,-61.222503,18284.0212658735,1986,0,0,0,0,0,0,0,0,0,0,0,0,0,0,0,0,0,0,0,0,0,0,0,0
BG,Bulgaria,country,Europe and Central Asia,42.733883,25.48583,TT,Trinidad and Tobago,country,Latin America and the Caribbean,10.691803,-61.222503,8946.39417668315,1986,1,0,0,0,0,0,0,0,0,0,0,0,0,0,0,0,0,0,1,0,0,0,0,0
CA,Canada,country,North America,56.130366,-106.346771,TT,Trinidad and Tobago,country,Latin America and the Caribbean,10.691803,-61.222503,6377.12517487862,1986,65168,3788,39201,53,4663,3,66,5939,651,12,17,367,81,1261,264,454,3,1570,6778,0,0,0,0,0
CL,Chile,country,Latin America and the Caribbean,-35.675147,-71.542969,TT,Trinidad and Tobago,country,Latin America and the Caribbean,10.691803,-61.222503,5274.40641291276,1986,108,0,0,0,0,0,0,25,83,0,0,0,0,0,0,0,0,0,0,0,0,0,0,0
HK,Hong Kong,country,East Asia and Pacific,22.396428,114.109497,TT,Trinidad and Tobago,country,Latin America and the Caribbean,10.691803,-61.222503,16319.0833735475,1986,527,8,0,2,0,0,41,58,36,4,2,0,9,314,53,0,0,0,0,0,0,0,0,0
CN,China,country,East Asia and Pacific,35.86166,104.195397,TT,Trinidad and Tobago,country,Latin America and the Caribbean,10.691803,-61.222503,14633.4460159842,1986,818,5,0,1,10,0,704,53,14,0,2,0,0,22,7,0,0,0,0,0,0,0,0,0
TW,Taiwan,country,East Asia and Pacific,23.69781,120.960515,TT,Trinidad and Tobago,country,Latin America and the Caribbean,10.691803,-61.222503,16201.9062426976,1986,556,6,0,0,0,0,0,231,274,0,0,0,6,34,5,0,0,0,0,0,0,0,0,0
CO,Colombia,country,Latin America and the Caribbean,4.570868,-74.297333,TT,Trinidad and Tobago,country,Latin America and the Caribbean,10.691803,-61.222503,1594.71062837232,1986,136,10,0,0,0,0,0,0,0,0,0,0,0,126,0,0,0,0,0,0,0,0,0,0
CR,Costa Rica,country,Latin America and the Caribbean,9.748917,-83.753428,TT,Trinidad and Tobago,country,Latin America and the Caribbean,10.691803,-61.222503,2470.02580671903,1986,6426,0,0,0,0,0,0,0,0,0,0,0,0,6426,0,0,0,0,0,0,0,0,0,0
DK,Denmark,country,Europe and Central Asia,56.26392,9.501785,TT,Trinidad and Tobago,country,Latin America and the Caribbean,10.691803,-61.222503,7843.76355868068,1986,2768,473,0,0,0,0,0,0,0,0,0,0,0,13,0,0,0,0,2282,0,0,0,0,0
DM,Dominica,country,Latin America and the Caribbean,15.414999,-61.370976,TT,Trinidad and Tobago,country,Latin America and the Caribbean,10.691803,-61.222503,526.03007868635,1986,840,0,6,0,0,0,0,0,286,0,6,85,0,0,358,99,0,0,0,0,0,0,0,0
DO,Dominican Republic,country,Latin America and the Caribbean,18.735693,-70.162651,TT,Trinidad and Tobago,country,Latin America and the Caribbean,10.691803,-61.222503,1313.92896135107,1986,878,0,0,0,0,0,0,878,0,0,0,0,0,0,0,0,0,0,0,0,0,0,0,0
FI,Finland,country,Europe and Central Asia,61.92411,25.748151,TT,Trinidad and Tobago,country,Latin America and the Caribbean,10.691803,-61.222503,8811.61205039008,1986,160,0,0,0,0,0,0,0,0,0,0,0,0,0,0,0,0,0,160,0,0,0,0,0
FR,France,country,Europe and Central Asia,46.227638,2.213749,TT,Trinidad and Tobago,country,Latin America and the Caribbean,10.691803,-61.222503,7127.34718261979,1986,1992,923,0,5,0,0,0,0,59,0,0,0,0,121,93,194,0,0,597,0,0,0,0,0
GR,Greece,country,Europe and Central Asia,39.074208,21.824312,TT,Trinidad and Tobago,country,Latin America and the Caribbean,10.691803,-61.222503,8673.92095679334,1986,159,0,0,0,0,0,0,21,138,0,0,0,0,0,0,0,0,0,0,0,0,0,0,0
GD,Grenada,country,Latin America and the Caribbean,12.262776,-61.604171,TT,Trinidad and Tobago,country,Latin America and the Caribbean,10.691803,-61.222503,179.768027292594,1986,9392,0,0,0,0,0,0,0,8855,0,0,519,0,3,0,0,0,15,0,0,0,0,0,0
GT,Guatemala,country,Latin America and the Caribbean,15.783471,-90.230759,TT,Trinidad and Tobago,country,Latin America and the Caribbean,10.691803,-61.222503,3191.1040143719,1986,26074,0,0,25998,0,0,0,29,0,0,0,0,0,47,0,0,0,0,0,0,0,0,0,0
GY,Guyana,country,Latin America and the Caribbean,4.860416,-58.93018,TT,Trinidad and Tobago,country,Latin America and the Caribbean,10.691803,-61.222503,696.604837833264,1986,1585,1467,2,0,0,0,0,0,64,0,8,0,0,4,0,40,0,0,0,0,0,0,0,0
HT,Haiti,country,Latin America and the Caribbean,18.971187,-72.285215,TT,Trinidad and Tobago,country,Latin America and the Caribbean,10.691803,-61.222503,1504.45373694973,1986,10,0,0,0,0,0,0,0,0,0,0,0,0,10,0,0,0,0,0,0,0,0,0,0
HU,Hungary,country,Europe and Central Asia,47.162494,19.503304,TT,Trinidad and Tobago,country,Latin America and the Caribbean,10.691803,-61.222503,8448.4798505223,1986,6,0,0,0,0,0,0,0,0,0,0,0,0,0,0,0,0,0,6,0,0,0,0,0
IS,Iceland,country,Europe and Central Asia,64.963051,-19.020835,TT,Trinidad and Tobago,country,Latin America and the Caribbean,10.691803,-61.222503,6853.44823701814,1986,74,0,0,0,0,0,0,0,0,0,0,0,0,0,0,0,0,0,74,0,0,0,0,0
IN,India,country,South Asia,20.593684,78.96288,TT,Trinidad and Tobago,country,Latin America and the Caribbean,10.691803,-61.222503,14459.128395869,1986,425,0,0,0,0,74,0,21,0,0,152,0,134,44,0,0,0,0,0,0,0,0,0,0
ID,Indonesia,country,East Asia and Pacific,-0.789275,113.921327,TT,Trinidad and Tobago,country,Latin America and the Caribbean,10.691803,-61.222503,18811.2421460185,1986,303,0,0,0,0,0,0,0,0,0,0,0,301,2,0,0,0,0,0,0,0,0,0,0
IR,Iran,country,Middle East and North Africa,32.427908,53.688046,TT,Trinidad and Tobago,country,Latin America and the Caribbean,10.691803,-61.222503,11629.4947952153,1986,0,0,0,0,0,0,0,0,0,0,0,0,0,0,0,0,0,0,0,0,0,0,0,0
IQ,Iraq,country,Middle East and North Africa,33.223191,43.679291,TT,Trinidad and Tobago,country,Latin America and the Caribbean,10.691803,-61.222503,10720.1229112824,1986,4,0,0,0,0,0,0,0,4,0,0,0,0,0,0,0,0,0,0,0,0,0,0,0
IE,Ireland,country,Europe and Central Asia,53.41291,-8.24389,TT,Trinidad and Tobago,country,Latin America and the Caribbean,10.691803,-61.222503,6667.20358771526,1986,5218,772,0,0,0,0,0,0,0,0,0,0,0,44,0,59,0,2320,2023,0,0,0,0,0
IT,Italy,country,Europe and Central Asia,41.87194,12.56738,TT,Trinidad and Tobago,country,Latin America and the Caribbean,10.691803,-61.222503,7886.61290176917,1986,138,0,0,11,0,0,0,0,52,0,0,0,0,0,4,71,0,0,0,0,0,0,0,0
JM,Jamaica,country,Latin America and the Caribbean,18.109581,-77.297508,TT,Trinidad and Tobago,country,Latin America and the Caribbean,10.691803,-61.222503,1918.25374307869,1986,978,35,0,2,0,0,0,0,110,0,0,0,90,254,236,203,0,48,0,0,0,0,0,0
JP,Japan,country,East Asia and Pacific,36.204824,138.252924,TT,Trinidad and Tobago,country,Latin America and the Caribbean,10.691803,-61.222503,14431.3657483464,1986,19,7,0,0,0,0,0,10,0,0,0,0,0,2,0,0,0,0,0,0,0,0,0,0
KE,Kenya,country,Sub-Saharan Africa,-0.023559,37.906193,TT,Trinidad and Tobago,country,Latin America and the Caribbean,10.691803,-61.222503,11017.6596867896,1986,42,0,0,0,0,3,0,0,0,0,0,0,0,39,0,0,0,0,0,0,0,0,0,0
MG,Madagascar,country,Sub-Saharan Africa,-18.766947,46.869107,TT,Trinidad and Tobago,country,Latin America and the Caribbean,10.691803,-61.222503,12289.9325795421,1986,4,0,0,0,0,0,0,0,0,0,4,0,0,0,0,0,0,0,0,0,0,0,0,0
MW,Malawi,country,Sub-Saharan Africa,-13.254308,34.301525,TT,Trinidad and Tobago,country,Latin America and the Caribbean,10.691803,-61.222503,10879.9195400524,1986,24,0,0,0,2,0,18,0,0,0,0,0,4,0,0,0,0,0,0,0,0,0,0,0
MY,Malaysia,country,East Asia and Pacific,4.210484,101.975766,TT,Trinidad and Tobago,country,Latin America and the Caribbean,10.691803,-61.222503,17543.6986023969,1986,258,0,0,0,0,0,0,0,0,0,0,0,0,258,0,0,0,0,0,0,0,0,0,0
MT,Malta,country,Middle East and North Africa,35.937496,14.375416,TT,Trinidad and Tobago,country,Latin America and the Caribbean,10.691803,-61.222503,8030.05527281196,1986,181,19,0,0,0,0,0,0,0,0,0,0,162,0,0,0,0,0,0,0,0,0,0,0
MX,Mexico,country,Latin America and the Caribbean,23.634501,-102.552784,TT,Trinidad and Tobago,country,Latin America and the Caribbean,10.691803,-61.222503,4606.18513175198,1986,578,0,0,0,199,0,0,372,7,0,0,0,0,0,0,0,0,0,0,0,0,0,0,0
MA,Morocco,country,Middle East and North Africa,31.791702,-7.09262,TT,Trinidad and Tobago,country,Latin America and the Caribbean,10.691803,-61.222503,6016.38487501351,1986,772,0,0,0,0,0,0,0,0,0,772,0,0,0,0,0,0,0,0,0,0,0,0,0
NL,Netherlands,country,Europe and Central Asia,52.132633,5.291266,TT,Trinidad and Tobago,country,Latin America and the Caribbean,10.691803,-61.222503,7485.31082683629,1986,50910,54,6852,3,244,0,2,5103,0,0,160,10,413,33005,98,203,0,0,4763,0,0,0,0,0
NZ,New Zealand,country,East Asia and Pacific,-40.900557,174.885971,TT,Trinidad and Tobago,country,Latin America and the Caribbean,10.691803,-61.222503,13624.0414285173,1986,5903,0,0,0,0,0,0,0,26,0,0,0,0,7,0,0,0,1801,4069,0,0,0,0,0
NO,Norway,country,Europe and Central Asia,60.472024,8.468946,TT,Trinidad and Tobago,country,Latin America and the Caribbean,10.691803,-61.222503,7877.04011432573,1986,27,0,0,0,0,0,0,0,0,0,0,0,0,0,23,0,0,0,4,0,0,0,0,0
PA,Panama,country,Latin America and the Caribbean,8.537981,-80.782127,TT,Trinidad and Tobago,country,Latin America and the Caribbean,10.691803,-61.222503,2159.69946508116,1986,2,0,0,0,0,0,0,0,0,0,0,0,0,2,0,0,0,0,0,0,0,0,0,0
PG,Papua New Guinea,country,East Asia and Pacific,-6.314993,143.95555,TT,Trinidad and Tobago,country,Latin America and the Caribbean,10.691803,-61.222503,17224.2188619954,1986,10,0,0,0,0,0,0,0,0,0,0,0,0,10,0,0,0,0,0,0,0,0,0,0
PE,Peru,country,Latin America and the Caribbean,-9.189967,-75.015152,TT,Trinidad and Tobago,country,Latin America and the Caribbean,10.691803,-61.222503,2689.1754360126,1986,15,0,0,0,0,0,0,15,0,0,0,0,0,0,0,0,0,0,0,0,0,0,0,0
PT,Portugal,country,Europe and Central Asia,39.399872,-8.224454,TT,Trinidad and Tobago,country,Latin America and the Caribbean,10.691803,-61.222503,6113.43413748332,1986,853,0,0,0,0,0,0,847,0,0,0,0,0,0,0,6,0,0,0,0,0,0,0,0
KR,"Korea, Rep.",country,East Asia and Pacific,35.907757,127.766922,TT,Trinidad and Tobago,country,Latin America and the Caribbean,10.691803,-61.222503,14764.7886886276,1986,0,0,0,0,0,0,0,0,0,0,0,0,0,0,0,0,0,0,0,0,0,0,0,0
KN,St. Kitts and Nevis,country,Latin America and the Caribbean,17.357822,-62.782998,TT,Trinidad and Tobago,country,Latin America and the Caribbean,10.691803,-61.222503,760.93088920838,1986,784,0,0,0,0,0,0,0,0,0,0,0,0,0,784,0,0,0,0,0,0,0,0,0
LC,St. Lucia,country,Latin America and the Caribbean,13.909444,-60.978893,TT,Trinidad and Tobago,country,Latin America and the Caribbean,10.691803,-61.222503,359.164516664202,1986,1328,0,0,0,0,0,0,0,15,0,0,509,0,26,778,0,0,0,0,0,0,0,0,0
VC,St. Vincent & Grenadines,country,Latin America and the Caribbean,12.984305,-61.287228,TT,Trinidad and Tobago,country,Latin America and the Caribbean,10.691803,-61.222503,255.297554206455,1986,24786,0,17108,0,0,0,1380,97,5065,0,130,920,0,66,0,20,0,0,0,0,0,0,0,0
SG,Singapore,country,East Asia and Pacific,1.352083,103.819836,TT,Trinidad and Tobago,country,Latin America and the Caribbean,10.691803,-61.222503,17906.5059775232,1986,584,0,0,0,0,0,0,0,0,0,45,0,0,539,0,0,0,0,0,0,0,0,0,0
ES,Spain,country,Europe and Central Asia,40.463667,-3.74922,TT,Trinidad and Tobago,country,Latin America and the Caribbean,10.691803,-61.222503,6513.04549669805,1986,1517,22,0,0,0,0,0,1305,20,0,1,0,0,36,2,131,0,0,0,0,0,0,0,0
LK,Sri Lanka,country,South Asia,7.873054,80.771797,TT,Trinidad and Tobago,country,Latin America and the Caribbean,10.691803,-61.222503,15346.9915494995,1986,27,0,0,0,0,0,0,0,0,0,0,0,14,13,0,0,0,0,0,0,0,0,0,0
SR,Suriname,country,Latin America and the Caribbean,3.919305,-56.027783,TT,Trinidad and Tobago,country,Latin America and the Caribbean,10.691803,-61.222503,947.084586990985,1986,384,384,0,0,0,0,0,0,0,0,0,0,0,0,0,0,0,0,0,0,0,0,0,0
SE,Sweden,country,Europe and Central Asia,60.128161,18.643501,TT,Trinidad and Tobago,country,Latin America and the Caribbean,10.691803,-61.222503,8426.94265695895,1986,296,0,0,0,0,0,0,292,4,0,0,0,0,0,0,0,0,0,0,0,0,0,0,0
CH,Switzerland,country,Europe and Central Asia,46.818188,8.227512,TT,Trinidad and Tobago,country,Latin America and the Caribbean,10.691803,-61.222503,7592.28874866605,1986,30,0,0,0,0,0,0,0,0,0,0,0,0,28,0,0,0,0,2,0,0,0,0,0
TH,Thailand,country,East Asia and Pacific,15.870032,100.992541,TT,Trinidad and Tobago,country,Latin America and the Caribbean,10.691803,-61.222503,16490.1579910752,1986,31539,1183,0,0,3,0,0,0,4,0,0,0,0,30349,0,0,0,0,0,0,0,0,0,0
TR,Turkey,country,Europe and Central Asia,38.963745,35.243322,TT,Trinidad and Tobago,country,Latin America and the Caribbean,10.691803,-61.222503,9823.39646413717,1986,781,0,0,0,708,0,0,0,0,0,73,0,0,0,0,0,0,0,0,0,0,0,0,0
GB,United Kingdom,country,Europe and Central Asia,55.378051,-3.435973,TT,Trinidad and Tobago,country,Latin America and the Caribbean,10.691803,-61.222503,7039.61592230866,1986,36440,3082,14,155,21,0,23,25,0,7,0,75,18,28482,60,1216,36,293,2969,0,0,0,0,0
US,USA,country,North America,37.09024,-95.712891,TT,Trinidad and Tobago,country,Latin America and the Caribbean,10.691803,-61.222503,4532.58682063172,1986,434317,243939,1240,375,3684,67,1371,6409,1930,41,20,36539,155,117143,16054,62,568,3067,2221,0,0,0,0,0
VE,Venezuela,country,Latin America and the Caribbean,6.42375,-66.58973,TT,Trinidad and Tobago,country,Latin America and the Caribbean,10.691803,-61.222503,758.045213174182,1986,622,519,16,0,0,0,0,80,7,0,0,0,0,0,0,0,0,0,0,0,0,0,0,0
BA,Bosnia & Herzegovina,country,Europe and Central Asia,43.915886,17.679076,TT,Trinidad and Tobago,country,Latin America and the Caribbean,10.691803,-61.222503,8308.5146571179,1986,11,0,0,0,0,0,0,0,0,0,0,0,0,2,0,0,0,0,9,0,0,0,0,0
AG,Antigua & Barbuda,country,Latin America and the Caribbean,17.060816,-61.796428,TT,Trinidad and Tobago,country,Latin America and the Caribbean,10.691803,-61.222503,711.699837920978,1987,0,0,0,0,0,0,0,0,0,0,0,0,0,0,0,0,0,0,0,0,0,0,0,0
AR,Argentina,country,Latin America and the Caribbean,-38.416097,-63.616672,TT,Trinidad and Tobago,country,Latin America and the Caribbean,10.691803,-61.222503,5472.33471283131,1987,914,0,0,0,0,0,0,874,40,0,0,0,0,0,0,0,0,0,0,0,0,0,0,0
AU,Australia,country,East Asia and Pacific,-25.274398,133.775136,TT,Trinidad and Tobago,country,Latin America and the Caribbean,10.691803,-61.222503,17770.9081694862,1987,7084,823,0,0,4,0,0,2,193,0,0,0,0,4,0,15,0,5121,922,0,0,0,0,0
AT,Austria,country,Europe and Central Asia,47.516231,14.550072,TT,Trinidad and Tobago,country,Latin America and the Caribbean,10.691803,-61.222503,8075.86832320684,1987,234,0,0,0,0,0,0,0,58,0,0,0,0,0,0,0,0,0,176,0,0,0,0,0
BD,Bangladesh,country,South Asia,23.684994,90.356331,TT,Trinidad and Tobago,country,Latin America and the Caribbean,10.691803,-61.222503,15116.9386815602,1987,24,0,0,0,0,0,0,0,0,0,1,0,23,0,0,0,0,0,0,0,0,0,0,0
BB,Barbados,country,Latin America and the Caribbean,13.193887,-59.543198,TT,Trinidad and Tobago,country,Latin America and the Caribbean,10.691803,-61.222503,333.201247831015,1987,510,78,27,0,2,0,0,1,0,0,1,0,0,98,44,163,0,96,0,0,0,0,0,0
BE,Belgium,country,Europe and Central Asia,50.503887,4.469936,TT,Trinidad and Tobago,country,Latin America and the Caribbean,10.691803,-61.222503,7391.05388046573,1987,2075,265,0,414,975,0,26,21,71,0,0,12,6,11,0,0,0,0,274,0,0,0,0,0
BZ,Belize,country,Latin America and the Caribbean,17.189877,-88.49765,TT,Trinidad and Tobago,country,Latin America and the Caribbean,10.691803,-61.222503,3030.87617195751,1987,1817,0,0,0,0,0,0,0,1817,0,0,0,0,0,0,0,0,0,0,0,0,0,0,0
BR,Brazil,country,Latin America and the Caribbean,-14.235004,-51.92528,TT,Trinidad and Tobago,country,Latin America and the Caribbean,10.691803,-61.222503,2958.52425611145,1987,589,0,0,24,0,14,0,0,130,0,0,0,5,413,0,3,0,0,0,0,0,0,0,0
BG,Bulgaria,country,Europe and Central Asia,42.733883,25.48583,TT,Trinidad and Tobago,country,Latin America and the Caribbean,10.691803,-61.222503,8946.39417668315,1987,7,0,0,0,0,0,0,0,0,0,0,0,0,0,0,0,0,0,7,0,0,0,0,0
CA,Canada,country,North America,56.130366,-106.346771,TT,Trinidad and Tobago,country,Latin America and the Caribbean,10.691803,-61.222503,6377.12517487862,1987,55812,3743,34554,21,7062,5,110,6170,1069,24,25,243,81,619,36,250,10,975,825,0,0,0,0,0
CL,Chile,country,Latin America and the Caribbean,-35.675147,-71.542969,TT,Trinidad and Tobago,country,Latin America and the Caribbean,10.691803,-61.222503,5274.40641291276,1987,106,0,0,0,0,0,0,55,51,0,0,0,0,0,0,0,0,0,0,0,0,0,0,0
HK,Hong Kong,country,East Asia and Pacific,22.396428,114.109497,TT,Trinidad and Tobago,country,Latin America and the Caribbean,10.691803,-61.222503,16319.0833735475,1987,641,2,6,1,0,0,81,33,35,0,0,0,0,438,45,0,0,0,0,0,0,0,0,0
CN,China,country,East Asia and Pacific,35.86166,104.195397,TT,Trinidad and Tobago,country,Latin America and the Caribbean,10.691803,-61.222503,14633.4460159842,1987,1174,10,0,0,6,0,1075,22,21,0,10,0,0,22,8,0,0,0,0,0,0,0,0,0
TW,Taiwan,country,East Asia and Pacific,23.69781,120.960515,TT,Trinidad and Tobago,country,Latin America and the Caribbean,10.691803,-61.222503,16201.9062426976,1987,321,3,0,2,0,0,0,159,122,0,0,7,0,26,2,0,0,0,0,0,0,0,0,0
CO,Colombia,country,Latin America and the Caribbean,4.570868,-74.297333,TT,Trinidad and Tobago,country,Latin America and the Caribbean,10.691803,-61.222503,1594.71062837232,1987,10032,0,0,9924,0,0,0,0,0,0,0,0,0,108,0,0,0,0,0,0,0,0,0,0
CR,Costa Rica,country,Latin America and the Caribbean,9.748917,-83.753428,TT,Trinidad and Tobago,country,Latin America and the Caribbean,10.691803,-61.222503,2470.02580671903,1987,22,0,0,0,0,0,0,0,0,0,0,0,0,22,0,0,0,0,0,0,0,0,0,0
DK,Denmark,country,Europe and Central Asia,56.26392,9.501785,TT,Trinidad and Tobago,country,Latin America and the Caribbean,10.691803,-61.222503,7843.76355868068,1987,2164,553,0,0,0,0,0,0,0,0,0,0,0,10,0,1,0,0,1600,0,0,0,0,0
DM,Dominica,country,Latin America and the Caribbean,15.414999,-61.370976,TT,Trinidad and Tobago,country,Latin America and the Caribbean,10.691803,-61.222503,526.03007868635,1987,550,0,0,0,0,0,27,0,514,0,9,0,0,0,0,0,0,0,0,0,0,0,0,0
DO,Dominican Republic,country,Latin America and the Caribbean,18.735693,-70.162651,TT,Trinidad and Tobago,country,Latin America and the Caribbean,10.691803,-61.222503,1313.92896135107,1987,526,0,0,0,0,0,0,526,0,0,0,0,0,0,0,0,0,0,0,0,0,0,0,0
EG,Egypt,country,Middle East and North Africa,26.820553,30.802498,TT,Trinidad and Tobago,country,Latin America and the Caribbean,10.691803,-61.222503,9682.32968001327,1987,4,0,0,0,0,0,0,0,0,0,3,0,0,1,0,0,0,0,0,0,0,0,0,0
FR,France,country,Europe and Central Asia,46.227638,2.213749,TT,Trinidad and Tobago,country,Latin America and the Caribbean,10.691803,-61.222503,7127.34718261979,1987,21263,20207,0,0,0,0,0,0,41,0,0,0,0,49,67,64,0,0,835,0,0,0,0,0
GR,Greece,country,Europe and Central Asia,39.074208,21.824312,TT,Trinidad and Tobago,country,Latin America and the Caribbean,10.691803,-61.222503,8673.92095679334,1987,183,0,0,0,0,0,0,0,183,0,0,0,0,0,0,0,0,0,0,0,0,0,0,0
GD,Grenada,country,Latin America and the Caribbean,12.262776,-61.604171,TT,Trinidad and Tobago,country,Latin America and the Caribbean,10.691803,-61.222503,179.768027292594,1987,4609,0,0,0,0,0,0,0,4601,0,4,0,0,4,0,0,0,0,0,0,0,0,0,0
GT,Guatemala,country,Latin America and the Caribbean,15.783471,-90.230759,TT,Trinidad and Tobago,country,Latin America and the Caribbean,10.691803,-61.222503,3191.1040143719,1987,15045,0,0,15000,0,0,0,0,0,0,0,0,0,45,0,0,0,0,0,0,0,0,0,0
GY,Guyana,country,Latin America and the Caribbean,4.860416,-58.93018,TT,Trinidad and Tobago,country,Latin America and the Caribbean,10.691803,-61.222503,696.604837833264,1987,674,514,0,0,0,0,0,0,80,0,32,0,0,5,0,43,0,0,0,0,0,0,0,0
HT,Haiti,country,Latin America and the Caribbean,18.971187,-72.285215,TT,Trinidad and Tobago,country,Latin America and the Caribbean,10.691803,-61.222503,1504.45373694973,1987,25,0,0,0,0,0,0,0,0,0,0,0,0,25,0,0,0,0,0,0,0,0,0,0
HU,Hungary,country,Europe and Central Asia,47.162494,19.503304,TT,Trinidad and Tobago,country,Latin America and the Caribbean,10.691803,-61.222503,8448.4798505223,1987,1,0,0,0,0,0,0,0,0,0,0,0,0,0,0,0,0,0,1,0,0,0,0,0
IN,India,country,South Asia,20.593684,78.96288,TT,Trinidad and Tobago,country,Latin America and the Caribbean,10.691803,-61.222503,14459.128395869,1987,390,0,0,0,2,36,0,0,0,0,181,0,140,31,0,0,0,0,0,0,0,0,0,0
ID,Indonesia,country,East Asia and Pacific,-0.789275,113.921327,TT,Trinidad and Tobago,country,Latin America and the Caribbean,10.691803,-61.222503,18811.2421460185,1987,21,0,0,0,0,0,0,0,0,0,9,0,12,0,0,0,0,0,0,0,0,0,0,0
IR,Iran,country,Middle East and North Africa,32.427908,53.688046,TT,Trinidad and Tobago,country,Latin America and the Caribbean,10.691803,-61.222503,11629.4947952153,1987,3,0,0,0,0,0,0,0,0,0,3,0,0,0,0,0,0,0,0,0,0,0,0,0
IE,Ireland,country,Europe and Central Asia,53.41291,-8.24389,TT,Trinidad and Tobago,country,Latin America and the Caribbean,10.691803,-61.222503,6667.20358771526,1987,4657,605,0,4,0,0,0,0,0,0,0,1,0,41,0,39,0,177,3790,0,0,0,0,0
IT,Italy,country,Europe and Central Asia,41.87194,12.56738,TT,Trinidad and Tobago,country,Latin America and the Caribbean,10.691803,-61.222503,7886.61290176917,1987,47,0,0,0,0,0,0,0,0,0,0,0,0,0,0,41,0,0,6,0,0,0,0,0
JM,Jamaica,country,Latin America and the Caribbean,18.109581,-77.297508,TT,Trinidad and Tobago,country,Latin America and the Caribbean,10.691803,-61.222503,1918.25374307869,1987,1285,161,0,43,0,0,0,3,203,0,0,7,161,220,0,457,0,29,0,1,0,0,0,0
JP,Japan,country,East Asia and Pacific,36.204824,138.252924,TT,Trinidad and Tobago,country,Latin America and the Caribbean,10.691803,-61.222503,14431.3657483464,1987,28,6,0,0,0,0,0,1,0,0,0,7,0,14,0,0,0,0,0,0,0,0,0,0
KE,Kenya,country,Sub-Saharan Africa,-0.023559,37.906193,TT,Trinidad and Tobago,country,Latin America and the Caribbean,10.691803,-61.222503,11017.6596867896,1987,27,0,0,0,0,0,0,0,0,0,0,0,0,27,0,0,0,0,0,0,0,0,0,0
MY,Malaysia,country,East Asia and Pacific,4.210484,101.975766,TT,Trinidad and Tobago,country,Latin America and the Caribbean,10.691803,-61.222503,17543.6986023969,1987,323,0,0,0,0,0,0,0,0,0,0,0,0,323,0,0,0,0,0,0,0,0,0,0
MT,Malta,country,Middle East and North Africa,35.937496,14.375416,TT,Trinidad and Tobago,country,Latin America and the Caribbean,10.691803,-61.222503,8030.05527281196,1987,22,22,0,0,0,0,0,0,0,0,0,0,0,0,0,0,0,0,0,0,0,0,0,0
MX,Mexico,country,Latin America and the Caribbean,23.634501,-102.552784,TT,Trinidad and Tobago,country,Latin America and the Caribbean,10.691803,-61.222503,4606.18513175198,1987,5139,0,0,5075,0,0,0,44,20,0,0,0,0,0,0,0,0,0,0,0,0,0,0,0
MA,Morocco,country,Middle East and North Africa,31.791702,-7.09262,TT,Trinidad and Tobago,country,Latin America and the Caribbean,10.691803,-61.222503,6016.38487501351,1987,276,0,0,0,0,0,0,0,0,0,276,0,0,0,0,0,0,0,0,0,0,0,0,0
NL,Netherlands,country,Europe and Central Asia,52.132633,5.291266,TT,Trinidad and Tobago,country,Latin America and the Caribbean,10.691803,-61.222503,7485.31082683629,1987,169480,132,4592,2,784,0,73,5305,0,0,101,0,337,154363,33,0,66,15,3743,0,0,0,0,0
NZ,New Zealand,country,East Asia and Pacific,-40.900557,174.885971,TT,Trinidad and Tobago,country,Latin America and the Caribbean,10.691803,-61.222503,13624.0414285173,1987,5503,0,0,0,0,0,0,0,0,0,0,0,0,19,0,0,0,2248,3236,0,0,0,0,0
NO,Norway,country,Europe and Central Asia,60.472024,8.468946,TT,Trinidad and Tobago,country,Latin America and the Caribbean,10.691803,-61.222503,7877.04011432573,1987,16,0,0,0,0,0,0,0,0,0,0,0,0,0,16,0,0,0,0,0,0,0,0,0
PG,Papua New Guinea,country,East Asia and Pacific,-6.314993,143.95555,TT,Trinidad and Tobago,country,Latin America and the Caribbean,10.691803,-61.222503,17224.2188619954,1987,4,0,0,0,0,0,0,0,0,0,0,0,0,4,0,0,0,0,0,0,0,0,0,0
PE,Peru,country,Latin America and the Caribbean,-9.189967,-75.015152,TT,Trinidad and Tobago,country,Latin America and the Caribbean,10.691803,-61.222503,2689.1754360126,1987,7,0,0,0,0,0,0,5,0,0,0,0,0,0,2,0,0,0,0,0,0,0,0,0
PH,Philippines,country,East Asia and Pacific,12.879721,121.774017,TT,Trinidad and Tobago,country,Latin America and the Caribbean,10.691803,-61.222503,17392.7261472899,1987,23,0,0,0,0,0,23,0,0,0,0,0,0,0,0,0,0,0,0,0,0,0,0,0
PL,Poland,country,Europe and Central Asia,51.919438,19.145136,TT,Trinidad and Tobago,country,Latin America and the Caribbean,10.691803,-61.222503,8423.94742598344,1987,16,0,16,0,0,0,0,0,0,0,0,0,0,0,0,0,0,0,0,0,0,0,0,0
PT,Portugal,country,Europe and Central Asia,39.399872,-8.224454,TT,Trinidad and Tobago,country,Latin America and the Caribbean,10.691803,-61.222503,6113.43413748332,1987,1156,0,0,0,0,0,0,1149,0,0,0,0,0,0,0,7,0,0,0,0,0,0,0,0
KR,"Korea, Rep.",country,East Asia and Pacific,35.907757,127.766922,TT,Trinidad and Tobago,country,Latin America and the Caribbean,10.691803,-61.222503,14764.7886886276,1987,5,0,0,0,0,0,0,0,0,0,0,0,0,5,0,0,0,0,0,0,0,0,0,0
RW,Rwanda,country,Sub-Saharan Africa,-1.940278,29.873888,TT,Trinidad and Tobago,country,Latin America and the Caribbean,10.691803,-61.222503,10178.6899325401,1987,0,0,0,0,0,0,0,0,0,0,0,0,0,0,0,0,0,0,0,0,0,0,0,0
KN,St. Kitts and Nevis,country,Latin America and the Caribbean,17.357822,-62.782998,TT,Trinidad and Tobago,country,Latin America and the Caribbean,10.691803,-61.222503,760.93088920838,1987,523,0,0,0,0,0,0,0,0,0,2,0,0,0,521,0,0,0,0,0,0,0,0,0
LC,St. Lucia,country,Latin America and the Caribbean,13.909444,-60.978893,TT,Trinidad and Tobago,country,Latin America and the Caribbean,10.691803,-61.222503,359.164516664202,1987,1229,0,0,0,0,0,0,7,56,0,0,95,0,19,1034,0,0,0,18,0,0,0,0,0
VC,St. Vincent & Grenadines,country,Latin America and the Caribbean,12.984305,-61.287228,TT,Trinidad and Tobago,country,Latin America and the Caribbean,10.691803,-61.222503,255.297554206455,1987,15682,0,2907,0,7,0,1075,55,10154,0,97,1311,0,76,0,0,0,0,0,0,0,0,0,0
SG,Singapore,country,East Asia and Pacific,1.352083,103.819836,TT,Trinidad and Tobago,country,Latin America and the Caribbean,10.691803,-61.222503,17906.5059775232,1987,1162,0,0,0,0,0,0,0,0,0,88,0,0,1074,0,0,0,0,0,0,0,0,0,0
ES,Spain,country,Europe and Central Asia,40.463667,-3.74922,TT,Trinidad and Tobago,country,Latin America and the Caribbean,10.691803,-61.222503,6513.04549669805,1987,1202,0,0,0,0,0,0,1113,30,0,3,0,0,23,2,31,0,0,0,0,0,0,0,0
LK,Sri Lanka,country,South Asia,7.873054,80.771797,TT,Trinidad and Tobago,country,Latin America and the Caribbean,10.691803,-61.222503,15346.9915494995,1987,11,0,0,0,0,0,0,0,0,0,0,0,11,0,0,0,0,0,0,0,0,0,0,0
SE,Sweden,country,Europe and Central Asia,60.128161,18.643501,TT,Trinidad and Tobago,country,Latin America and the Caribbean,10.691803,-61.222503,8426.94265695895,1987,462,0,0,0,0,0,0,435,0,0,0,0,0,11,16,0,0,0,0,0,0,0,0,0
CH,Switzerland,country,Europe and Central Asia,46.818188,8.227512,TT,Trinidad and Tobago,country,Latin America and the Caribbean,10.691803,-61.222503,7592.28874866605,1987,218,0,0,0,0,0,0,21,0,0,0,0,6,20,0,0,0,0,171,0,0,0,0,0
TH,Thailand,country,East Asia and Pacific,15.870032,100.992541,TT,Trinidad and Tobago,country,Latin America and the Caribbean,10.691803,-61.222503,16490.1579910752,1987,32992,358,0,0,6,0,0,0,104,0,0,0,0,32524,0,0,0,0,0,0,0,0,0,0
TR,Turkey,country,Europe and Central Asia,38.963745,35.243322,TT,Trinidad and Tobago,country,Latin America and the Caribbean,10.691803,-61.222503,9823.39646413717,1987,1072,0,0,0,867,0,0,0,139,0,66,0,0,0,0,0,0,0,0,0,0,0,0,0
GB,United Kingdom,country,Europe and Central Asia,55.378051,-3.435973,TT,Trinidad and Tobago,country,Latin America and the Caribbean,10.691803,-61.222503,7039.61592230866,1987,28229,2985,0,144,22,0,0,26,9,9,6,72,16,20505,20,544,13,182,3689,0,0,0,0,0
US,USA,country,North America,37.09024,-95.712891,TT,Trinidad and Tobago,country,Latin America and the Caribbean,10.691803,-61.222503,4532.58682063172,1987,484239,288361,4,425,3366,72,50026,2912,2716,0,6,14815,103,105799,10095,23,839,2902,2614,0,0,0,0,0
VE,Venezuela,country,Latin America and the Caribbean,6.42375,-66.58973,TT,Trinidad and Tobago,country,Latin America and the Caribbean,10.691803,-61.222503,758.045213174182,1987,395,386,0,0,0,0,0,2,0,0,2,0,0,5,0,0,0,0,0,0,0,0,0,0
BA,Bosnia & Herzegovina,country,Europe and Central Asia,43.915886,17.679076,TT,Trinidad and Tobago,country,Latin America and the Caribbean,10.691803,-61.222503,8308.5146571179,1987,2,0,0,0,0,0,0,0,0,0,0,0,0,2,0,0,0,0,0,0,0,0,0,0
AR,Argentina,country,Latin America and the Caribbean,-38.416097,-63.616672,TT,Trinidad and Tobago,country,Latin America and the Caribbean,10.691803,-61.222503,5472.33471283131,1988,1249,0,0,0,0,0,54,581,0,0,0,0,0,0,6,0,0,353,255,0,0,0,0,0
AU,Australia,country,East Asia and Pacific,-25.274398,133.775136,TT,Trinidad and Tobago,country,Latin America and the Caribbean,10.691803,-61.222503,17770.9081694862,1988,5645,1317,0,0,0,0,0,0,91,0,0,0,0,0,0,11,0,2958,1268,0,0,0,0,0
AT,Austria,country,Europe and Central Asia,47.516231,14.550072,TT,Trinidad and Tobago,country,Latin America and the Caribbean,10.691803,-61.222503,8075.86832320684,1988,5,0,0,0,0,0,0,0,3,0,0,0,0,0,0,0,0,0,2,0,0,0,0,0
BB,Barbados,country,Latin America and the Caribbean,13.193887,-59.543198,TT,Trinidad and Tobago,country,Latin America and the Caribbean,10.691803,-61.222503,333.201247831015,1988,613,61,0,0,0,0,0,0,0,0,0,5,0,107,178,183,4,77,2,0,0,0,0,0
BE,Belgium,country,Europe and Central Asia,50.503887,4.469936,TT,Trinidad and Tobago,country,Latin America and the Caribbean,10.691803,-61.222503,7391.05388046573,1988,2709,426,0,316,1145,0,8,3,37,0,0,5,0,45,0,0,0,0,724,0,0,0,0,0
BZ,Belize,country,Latin America and the Caribbean,17.189877,-88.49765,TT,Trinidad and Tobago,country,Latin America and the Caribbean,10.691803,-61.222503,3030.87617195751,1988,1472,0,0,0,0,0,0,0,1471,0,0,0,0,1,0,0,0,0,0,0,0,0,0,0
BJ,Benin,country,Sub-Saharan Africa,9.30769,2.315834,TT,Trinidad and Tobago,country,Latin America and the Caribbean,10.691803,-61.222503,6954.90950235173,1988,8,8,0,0,0,0,0,0,0,0,0,0,0,0,0,0,0,0,0,0,0,0,0,0
BR,Brazil,country,Latin America and the Caribbean,-14.235004,-51.92528,TT,Trinidad and Tobago,country,Latin America and the Caribbean,10.691803,-61.222503,2958.52425611145,1988,667,0,0,20,0,0,0,0,95,0,0,0,0,401,0,0,0,151,0,0,0,0,0,0
BN,Brunei Darussalam,country,,4.535277,114.727669,TT,Trinidad and Tobago,country,Latin America and the Caribbean,10.691803,-61.222503,18284.0212658735,1988,1,0,0,0,0,0,0,0,0,0,1,0,0,0,0,0,0,0,0,0,0,0,0,0
CA,Canada,country,North America,56.130366,-106.346771,TT,Trinidad and Tobago,country,Latin America and the Caribbean,10.691803,-61.222503,6377.12517487862,1988,64949,15849,22383,15,5421,5,132,3092,202,7,28,210,36,15958,82,11,22,985,533,0,0,0,0,0
CL,Chile,country,Latin America and the Caribbean,-35.675147,-71.542969,TT,Trinidad and Tobago,country,Latin America and the Caribbean,10.691803,-61.222503,5274.40641291276,1988,169,0,0,0,0,0,0,167,2,0,0,0,0,0,0,0,0,0,0,0,0,0,0,0
HK,Hong Kong,country,East Asia and Pacific,22.396428,114.109497,TT,Trinidad and Tobago,country,Latin America and the Caribbean,10.691803,-61.222503,16319.0833735475,1988,534,12,0,0,0,0,366,7,20,0,2,0,0,97,30,0,0,0,0,0,0,0,0,0
CN,China,country,East Asia and Pacific,35.86166,104.195397,TT,Trinidad and Tobago,country,Latin America and the Caribbean,10.691803,-61.222503,14633.4460159842,1988,1002,2,0,0,0,0,915,44,33,0,2,0,0,6,0,0,0,0,0,0,0,0,0,0
TW,Taiwan,country,East Asia and Pacific,23.69781,120.960515,TT,Trinidad and Tobago,country,Latin America and the Caribbean,10.691803,-61.222503,16201.9062426976,1988,249,0,0,0,0,0,0,51,190,0,0,0,0,6,2,0,0,0,0,0,0,0,0,0
CO,Colombia,country,Latin America and the Caribbean,4.570868,-74.297333,TT,Trinidad and Tobago,country,Latin America and the Caribbean,10.691803,-61.222503,1594.71062837232,1988,108,1,0,0,0,0,0,0,0,0,0,0,0,107,0,0,0,0,0,0,0,0,0,0
CR,Costa Rica,country,Latin America and the Caribbean,9.748917,-83.753428,TT,Trinidad and Tobago,country,Latin America and the Caribbean,10.691803,-61.222503,2470.02580671903,1988,10,0,0,0,0,0,0,0,0,0,0,0,0,10,0,0,0,0,0,0,0,0,0,0
CZ,Czech Republic,country,Europe and Central Asia,49.817492,15.472962,TT,Trinidad and Tobago,country,Latin America and the Caribbean,10.691803,-61.222503,8157.81588872115,1988,51,0,0,0,0,0,0,0,0,0,0,0,0,0,0,0,0,0,51,0,0,0,0,0
CD,"Congo, Dem. Rep.",country,Sub-Saharan Africa,-4.038333,21.758664,TT,Trinidad and Tobago,country,Latin America and the Caribbean,10.691803,-61.222503,9336.84094616252,1988,8,0,0,0,0,0,8,0,0,0,0,0,0,0,0,0,0,0,0,0,0,0,0,0
DK,Denmark,country,Europe and Central Asia,56.26392,9.501785,TT,Trinidad and Tobago,country,Latin America and the Caribbean,10.691803,-61.222503,7843.76355868068,1988,1664,1023,0,0,0,0,0,0,0,0,0,0,0,6,1,11,0,0,623,0,0,0,0,0
DM,Dominica,country,Latin America and the Caribbean,15.414999,-61.370976,TT,Trinidad and Tobago,country,Latin America and the Caribbean,10.691803,-61.222503,526.03007868635,1988,103,0,0,2,0,0,0,0,14,0,0,0,0,4,0,83,0,0,0,0,0,0,0,0
DO,Dominican Republic,country,Latin America and the Caribbean,18.735693,-70.162651,TT,Trinidad and Tobago,country,Latin America and the Caribbean,10.691803,-61.222503,1313.92896135107,1988,360,0,0,0,0,0,0,360,0,0,0,0,0,0,0,0,0,0,0,0,0,0,0,0
EG,Egypt,country,Middle East and North Africa,26.820553,30.802498,TT,Trinidad and Tobago,country,Latin America and the Caribbean,10.691803,-61.222503,9682.32968001327,1988,15,0,0,0,0,0,0,0,0,0,15,0,0,0,0,0,0,0,0,0,0,0,0,0
ET,Ethiopia,country,Sub-Saharan Africa,9.145,40.489673,TT,Trinidad and Tobago,country,Latin America and the Caribbean,10.691803,-61.222503,11091.8253028607,1988,0,0,0,0,0,0,0,0,0,0,0,0,0,0,0,0,0,0,0,0,0,0,0,0
FK,Falkland Islands,country,,-51.796253,-59.523613,TT,Trinidad and Tobago,country,Latin America and the Caribbean,10.691803,-61.222503,6958.0594847903,1988,2,0,0,0,0,0,0,0,0,0,0,0,0,0,0,2,0,0,0,0,0,0,0,0
FR,France,country,Europe and Central Asia,46.227638,2.213749,TT,Trinidad and Tobago,country,Latin America and the Caribbean,10.691803,-61.222503,7127.34718261979,1988,32968,32141,0,0,0,0,0,0,34,0,0,0,0,181,49,82,0,0,481,0,0,0,0,0
PF,French Polynesia,country,East Asia and Pacific,-17.679742,-149.406843,TT,Trinidad and Tobago,country,Latin America and the Caribbean,10.691803,-61.222503,10188.9440417063,1988,188,0,0,0,0,0,0,0,0,0,0,0,0,0,0,0,0,0,188,0,0,0,0,0
GH,Ghana,country,Sub-Saharan Africa,7.946527,-1.023194,TT,Trinidad and Tobago,country,Latin America and the Caribbean,10.691803,-61.222503,6610.34449226776,1988,5,0,0,0,0,0,0,0,0,0,0,0,0,5,0,0,0,0,0,0,0,0,0,0
GR,Greece,country,Europe and Central Asia,39.074208,21.824312,TT,Trinidad and Tobago,country,Latin America and the Caribbean,10.691803,-61.222503,8673.92095679334,1988,247,0,0,0,0,0,0,0,247,0,0,0,0,0,0,0,0,0,0,0,0,0,0,0
GD,Grenada,country,Latin America and the Caribbean,12.262776,-61.604171,TT,Trinidad and Tobago,country,Latin America and the Caribbean,10.691803,-61.222503,179.768027292594,1988,4523,0,0,0,0,0,41,0,4430,0,38,0,0,14,0,0,0,0,0,0,0,0,0,0
GP,Guadeloupe,country,Latin America and the Caribbean,16.995971,-62.067641,TT,Trinidad and Tobago,country,Latin America and the Caribbean,10.691803,-61.222503,707.689920966514,1988,1200,0,0,0,0,0,0,0,0,0,0,0,0,1200,0,0,0,0,0,0,0,0,0,0
GT,Guatemala,country,Latin America and the Caribbean,15.783471,-90.230759,TT,Trinidad and Tobago,country,Latin America and the Caribbean,10.691803,-61.222503,3191.1040143719,1988,30031,0,0,30000,0,0,0,0,0,0,0,0,0,31,0,0,0,0,0,0,0,0,0,0
GY,Guyana,country,Latin America and the Caribbean,4.860416,-58.93018,TT,Trinidad and Tobago,country,Latin America and the Caribbean,10.691803,-61.222503,696.604837833264,1988,2347,2080,0,0,0,0,0,0,147,0,26,0,0,5,0,89,0,0,0,0,0,0,0,0
HT,Haiti,country,Latin America and the Caribbean,18.971187,-72.285215,TT,Trinidad and Tobago,country,Latin America and the Caribbean,10.691803,-61.222503,1504.45373694973,1988,34,0,0,0,0,0,0,0,0,0,0,0,0,34,0,0,0,0,0,0,0,0,0,0
HU,Hungary,country,Europe and Central Asia,47.162494,19.503304,TT,Trinidad and Tobago,country,Latin America and the Caribbean,10.691803,-61.222503,8448.4798505223,1988,5,0,0,0,0,0,0,0,0,0,5,0,0,0,0,0,0,0,0,0,0,0,0,0
IN,India,country,South Asia,20.593684,78.96288,TT,Trinidad and Tobago,country,Latin America and the Caribbean,10.691803,-61.222503,14459.128395869,1988,253,0,0,0,0,54,38,0,0,0,76,0,55,30,0,0,0,0,0,0,0,0,0,0
ID,Indonesia,country,East Asia and Pacific,-0.789275,113.921327,TT,Trinidad and Tobago,country,Latin America and the Caribbean,10.691803,-61.222503,18811.2421460185,1988,4,0,0,0,0,0,0,0,0,0,4,0,0,0,0,0,0,0,0,0,0,0,0,0
IR,Iran,country,Middle East and North Africa,32.427908,53.688046,TT,Trinidad and Tobago,country,Latin America and the Caribbean,10.691803,-61.222503,11629.4947952153,1988,4,0,0,0,0,0,0,0,0,0,4,0,0,0,0,0,0,0,0,0,0,0,0,0
IE,Ireland,country,Europe and Central Asia,53.41291,-8.24389,TT,Trinidad and Tobago,country,Latin America and the Caribbean,10.691803,-61.222503,6667.20358771526,1988,3908,701,0,0,0,0,0,0,0,0,0,1,0,265,0,45,0,368,2528,0,0,0,0,0
IT,Italy,country,Europe and Central Asia,41.87194,12.56738,TT,Trinidad and Tobago,country,Latin America and the Caribbean,10.691803,-61.222503,7886.61290176917,1988,64,0,0,7,0,0,0,0,0,0,0,0,0,0,0,57,0,0,0,0,0,0,0,0
JM,Jamaica,country,Latin America and the Caribbean,18.109581,-77.297508,TT,Trinidad and Tobago,country,Latin America and the Caribbean,10.691803,-61.222503,1918.25374307869,1988,1805,197,0,77,0,0,2,3,197,0,0,6,245,190,0,815,0,73,0,0,0,0,0,0
JP,Japan,country,East Asia and Pacific,36.204824,138.252924,TT,Trinidad and Tobago,country,Latin America and the Caribbean,10.691803,-61.222503,14431.3657483464,1988,2,0,0,0,0,0,0,0,0,0,0,0,0,2,0,0,0,0,0,0,0,0,0,0
KE,Kenya,country,Sub-Saharan Africa,-0.023559,37.906193,TT,Trinidad and Tobago,country,Latin America and the Caribbean,10.691803,-61.222503,11017.6596867896,1988,13,0,0,0,0,0,0,0,0,0,0,0,0,13,0,0,0,0,0,0,0,0,0,0
MW,Malawi,country,Sub-Saharan Africa,-13.254308,34.301525,TT,Trinidad and Tobago,country,Latin America and the Caribbean,10.691803,-61.222503,10879.9195400524,1988,117,0,0,0,0,0,111,0,0,0,6,0,0,0,0,0,0,0,0,0,0,0,0,0
MY,Malaysia,country,East Asia and Pacific,4.210484,101.975766,TT,Trinidad and Tobago,country,Latin America and the Caribbean,10.691803,-61.222503,17543.6986023969,1988,515,0,0,0,0,0,0,0,0,0,6,0,0,509,0,0,0,0,0,0,0,0,0,0
ML,Mali,country,Sub-Saharan Africa,17.570692,-3.996166,TT,Trinidad and Tobago,country,Latin America and the Caribbean,10.691803,-61.222503,6203.67420212429,1988,17,0,0,0,0,0,17,0,0,0,0,0,0,0,0,0,0,0,0,0,0,0,0,0
MU,Mauritius,country,Sub-Saharan Africa,-20.348404,57.552152,TT,Trinidad and Tobago,country,Latin America and the Caribbean,10.691803,-61.222503,13417.4448234247,1988,5013,0,0,5013,0,0,0,0,0,0,0,0,0,0,0,0,0,0,0,0,0,0,0,0
MX,Mexico,country,Latin America and the Caribbean,23.634501,-102.552784,TT,Trinidad and Tobago,country,Latin America and the Caribbean,10.691803,-61.222503,4606.18513175198,1988,254,0,0,0,56,0,0,198,0,0,0,0,0,0,0,0,0,0,0,0,0,0,0,0
MA,Morocco,country,Middle East and North Africa,31.791702,-7.09262,TT,Trinidad and Tobago,country,Latin America and the Caribbean,10.691803,-61.222503,6016.38487501351,1988,314,0,0,0,0,0,0,0,0,0,314,0,0,0,0,0,0,0,0,0,0,0,0,0
NL,Netherlands,country,Europe and Central Asia,52.132633,5.291266,TT,Trinidad and Tobago,country,Latin America and the Caribbean,10.691803,-61.222503,7485.31082683629,1988,78309,162,4369,0,391,0,90,4154,0,0,190,0,225,65861,91,0,0,0,2776,0,0,0,0,0
NZ,New Zealand,country,East Asia and Pacific,-40.900557,174.885971,TT,Trinidad and Tobago,country,Latin America and the Caribbean,10.691803,-61.222503,13624.0414285173,1988,3419,0,0,0,0,0,0,0,0,0,0,0,0,12,0,0,0,1536,1871,0,0,0,0,0
NI,Nicaragua,country,Latin America and the Caribbean,12.865416,-85.207229,TT,Trinidad and Tobago,country,Latin America and the Caribbean,10.691803,-61.222503,2623.94133536342,1988,20,0,0,0,0,0,20,0,0,0,0,0,0,0,0,0,0,0,0,0,0,0,0,0
NG,Nigeria,country,Sub-Saharan Africa,9.081999,8.675277,TT,Trinidad and Tobago,country,Latin America and the Caribbean,10.691803,-61.222503,7650.87315620165,1988,0,0,0,0,0,0,0,0,0,0,0,0,0,0,0,0,0,0,0,0,0,0,0,0
NO,Norway,country,Europe and Central Asia,60.472024,8.468946,TT,Trinidad and Tobago,country,Latin America and the Caribbean,10.691803,-61.222503,7877.04011432573,1988,67,0,0,0,0,0,0,0,0,0,7,0,0,0,60,0,0,0,0,0,0,0,0,0
PA,Panama,country,Latin America and the Caribbean,8.537981,-80.782127,TT,Trinidad and Tobago,country,Latin America and the Caribbean,10.691803,-61.222503,2159.69946508116,1988,34,0,0,0,0,0,0,34,0,0,0,0,0,0,0,0,0,0,0,0,0,0,0,0
PY,Paraguay,country,Latin America and the Caribbean,-23.442503,-58.443832,TT,Trinidad and Tobago,country,Latin America and the Caribbean,10.691803,-61.222503,3811.84501956913,1988,73,0,0,0,0,0,0,0,0,0,0,0,0,0,0,0,0,73,0,0,0,0,0,0
PE,Peru,country,Latin America and the Caribbean,-9.189967,-75.015152,TT,Trinidad and Tobago,country,Latin America and the Caribbean,10.691803,-61.222503,2689.1754360126,1988,9,0,0,0,0,0,0,9,0,0,0,0,0,0,0,0,0,0,0,0,0,0,0,0
PH,Philippines,country,East Asia and Pacific,12.879721,121.774017,TT,Trinidad and Tobago,country,Latin America and the Caribbean,10.691803,-61.222503,17392.7261472899,1988,14,0,0,0,0,0,0,0,14,0,0,0,0,0,0,0,0,0,0,0,0,0,0,0
PT,Portugal,country,Europe and Central Asia,39.399872,-8.224454,TT,Trinidad and Tobago,country,Latin America and the Caribbean,10.691803,-61.222503,6113.43413748332,1988,710,0,0,0,0,0,0,700,0,0,0,0,0,0,0,10,0,0,0,0,0,0,0,0
PR,Puerto Rico,country,Latin America and the Caribbean,18.220833,-66.590149,TT,Trinidad and Tobago,country,Latin America and the Caribbean,10.691803,-61.222503,1018.15934371291,1988,1911,473,0,0,0,0,0,0,0,0,1,1259,0,178,0,0,0,0,0,0,0,0,0,0
RW,Rwanda,country,Sub-Saharan Africa,-1.940278,29.873888,TT,Trinidad and Tobago,country,Latin America and the Caribbean,10.691803,-61.222503,10178.6899325401,1988,18,0,0,0,0,0,0,0,0,0,0,0,0,18,0,0,0,0,0,0,0,0,0,0
KN,St. Kitts and Nevis,country,Latin America and the Caribbean,17.357822,-62.782998,TT,Trinidad and Tobago,country,Latin America and the Caribbean,10.691803,-61.222503,760.93088920838,1988,531,0,0,0,0,0,0,0,0,0,0,0,0,0,531,0,0,0,0,0,0,0,0,0
LC,St. Lucia,country,Latin America and the Caribbean,13.909444,-60.978893,TT,Trinidad and Tobago,country,Latin America and the Caribbean,10.691803,-61.222503,359.164516664202,1988,1561,0,0,0,0,0,0,0,2,0,0,95,0,1021,443,0,0,0,0,0,0,0,0,0
VC,St. Vincent & Grenadines,country,Latin America and the Caribbean,12.984305,-61.287228,TT,Trinidad and Tobago,country,Latin America and the Caribbean,10.691803,-61.222503,255.297554206455,1988,20502,1527,5699,0,4,0,1987,141,9294,0,356,1257,0,57,180,0,0,0,0,0,0,0,0,0
SG,Singapore,country,East Asia and Pacific,1.352083,103.819836,TT,Trinidad and Tobago,country,Latin America and the Caribbean,10.691803,-61.222503,17906.5059775232,1988,222,0,0,0,0,0,0,0,0,0,70,0,0,135,0,0,0,17,0,0,0,0,0,0
SO,Somalia,country,Sub-Saharan Africa,5.152149,46.199616,TT,Trinidad and Tobago,country,Latin America and the Caribbean,10.691803,-61.222503,11804.6755827717,1988,0,0,0,0,0,0,0,0,0,0,0,0,0,0,0,0,0,0,0,0,0,0,0,0
ES,Spain,country,Europe and Central Asia,40.463667,-3.74922,TT,Trinidad and Tobago,country,Latin America and the Caribbean,10.691803,-61.222503,6513.04549669805,1988,385,0,18,0,0,0,0,286,3,0,4,0,0,0,2,40,0,0,32,0,0,0,0,0
LK,Sri Lanka,country,South Asia,7.873054,80.771797,TT,Trinidad and Tobago,country,Latin America and the Caribbean,10.691803,-61.222503,15346.9915494995,1988,45,0,0,0,0,0,0,0,0,0,0,0,45,0,0,0,0,0,0,0,0,0,0,0
SE,Sweden,country,Europe and Central Asia,60.128161,18.643501,TT,Trinidad and Tobago,country,Latin America and the Caribbean,10.691803,-61.222503,8426.94265695895,1988,36,0,0,0,0,0,0,36,0,0,0,0,0,0,0,0,0,0,0,0,0,0,0,0
CH,Switzerland,country,Europe and Central Asia,46.818188,8.227512,TT,Trinidad and Tobago,country,Latin America and the Caribbean,10.691803,-61.222503,7592.28874866605,1988,11,0,0,0,0,0,0,0,0,0,0,0,0,11,0,0,0,0,0,0,0,0,0,0
TH,Thailand,country,East Asia and Pacific,15.870032,100.992541,TT,Trinidad and Tobago,country,Latin America and the Caribbean,10.691803,-61.222503,16490.1579910752,1988,32558,1771,0,0,0,0,0,0,32,0,0,0,0,30755,0,0,0,0,0,0,0,0,0,0
TR,Turkey,country,Europe and Central Asia,38.963745,35.243322,TT,Trinidad and Tobago,country,Latin America and the Caribbean,10.691803,-61.222503,9823.39646413717,1988,1801,60,0,0,1515,0,0,0,186,0,40,0,0,0,0,0,0,0,0,0,0,0,0,0
GB,United Kingdom,country,Europe and Central Asia,55.378051,-3.435973,TT,Trinidad and Tobago,country,Latin America and the Caribbean,10.691803,-61.222503,7039.61592230866,1988,5709,2734,0,268,36,0,0,0,11,3,0,0,15,243,56,260,28,642,1441,0,0,0,0,0
TZ,Tanzania,country,Sub-Saharan Africa,-6.369028,34.888822,TT,Trinidad and Tobago,country,Latin America and the Caribbean,10.691803,-61.222503,10815.2030318004,1988,2,0,0,0,0,0,0,0,0,0,2,0,0,0,0,0,0,0,0,0,0,0,0,0
US,USA,country,North America,37.09024,-95.712891,TT,Trinidad and Tobago,country,Latin America and the Caribbean,10.691803,-61.222503,4532.58682063172,1988,285602,159667,112,892,1628,58,31694,3118,540,1,14,6607,50,74041,3183,80,656,1943,1974,0,0,0,0,0
VE,Venezuela,country,Latin America and the Caribbean,6.42375,-66.58973,TT,Trinidad and Tobago,country,Latin America and the Caribbean,10.691803,-61.222503,758.045213174182,1988,55,41,0,0,0,0,0,0,0,0,0,0,0,14,0,0,0,0,0,0,0,0,0,0
VN,Vietnam,country,East Asia and Pacific,14.058324,108.277199,TT,Trinidad and Tobago,country,Latin America and the Caribbean,10.691803,-61.222503,17048.4072815479,1988,1,0,0,0,0,0,0,0,0,0,1,0,0,0,0,0,0,0,0,0,0,0,0,0
AR,Argentina,country,Latin America and the Caribbean,-38.416097,-63.616672,TT,Trinidad and Tobago,country,Latin America and the Caribbean,10.691803,-61.222503,5472.33471283131,1989,1078,0,0,0,0,0,114,584,50,0,0,0,0,0,0,0,0,0,330,0,0,0,0,0
AU,Australia,country,East Asia and Pacific,-25.274398,133.775136,TT,Trinidad and Tobago,country,Latin America and the Caribbean,10.691803,-61.222503,17770.9081694862,1989,5984,2878,0,0,0,0,0,0,37,0,0,0,0,2,0,20,0,2139,908,0,0,0,0,0
AT,Austria,country,Europe and Central Asia,47.516231,14.550072,TT,Trinidad and Tobago,country,Latin America and the Caribbean,10.691803,-61.222503,8075.86832320684,1989,150,0,0,0,0,0,0,0,0,0,0,0,0,0,0,0,0,0,150,0,0,0,0,0
BH,Bahrain,country,Middle East and North Africa,25.930414,50.637772,TT,Trinidad and Tobago,country,Latin America and the Caribbean,10.691803,-61.222503,11616.6781538468,1989,50,0,25,0,0,0,0,25,0,0,0,0,0,0,0,0,0,0,0,0,0,0,0,0
BD,Bangladesh,country,South Asia,23.684994,90.356331,TT,Trinidad and Tobago,country,Latin America and the Caribbean,10.691803,-61.222503,15116.9386815602,1989,4,0,0,0,0,0,0,0,0,0,0,0,4,0,0,0,0,0,0,0,0,0,0,0
BB,Barbados,country,Latin America and the Caribbean,13.193887,-59.543198,TT,Trinidad and Tobago,country,Latin America and the Caribbean,10.691803,-61.222503,333.201247831015,1989,801,239,0,0,0,0,0,0,3,0,0,0,0,73,252,155,0,77,2,0,0,0,0,0
BE,Belgium,country,Europe and Central Asia,50.503887,4.469936,TT,Trinidad and Tobago,country,Latin America and the Caribbean,10.691803,-61.222503,7391.05388046573,1989,3031,1357,25,341,791,0,3,45,0,0,0,0,0,22,0,1,0,0,446,0,0,0,0,0
BZ,Belize,country,Latin America and the Caribbean,17.189877,-88.49765,TT,Trinidad and Tobago,country,Latin America and the Caribbean,10.691803,-61.222503,3030.87617195751,1989,772,0,0,0,42,0,0,0,730,0,0,0,0,0,0,0,0,0,0,0,0,0,0,0
BR,Brazil,country,Latin America and the Caribbean,-14.235004,-51.92528,TT,Trinidad and Tobago,country,Latin America and the Caribbean,10.691803,-61.222503,2958.52425611145,1989,475,6,0,10,0,0,0,0,0,0,23,0,0,436,0,0,0,0,0,0,0,0,0,0
BN,Brunei Darussalam,country,,4.535277,114.727669,TT,Trinidad and Tobago,country,Latin America and the Caribbean,10.691803,-61.222503,18284.0212658735,1989,2,0,0,0,0,0,0,0,0,0,2,0,0,0,0,0,0,0,0,0,0,0,0,0
BG,Bulgaria,country,Europe and Central Asia,42.733883,25.48583,TT,Trinidad and Tobago,country,Latin America and the Caribbean,10.691803,-61.222503,8946.39417668315,1989,2,0,0,0,0,0,0,0,0,0,0,0,0,0,0,0,0,0,2,0,0,0,0,0
CA,Canada,country,North America,56.130366,-106.346771,TT,Trinidad and Tobago,country,Latin America and the Caribbean,10.691803,-61.222503,6377.12517487862,1989,39572,12718,12686,27,6610,2,52,4333,126,20,36,101,60,227,15,13,11,1273,1273,0,0,0,0,0
CL,Chile,country,Latin America and the Caribbean,-35.675147,-71.542969,TT,Trinidad and Tobago,country,Latin America and the Caribbean,10.691803,-61.222503,5274.40641291276,1989,70,0,0,0,0,0,0,70,0,0,0,0,0,0,0,0,0,0,0,0,0,0,0,0
HK,Hong Kong,country,East Asia and Pacific,22.396428,114.109497,TT,Trinidad and Tobago,country,Latin America and the Caribbean,10.691803,-61.222503,16319.0833735475,1989,470,2,0,0,0,0,142,35,22,0,1,0,0,252,16,0,0,0,0,0,0,0,0,0
CN,China,country,East Asia and Pacific,35.86166,104.195397,TT,Trinidad and Tobago,country,Latin America and the Caribbean,10.691803,-61.222503,14633.4460159842,1989,913,0,0,0,0,0,825,33,21,5,4,0,0,21,2,2,0,0,0,0,0,0,0,0
TW,Taiwan,country,East Asia and Pacific,23.69781,120.960515,TT,Trinidad and Tobago,country,Latin America and the Caribbean,10.691803,-61.222503,16201.9062426976,1989,29,0,0,0,15,0,0,8,4,0,0,0,0,2,0,0,0,0,0,0,0,0,0,0
CO,Colombia,country,Latin America and the Caribbean,4.570868,-74.297333,TT,Trinidad and Tobago,country,Latin America and the Caribbean,10.691803,-61.222503,1594.71062837232,1989,1723,54,0,0,0,0,0,0,0,0,0,0,0,1652,0,0,0,0,17,0,0,0,0,0
CR,Costa Rica,country,Latin America and the Caribbean,9.748917,-83.753428,TT,Trinidad and Tobago,country,Latin America and the Caribbean,10.691803,-61.222503,2470.02580671903,1989,8015,0,0,8000,0,0,0,0,0,0,15,0,0,0,0,0,0,0,0,0,0,0,0,0
CI,Ivory Coast,country,Sub-Saharan Africa,7.539989,-5.54708,TT,Trinidad and Tobago,country,Latin America and the Caribbean,10.691803,-61.222503,6122.04229499704,1989,36,0,0,0,0,0,0,0,0,0,0,0,36,0,0,0,0,0,0,0,0,0,0,0
CU,Cuba,country,Latin America and the Caribbean,21.521757,-77.781167,TT,Trinidad and Tobago,country,Latin America and the Caribbean,10.691803,-61.222503,2139.2251135844,1989,3,0,0,3,0,0,0,0,0,0,0,0,0,0,0,0,0,0,0,0,0,0,0,0
DK,Denmark,country,Europe and Central Asia,56.26392,9.501785,TT,Trinidad and Tobago,country,Latin America and the Caribbean,10.691803,-61.222503,7843.76355868068,1989,1248,0,0,0,0,0,0,118,0,0,0,0,0,507,1,0,0,0,622,0,0,0,0,0
DM,Dominica,country,Latin America and the Caribbean,15.414999,-61.370976,TT,Trinidad and Tobago,country,Latin America and the Caribbean,10.691803,-61.222503,526.03007868635,1989,57,2,0,0,0,0,0,0,0,0,0,0,0,0,0,55,0,0,0,0,0,0,0,0
DO,Dominican Republic,country,Latin America and the Caribbean,18.735693,-70.162651,TT,Trinidad and Tobago,country,Latin America and the Caribbean,10.691803,-61.222503,1313.92896135107,1989,243,0,0,0,0,0,0,243,0,0,0,0,0,0,0,0,0,0,0,0,0,0,0,0
EG,Egypt,country,Middle East and North Africa,26.820553,30.802498,TT,Trinidad and Tobago,country,Latin America and the Caribbean,10.691803,-61.222503,9682.32968001327,1989,53,0,0,0,0,0,0,0,0,0,50,0,0,0,0,3,0,0,0,0,0,0,0,0
FK,Falkland Islands,country,,-51.796253,-59.523613,TT,Trinidad and Tobago,country,Latin America and the Caribbean,10.691803,-61.222503,6958.0594847903,1989,2,0,0,0,0,0,0,0,0,0,0,0,0,0,0,2,0,0,0,0,0,0,0,0
FR,France,country,Europe and Central Asia,46.227638,2.213749,TT,Trinidad and Tobago,country,Latin America and the Caribbean,10.691803,-61.222503,7127.34718261979,1989,16941,15960,0,19,0,0,0,0,22,0,0,0,0,121,38,58,0,0,723,0,0,0,0,0
GR,Greece,country,Europe and Central Asia,39.074208,21.824312,TT,Trinidad and Tobago,country,Latin America and the Caribbean,10.691803,-61.222503,8673.92095679334,1989,50,0,0,0,0,0,0,2,47,0,0,0,0,1,0,0,0,0,0,0,0,0,0,0
GD,Grenada,country,Latin America and the Caribbean,12.262776,-61.604171,TT,Trinidad and Tobago,country,Latin America and the Caribbean,10.691803,-61.222503,179.768027292594,1989,2404,500,0,0,0,0,29,0,1837,0,32,0,0,6,0,0,0,0,0,0,0,0,0,0
GT,Guatemala,country,Latin America and the Caribbean,15.783471,-90.230759,TT,Trinidad and Tobago,country,Latin America and the Caribbean,10.691803,-61.222503,3191.1040143719,1989,10026,0,0,10000,0,0,0,0,0,0,0,0,0,26,0,0,0,0,0,0,0,0,0,0
GY,Guyana,country,Latin America and the Caribbean,4.860416,-58.93018,TT,Trinidad and Tobago,country,Latin America and the Caribbean,10.691803,-61.222503,696.604837833264,1989,6958,0,0,0,0,0,0,7,151,0,0,0,0,6680,0,120,0,0,0,0,0,0,0,0
HT,Haiti,country,Latin America and the Caribbean,18.971187,-72.285215,TT,Trinidad and Tobago,country,Latin America and the Caribbean,10.691803,-61.222503,1504.45373694973,1989,6,0,0,0,0,0,0,0,0,0,0,0,0,6,0,0,0,0,0,0,0,0,0,0
HU,Hungary,country,Europe and Central Asia,47.162494,19.503304,TT,Trinidad and Tobago,country,Latin America and the Caribbean,10.691803,-61.222503,8448.4798505223,1989,60,0,0,0,0,0,0,60,0,0,0,0,0,0,0,0,0,0,0,0,0,0,0,0
IS,Iceland,country,Europe and Central Asia,64.963051,-19.020835,TT,Trinidad and Tobago,country,Latin America and the Caribbean,10.691803,-61.222503,6853.44823701814,1989,16,0,0,0,0,0,0,0,0,0,0,0,0,0,0,0,0,16,0,0,0,0,0,0
IN,India,country,South Asia,20.593684,78.96288,TT,Trinidad and Tobago,country,Latin America and the Caribbean,10.691803,-61.222503,14459.128395869,1989,345,0,0,0,0,49,0,0,0,0,138,0,139,19,0,0,0,0,0,0,0,0,0,0
ID,Indonesia,country,East Asia and Pacific,-0.789275,113.921327,TT,Trinidad and Tobago,country,Latin America and the Caribbean,10.691803,-61.222503,18811.2421460185,1989,5,0,0,0,0,0,0,0,0,0,5,0,0,0,0,0,0,0,0,0,0,0,0,0
IR,Iran,country,Middle East and North Africa,32.427908,53.688046,TT,Trinidad and Tobago,country,Latin America and the Caribbean,10.691803,-61.222503,11629.4947952153,1989,9,0,0,0,0,0,0,0,0,0,9,0,0,0,0,0,0,0,0,0,0,0,0,0
IE,Ireland,country,Europe and Central Asia,53.41291,-8.24389,TT,Trinidad and Tobago,country,Latin America and the Caribbean,10.691803,-61.222503,6667.20358771526,1989,4211,1692,0,0,0,0,0,0,0,0,0,0,0,54,0,75,0,466,1924,0,0,0,0,0
IT,Italy,country,Europe and Central Asia,41.87194,12.56738,TT,Trinidad and Tobago,country,Latin America and the Caribbean,10.691803,-61.222503,7886.61290176917,1989,42,0,0,0,0,0,0,0,0,0,0,0,0,0,0,42,0,0,0,0,0,0,0,0
JM,Jamaica,country,Latin America and the Caribbean,18.109581,-77.297508,TT,Trinidad and Tobago,country,Latin America and the Caribbean,10.691803,-61.222503,1918.25374307869,1989,1298,170,0,57,0,0,0,4,34,0,0,14,326,254,8,339,0,92,0,0,0,0,0,0
JP,Japan,country,East Asia and Pacific,36.204824,138.252924,TT,Trinidad and Tobago,country,Latin America and the Caribbean,10.691803,-61.222503,14431.3657483464,1989,10,6,0,0,0,0,0,3,0,0,0,0,0,1,0,0,0,0,0,0,0,0,0,0
KE,Kenya,country,Sub-Saharan Africa,-0.023559,37.906193,TT,Trinidad and Tobago,country,Latin America and the Caribbean,10.691803,-61.222503,11017.6596867896,1989,26,0,0,0,0,0,0,0,0,0,0,0,0,26,0,0,0,0,0,0,0,0,0,0
MW,Malawi,country,Sub-Saharan Africa,-13.254308,34.301525,TT,Trinidad and Tobago,country,Latin America and the Caribbean,10.691803,-61.222503,10879.9195400524,1989,695,0,0,0,0,18,666,0,0,0,0,0,11,0,0,0,0,0,0,0,0,0,0,0
MY,Malaysia,country,East Asia and Pacific,4.210484,101.975766,TT,Trinidad and Tobago,country,Latin America and the Caribbean,10.691803,-61.222503,17543.6986023969,1989,525,0,0,0,0,0,0,0,0,0,38,0,0,487,0,0,0,0,0,0,0,0,0,0
MV,Maldives,country,South Asia,3.202778,73.22068,TT,Trinidad and Tobago,country,Latin America and the Caribbean,10.691803,-61.222503,14758.6227021654,1989,3,0,0,0,0,0,0,0,0,0,3,0,0,0,0,0,0,0,0,0,0,0,0,0
MU,Mauritius,country,Sub-Saharan Africa,-20.348404,57.552152,TT,Trinidad and Tobago,country,Latin America and the Caribbean,10.691803,-61.222503,13417.4448234247,1989,1,0,0,0,0,0,0,0,0,0,0,0,1,0,0,0,0,0,0,0,0,0,0,0
MX,Mexico,country,Latin America and the Caribbean,23.634501,-102.552784,TT,Trinidad and Tobago,country,Latin America and the Caribbean,10.691803,-61.222503,4606.18513175198,1989,422,0,0,0,129,0,0,293,0,0,0,0,0,0,0,0,0,0,0,0,0,0,0,0
MA,Morocco,country,Middle East and North Africa,31.791702,-7.09262,TT,Trinidad and Tobago,country,Latin America and the Caribbean,10.691803,-61.222503,6016.38487501351,1989,299,0,0,0,0,0,0,0,0,0,299,0,0,0,0,0,0,0,0,0,0,0,0,0
NL,Netherlands,country,Europe and Central Asia,52.132633,5.291266,TT,Trinidad and Tobago,country,Latin America and the Caribbean,10.691803,-61.222503,7485.31082683629,1989,199106,316,8841,87,176,0,19,3988,0,0,241,0,324,181670,20,0,0,0,3424,0,0,0,0,0
NZ,New Zealand,country,East Asia and Pacific,-40.900557,174.885971,TT,Trinidad and Tobago,country,Latin America and the Caribbean,10.691803,-61.222503,13624.0414285173,1989,3481,0,0,0,0,0,0,0,0,0,0,0,0,5,0,0,0,953,2523,0,0,0,0,0
NG,Nigeria,country,Sub-Saharan Africa,9.081999,8.675277,TT,Trinidad and Tobago,country,Latin America and the Caribbean,10.691803,-61.222503,7650.87315620165,1989,0,0,0,0,0,0,0,0,0,0,0,0,0,0,0,0,0,0,0,0,0,0,0,0
NO,Norway,country,Europe and Central Asia,60.472024,8.468946,TT,Trinidad and Tobago,country,Latin America and the Caribbean,10.691803,-61.222503,7877.04011432573,1989,10,0,0,0,0,0,0,0,0,0,0,0,0,0,0,0,0,0,10,0,0,0,0,0
PA,Panama,country,Latin America and the Caribbean,8.537981,-80.782127,TT,Trinidad and Tobago,country,Latin America and the Caribbean,10.691803,-61.222503,2159.69946508116,1989,0,0,0,0,0,0,0,0,0,0,0,0,0,0,0,0,0,0,0,0,0,0,0,0
PE,Peru,country,Latin America and the Caribbean,-9.189967,-75.015152,TT,Trinidad and Tobago,country,Latin America and the Caribbean,10.691803,-61.222503,2689.1754360126,1989,7,0,0,0,0,0,0,7,0,0,0,0,0,0,0,0,0,0,0,0,0,0,0,0
PL,Poland,country,Europe and Central Asia,51.919438,19.145136,TT,Trinidad and Tobago,country,Latin America and the Caribbean,10.691803,-61.222503,8423.94742598344,1989,502,0,0,0,0,0,0,18,64,0,0,0,0,0,0,0,0,0,420,0,0,0,0,0
PT,Portugal,country,Europe and Central Asia,39.399872,-8.224454,TT,Trinidad and Tobago,country,Latin America and the Caribbean,10.691803,-61.222503,6113.43413748332,1989,484,0,0,0,0,0,0,478,0,0,0,0,0,0,0,6,0,0,0,0,0,0,0,0
PR,Puerto Rico,country,Latin America and the Caribbean,18.220833,-66.590149,TT,Trinidad and Tobago,country,Latin America and the Caribbean,10.691803,-61.222503,1018.15934371291,1989,1276,606,0,0,0,0,0,15,5,0,0,535,0,82,15,0,0,18,0,0,0,0,0,0
KR,"Korea, Rep.",country,East Asia and Pacific,35.907757,127.766922,TT,Trinidad and Tobago,country,Latin America and the Caribbean,10.691803,-61.222503,14764.7886886276,1989,1,0,0,0,0,0,0,0,0,0,0,0,0,1,0,0,0,0,0,0,0,0,0,0
KN,St. Kitts and Nevis,country,Latin America and the Caribbean,17.357822,-62.782998,TT,Trinidad and Tobago,country,Latin America and the Caribbean,10.691803,-61.222503,760.93088920838,1989,663,0,0,0,0,0,0,0,0,0,0,0,0,0,646,17,0,0,0,0,0,0,0,0
LC,St. Lucia,country,Latin America and the Caribbean,13.909444,-60.978893,TT,Trinidad and Tobago,country,Latin America and the Caribbean,10.691803,-61.222503,359.164516664202,1989,1006,0,0,0,0,0,0,0,0,0,5,0,0,3,998,0,0,0,0,0,0,0,0,0
VC,St. Vincent & Grenadines,country,Latin America and the Caribbean,12.984305,-61.287228,TT,Trinidad and Tobago,country,Latin America and the Caribbean,10.691803,-61.222503,255.297554206455,1989,9712,1010,1987,0,15,0,1896,24,2497,0,229,1913,0,41,66,34,0,0,0,0,0,0,0,0
SG,Singapore,country,East Asia and Pacific,1.352083,103.819836,TT,Trinidad and Tobago,country,Latin America and the Caribbean,10.691803,-61.222503,17906.5059775232,1989,104,0,0,0,0,0,0,0,0,0,0,0,0,104,0,0,0,0,0,0,0,0,0,0
ES,Spain,country,Europe and Central Asia,40.463667,-3.74922,TT,Trinidad and Tobago,country,Latin America and the Caribbean,10.691803,-61.222503,6513.04549669805,1989,666,7,0,0,0,0,0,607,8,0,0,0,0,5,2,22,0,0,15,0,0,0,0,0
LK,Sri Lanka,country,South Asia,7.873054,80.771797,TT,Trinidad and Tobago,country,Latin America and the Caribbean,10.691803,-61.222503,15346.9915494995,1989,11,0,0,0,0,0,0,0,0,0,0,0,11,0,0,0,0,0,0,0,0,0,0,0
SE,Sweden,country,Europe and Central Asia,60.128161,18.643501,TT,Trinidad and Tobago,country,Latin America and the Caribbean,10.691803,-61.222503,8426.94265695895,1989,140,0,0,0,0,0,0,140,0,0,0,0,0,0,0,0,0,0,0,0,0,0,0,0
CH,Switzerland,country,Europe and Central Asia,46.818188,8.227512,TT,Trinidad and Tobago,country,Latin America and the Caribbean,10.691803,-61.222503,7592.28874866605,1989,4,0,0,0,0,0,0,0,0,0,0,0,0,4,0,0,0,0,0,0,0,0,0,0
TH,Thailand,country,East Asia and Pacific,15.870032,100.992541,TT,Trinidad and Tobago,country,Latin America and the Caribbean,10.691803,-61.222503,16490.1579910752,1989,255394,0,0,0,4,0,0,0,16,0,0,0,0,255374,0,0,0,0,0,0,0,0,0,0
TR,Turkey,country,Europe and Central Asia,38.963745,35.243322,TT,Trinidad and Tobago,country,Latin America and the Caribbean,10.691803,-61.222503,9823.39646413717,1989,1033,0,0,0,832,0,0,0,125,0,76,0,0,0,0,0,0,0,0,0,0,0,0,0
GB,United Kingdom,country,Europe and Central Asia,55.378051,-3.435973,TT,Trinidad and Tobago,country,Latin America and the Caribbean,10.691803,-61.222503,7039.61592230866,1989,21275,12490,0,179,20,0,53,23,18,0,0,19,9,5229,20,174,3,1184,1857,0,0,0,0,0
TZ,Tanzania,country,Sub-Saharan Africa,-6.369028,34.888822,TT,Trinidad and Tobago,country,Latin America and the Caribbean,10.691803,-61.222503,10815.2030318004,1989,4,0,0,0,0,0,0,0,0,0,2,0,0,2,0,0,0,0,0,0,0,0,0,0
US,USA,country,North America,37.09024,-95.712891,TT,Trinidad and Tobago,country,Latin America and the Caribbean,10.691803,-61.222503,4532.58682063172,1989,428387,245128,7,680,1711,91,93560,2371,308,0,5,445,326,73340,4550,35,674,3452,2378,0,0,0,0,0
VE,Venezuela,country,Latin America and the Caribbean,6.42375,-66.58973,TT,Trinidad and Tobago,country,Latin America and the Caribbean,10.691803,-61.222503,758.045213174182,1989,217,30,0,0,0,0,0,127,0,0,0,0,0,30,30,0,0,0,0,0,0,0,0,0
AD,Andorra,country,Europe and Central Asia,42.546245,1.601554,TT,Trinidad and Tobago,country,Latin America and the Caribbean,10.691803,-61.222503,6998.07708944491,1990,0,0,0,0,0,0,0,0,0,0,0,0,0,0,0,0,0,0,0,0,0,0,0,0
AR,Argentina,country,Latin America and the Caribbean,-38.416097,-63.616672,TT,Trinidad and Tobago,country,Latin America and the Caribbean,10.691803,-61.222503,5472.33471283131,1990,1401,0,0,0,0,0,160,429,18,0,0,0,0,0,0,0,0,539,255,0,0,0,0,0
AU,Australia,country,East Asia and Pacific,-25.274398,133.775136,TT,Trinidad and Tobago,country,Latin America and the Caribbean,10.691803,-61.222503,17770.9081694862,1990,5643,3212,0,0,0,0,0,17,63,0,0,0,0,0,0,11,0,2203,137,0,0,0,0,0
AT,Austria,country,Europe and Central Asia,47.516231,14.550072,TT,Trinidad and Tobago,country,Latin America and the Caribbean,10.691803,-61.222503,8075.86832320684,1990,447,0,0,0,0,0,0,0,45,0,0,0,0,0,0,0,0,0,402,0,0,0,0,0
BB,Barbados,country,Latin America and the Caribbean,13.193887,-59.543198,TT,Trinidad and Tobago,country,Latin America and the Caribbean,10.691803,-61.222503,333.201247831015,1990,780,174,6,0,2,0,0,0,29,0,0,0,0,116,319,82,0,52,0,0,0,0,0,0
BE,Belgium,country,Europe and Central Asia,50.503887,4.469936,TT,Trinidad and Tobago,country,Latin America and the Caribbean,10.691803,-61.222503,7391.05388046573,1990,2737,576,0,99,865,0,5,253,0,0,0,0,0,16,0,0,0,0,923,0,0,0,0,0
BZ,Belize,country,Latin America and the Caribbean,17.189877,-88.49765,TT,Trinidad and Tobago,country,Latin America and the Caribbean,10.691803,-61.222503,3030.87617195751,1990,1313,0,0,0,0,0,0,0,1297,0,0,0,0,16,0,0,0,0,0,0,0,0,0,0
BR,Brazil,country,Latin America and the Caribbean,-14.235004,-51.92528,TT,Trinidad and Tobago,country,Latin America and the Caribbean,10.691803,-61.222503,2958.52425611145,1990,732,5,0,3,0,3,0,0,57,0,10,0,0,448,0,0,0,206,0,0,0,0,0,0
CA,Canada,country,North America,56.130366,-106.346771,TT,Trinidad and Tobago,country,Latin America and the Caribbean,10.691803,-61.222503,6377.12517487862,1990,43130,13204,17828,25,5792,16,72,3298,566,10,94,142,34,233,68,0,0,1124,624,0,0,0,0,0
CL,Chile,country,Latin America and the Caribbean,-35.675147,-71.542969,TT,Trinidad and Tobago,country,Latin America and the Caribbean,10.691803,-61.222503,5274.40641291276,1990,517,0,0,0,0,0,0,488,18,0,0,0,0,11,0,0,0,0,0,0,0,0,0,0
HK,Hong Kong,country,East Asia and Pacific,22.396428,114.109497,TT,Trinidad and Tobago,country,Latin America and the Caribbean,10.691803,-61.222503,16319.0833735475,1990,475,2,0,0,0,0,265,48,19,0,7,0,0,99,35,0,0,0,0,0,0,0,0,0
CN,China,country,East Asia and Pacific,35.86166,104.195397,TT,Trinidad and Tobago,country,Latin America and the Caribbean,10.691803,-61.222503,14633.4460159842,1990,885,0,0,0,0,0,641,227,2,0,1,0,0,11,3,0,0,0,0,0,0,0,0,0
TW,Taiwan,country,East Asia and Pacific,23.69781,120.960515,TT,Trinidad and Tobago,country,Latin America and the Caribbean,10.691803,-61.222503,16201.9062426976,1990,148,2,0,0,0,0,8,44,55,0,0,0,0,36,3,0,0,0,0,0,0,0,0,0
CO,Colombia,country,Latin America and the Caribbean,4.570868,-74.297333,TT,Trinidad and Tobago,country,Latin America and the Caribbean,10.691803,-61.222503,1594.71062837232,1990,187,172,0,0,0,0,0,0,0,0,0,0,0,0,0,0,0,15,0,0,0,0,0,0
CR,Costa Rica,country,Latin America and the Caribbean,9.748917,-83.753428,TT,Trinidad and Tobago,country,Latin America and the Caribbean,10.691803,-61.222503,2470.02580671903,1990,20,0,0,0,0,0,0,0,20,0,0,0,0,0,0,0,0,0,0,0,0,0,0,0
CZ,Czech Republic,country,Europe and Central Asia,49.817492,15.472962,TT,Trinidad and Tobago,country,Latin America and the Caribbean,10.691803,-61.222503,8157.81588872115,1990,161,0,0,0,0,0,0,0,0,0,0,0,0,0,0,0,0,0,161,0,0,0,0,0
CD,"Congo, Dem. Rep.",country,Sub-Saharan Africa,-4.038333,21.758664,TT,Trinidad and Tobago,country,Latin America and the Caribbean,10.691803,-61.222503,9336.84094616252,1990,11,0,0,0,0,0,0,0,0,0,0,0,0,0,0,11,0,0,0,0,0,0,0,0
DK,Denmark,country,Europe and Central Asia,56.26392,9.501785,TT,Trinidad and Tobago,country,Latin America and the Caribbean,10.691803,-61.222503,7843.76355868068,1990,787,0,0,0,0,0,0,25,0,0,0,0,0,9,1,2,0,0,750,0,0,0,0,0
DM,Dominica,country,Latin America and the Caribbean,15.414999,-61.370976,TT,Trinidad and Tobago,country,Latin America and the Caribbean,10.691803,-61.222503,526.03007868635,1990,132,0,0,0,0,0,0,0,0,0,0,0,0,0,0,132,0,0,0,0,0,0,0,0
DO,Dominican Republic,country,Latin America and the Caribbean,18.735693,-70.162651,TT,Trinidad and Tobago,country,Latin America and the Caribbean,10.691803,-61.222503,1313.92896135107,1990,128,0,0,0,0,0,0,128,0,0,0,0,0,0,0,0,0,0,0,0,0,0,0,0
EC,Ecuador,country,Latin America and the Caribbean,-1.831239,-78.183406,TT,Trinidad and Tobago,country,Latin America and the Caribbean,10.691803,-61.222503,2339.32045868599,1990,90,0,0,0,0,0,0,18,0,0,0,0,72,0,0,0,0,0,0,0,0,0,0,0
EG,Egypt,country,Middle East and North Africa,26.820553,30.802498,TT,Trinidad and Tobago,country,Latin America and the Caribbean,10.691803,-61.222503,9682.32968001327,1990,76,0,0,0,0,0,0,0,0,0,76,0,0,0,0,0,0,0,0,0,0,0,0,0
ET,Ethiopia,country,Sub-Saharan Africa,9.145,40.489673,TT,Trinidad and Tobago,country,Latin America and the Caribbean,10.691803,-61.222503,11091.8253028607,1990,2,0,0,0,0,0,0,0,0,0,0,0,0,2,0,0,0,0,0,0,0,0,0,0
FI,Finland,country,Europe and Central Asia,61.92411,25.748151,TT,Trinidad and Tobago,country,Latin America and the Caribbean,10.691803,-61.222503,8811.61205039008,1990,155,0,0,0,0,0,0,0,0,0,0,0,0,0,0,0,0,155,0,0,0,0,0,0
FR,France,country,Europe and Central Asia,46.227638,2.213749,TT,Trinidad and Tobago,country,Latin America and the Caribbean,10.691803,-61.222503,7127.34718261979,1990,32844,31500,0,64,0,0,0,0,35,0,0,0,2,276,36,74,0,0,857,0,0,0,0,0
GR,Greece,country,Europe and Central Asia,39.074208,21.824312,TT,Trinidad and Tobago,country,Latin America and the Caribbean,10.691803,-61.222503,8673.92095679334,1990,28,0,0,0,0,0,0,0,26,0,0,0,0,2,0,0,0,0,0,0,0,0,0,0
GD,Grenada,country,Latin America and the Caribbean,12.262776,-61.604171,TT,Trinidad and Tobago,country,Latin America and the Caribbean,10.691803,-61.222503,179.768027292594,1990,3776,0,5,0,0,0,28,0,3585,0,50,100,0,8,0,0,0,0,0,0,0,0,0,0
GT,Guatemala,country,Latin America and the Caribbean,15.783471,-90.230759,TT,Trinidad and Tobago,country,Latin America and the Caribbean,10.691803,-61.222503,3191.1040143719,1990,5027,0,0,5000,0,0,0,0,0,0,0,0,0,27,0,0,0,0,0,0,0,0,0,0
GY,Guyana,country,Latin America and the Caribbean,4.860416,-58.93018,TT,Trinidad and Tobago,country,Latin America and the Caribbean,10.691803,-61.222503,696.604837833264,1990,352,0,0,0,0,0,53,0,279,0,16,0,0,0,0,4,0,0,0,0,0,0,0,0
HT,Haiti,country,Latin America and the Caribbean,18.971187,-72.285215,TT,Trinidad and Tobago,country,Latin America and the Caribbean,10.691803,-61.222503,1504.45373694973,1990,10,0,0,0,0,0,0,0,0,0,0,0,0,10,0,0,0,0,0,0,0,0,0,0
IN,India,country,South Asia,20.593684,78.96288,TT,Trinidad and Tobago,country,Latin America and the Caribbean,10.691803,-61.222503,14459.128395869,1990,354,0,0,0,0,24,0,0,9,0,142,0,150,29,0,0,0,0,0,0,0,0,0,0
ID,Indonesia,country,East Asia and Pacific,-0.789275,113.921327,TT,Trinidad and Tobago,country,Latin America and the Caribbean,10.691803,-61.222503,18811.2421460185,1990,8,0,0,0,0,0,0,0,0,0,8,0,0,0,0,0,0,0,0,0,0,0,0,0
IR,Iran,country,Middle East and North Africa,32.427908,53.688046,TT,Trinidad and Tobago,country,Latin America and the Caribbean,10.691803,-61.222503,11629.4947952153,1990,83,0,0,0,0,0,0,0,0,0,83,0,0,0,0,0,0,0,0,0,0,0,0,0
IE,Ireland,country,Europe and Central Asia,53.41291,-8.24389,TT,Trinidad and Tobago,country,Latin America and the Caribbean,10.691803,-61.222503,6667.20358771526,1990,3411,1014,0,0,0,0,0,0,0,0,0,1,0,59,0,39,0,246,2052,0,0,0,0,0
IL,Israel,country,Middle East and North Africa,31.046051,34.851612,TT,Trinidad and Tobago,country,Latin America and the Caribbean,10.691803,-61.222503,9976.67450661713,1990,57,0,0,0,0,0,0,57,0,0,0,0,0,0,0,0,0,0,0,0,0,0,0,0
IT,Italy,country,Europe and Central Asia,41.87194,12.56738,TT,Trinidad and Tobago,country,Latin America and the Caribbean,10.691803,-61.222503,7886.61290176917,1990,130,0,0,3,0,0,0,0,0,0,0,0,0,0,0,127,0,0,0,0,0,0,0,0
JM,Jamaica,country,Latin America and the Caribbean,18.109581,-77.297508,TT,Trinidad and Tobago,country,Latin America and the Caribbean,10.691803,-61.222503,1918.25374307869,1990,1763,180,0,32,0,0,17,2,144,0,0,19,358,264,0,511,0,214,22,0,0,0,0,0
JP,Japan,country,East Asia and Pacific,36.204824,138.252924,TT,Trinidad and Tobago,country,Latin America and the Caribbean,10.691803,-61.222503,14431.3657483464,1990,6,0,0,0,0,0,0,1,0,0,0,2,0,3,0,0,0,0,0,0,0,0,0,0
KE,Kenya,country,Sub-Saharan Africa,-0.023559,37.906193,TT,Trinidad and Tobago,country,Latin America and the Caribbean,10.691803,-61.222503,11017.6596867896,1990,0,0,0,0,0,0,0,0,0,0,0,0,0,0,0,0,0,0,0,0,0,0,0,0
LY,Libya,country,Middle East and North Africa,26.3351,17.228331,TT,Trinidad and Tobago,country,Latin America and the Caribbean,10.691803,-61.222503,8350.28838176924,1990,5,0,0,0,0,0,0,0,5,0,0,0,0,0,0,0,0,0,0,0,0,0,0,0
MW,Malawi,country,Sub-Saharan Africa,-13.254308,34.301525,TT,Trinidad and Tobago,country,Latin America and the Caribbean,10.691803,-61.222503,10879.9195400524,1990,2,0,0,0,2,0,0,0,0,0,0,0,0,0,0,0,0,0,0,0,0,0,0,0
MY,Malaysia,country,East Asia and Pacific,4.210484,101.975766,TT,Trinidad and Tobago,country,Latin America and the Caribbean,10.691803,-61.222503,17543.6986023969,1990,668,0,0,0,0,0,0,0,0,0,66,0,0,602,0,0,0,0,0,0,0,0,0,0
ML,Mali,country,Sub-Saharan Africa,17.570692,-3.996166,TT,Trinidad and Tobago,country,Latin America and the Caribbean,10.691803,-61.222503,6203.67420212429,1990,0,0,0,0,0,0,0,0,0,0,0,0,0,0,0,0,0,0,0,0,0,0,0,0
MX,Mexico,country,Latin America and the Caribbean,23.634501,-102.552784,TT,Trinidad and Tobago,country,Latin America and the Caribbean,10.691803,-61.222503,4606.18513175198,1990,582,57,0,18,322,0,0,185,0,0,0,0,0,0,0,0,0,0,0,0,0,0,0,0
MA,Morocco,country,Middle East and North Africa,31.791702,-7.09262,TT,Trinidad and Tobago,country,Latin America and the Caribbean,10.691803,-61.222503,6016.38487501351,1990,442,0,0,0,0,0,0,0,0,0,442,0,0,0,0,0,0,0,0,0,0,0,0,0
MM,Myanmar,country,East Asia and Pacific,21.913965,95.956223,TT,Trinidad and Tobago,country,Latin America and the Caribbean,10.691803,-61.222503,15634.4730715497,1990,17,0,0,0,0,0,0,0,0,0,0,0,0,0,0,0,0,0,17,0,0,0,0,0
NL,Netherlands,country,Europe and Central Asia,52.132633,5.291266,TT,Trinidad and Tobago,country,Latin America and the Caribbean,10.691803,-61.222503,7485.31082683629,1990,11328,57,4029,132,233,0,4,3267,229,0,95,0,259,190,626,0,0,14,2193,0,0,0,0,0
NZ,New Zealand,country,East Asia and Pacific,-40.900557,174.885971,TT,Trinidad and Tobago,country,Latin America and the Caribbean,10.691803,-61.222503,13624.0414285173,1990,4558,0,0,0,0,0,0,113,17,0,0,0,0,4,0,0,0,1317,3107,0,0,0,0,0
NG,Nigeria,country,Sub-Saharan Africa,9.081999,8.675277,TT,Trinidad and Tobago,country,Latin America and the Caribbean,10.691803,-61.222503,7650.87315620165,1990,1,0,0,0,0,0,0,0,0,0,0,0,0,1,0,0,0,0,0,0,0,0,0,0
PY,Paraguay,country,Latin America and the Caribbean,-23.442503,-58.443832,TT,Trinidad and Tobago,country,Latin America and the Caribbean,10.691803,-61.222503,3811.84501956913,1990,18,0,0,0,0,0,0,0,0,0,0,0,0,0,0,0,0,18,0,0,0,0,0,0
PE,Peru,country,Latin America and the Caribbean,-9.189967,-75.015152,TT,Trinidad and Tobago,country,Latin America and the Caribbean,10.691803,-61.222503,2689.1754360126,1990,4,0,0,0,0,0,0,4,0,0,0,0,0,0,0,0,0,0,0,0,0,0,0,0
PH,Philippines,country,East Asia and Pacific,12.879721,121.774017,TT,Trinidad and Tobago,country,Latin America and the Caribbean,10.691803,-61.222503,17392.7261472899,1990,3,0,0,0,0,0,3,0,0,0,0,0,0,0,0,0,0,0,0,0,0,0,0,0
PL,Poland,country,Europe and Central Asia,51.919438,19.145136,TT,Trinidad and Tobago,country,Latin America and the Caribbean,10.691803,-61.222503,8423.94742598344,1990,480,0,0,0,0,0,0,0,0,0,0,0,0,15,0,0,0,0,465,0,0,0,0,0
PT,Portugal,country,Europe and Central Asia,39.399872,-8.224454,TT,Trinidad and Tobago,country,Latin America and the Caribbean,10.691803,-61.222503,6113.43413748332,1990,384,0,0,0,0,0,0,380,0,0,0,0,0,0,0,4,0,0,0,0,0,0,0,0
PR,Puerto Rico,country,Latin America and the Caribbean,18.220833,-66.590149,TT,Trinidad and Tobago,country,Latin America and the Caribbean,10.691803,-61.222503,1018.15934371291,1990,1553,861,0,0,0,0,0,33,28,0,0,479,0,126,26,0,0,0,0,0,0,0,0,0
KR,"Korea, Rep.",country,East Asia and Pacific,35.907757,127.766922,TT,Trinidad and Tobago,country,Latin America and the Caribbean,10.691803,-61.222503,14764.7886886276,1990,14,1,0,0,0,0,0,0,0,0,0,0,0,13,0,0,0,0,0,0,0,0,0,0
KN,St. Kitts and Nevis,country,Latin America and the Caribbean,17.357822,-62.782998,TT,Trinidad and Tobago,country,Latin America and the Caribbean,10.691803,-61.222503,760.93088920838,1990,133,11,0,0,0,0,0,0,0,0,0,0,0,0,122,0,0,0,0,0,0,0,0,0
LC,St. Lucia,country,Latin America and the Caribbean,13.909444,-60.978893,TT,Trinidad and Tobago,country,Latin America and the Caribbean,10.691803,-61.222503,359.164516664202,1990,410,0,0,0,0,0,0,0,37,0,13,70,0,18,272,0,0,0,0,0,0,0,0,0
VC,St. Vincent & Grenadines,country,Latin America and the Caribbean,12.984305,-61.287228,TT,Trinidad and Tobago,country,Latin America and the Caribbean,10.691803,-61.222503,255.297554206455,1990,7828,5,1134,0,0,0,2302,0,2118,0,128,1911,0,54,146,30,0,0,0,0,0,0,0,0
SG,Singapore,country,East Asia and Pacific,1.352083,103.819836,TT,Trinidad and Tobago,country,Latin America and the Caribbean,10.691803,-61.222503,17906.5059775232,1990,10,0,0,0,0,0,0,0,0,0,10,0,0,0,0,0,0,0,0,0,0,0,0,0
ES,Spain,country,Europe and Central Asia,40.463667,-3.74922,TT,Trinidad and Tobago,country,Latin America and the Caribbean,10.691803,-61.222503,6513.04549669805,1990,245,0,0,0,0,0,18,147,15,0,0,0,24,2,2,37,0,0,0,0,0,0,0,0
SE,Sweden,country,Europe and Central Asia,60.128161,18.643501,TT,Trinidad and Tobago,country,Latin America and the Caribbean,10.691803,-61.222503,8426.94265695895,1990,80,0,0,0,0,0,0,20,0,0,0,0,0,0,0,0,0,0,60,0,0,0,0,0
CH,Switzerland,country,Europe and Central Asia,46.818188,8.227512,TT,Trinidad and Tobago,country,Latin America and the Caribbean,10.691803,-61.222503,7592.28874866605,1990,180,0,0,0,0,0,0,0,0,0,0,0,0,9,0,0,0,0,171,0,0,0,0,0
TH,Thailand,country,East Asia and Pacific,15.870032,100.992541,TT,Trinidad and Tobago,country,Latin America and the Caribbean,10.691803,-61.222503,16490.1579910752,1990,119,0,0,0,2,0,0,18,74,0,0,0,0,0,0,0,0,0,25,0,0,0,0,0
TR,Turkey,country,Europe and Central Asia,38.963745,35.243322,TT,Trinidad and Tobago,country,Latin America and the Caribbean,10.691803,-61.222503,9823.39646413717,1990,2388,0,0,0,2189,0,0,0,179,0,20,0,0,0,0,0,0,0,0,0,0,0,0,0
GB,United Kingdom,country,Europe and Central Asia,55.378051,-3.435973,TT,Trinidad and Tobago,country,Latin America and the Caribbean,10.691803,-61.222503,7039.61592230866,1990,7440,4170,0,107,0,0,5,0,36,2,0,22,10,150,52,201,14,844,1841,0,0,0,0,0
US,USA,country,North America,37.09024,-95.712891,TT,Trinidad and Tobago,country,Latin America and the Caribbean,10.691803,-61.222503,4532.58682063172,1990,318787,242638,214,1054,1501,86,58998,2574,2553,2,23,963,82,1767,2570,1,610,2671,1090,0,0,0,0,0
VE,Venezuela,country,Latin America and the Caribbean,6.42375,-66.58973,TT,Trinidad and Tobago,country,Latin America and the Caribbean,10.691803,-61.222503,758.045213174182,1990,511,274,0,0,0,0,5,192,0,0,0,10,0,30,0,0,0,0,0,0,0,0,0,0
VN,Vietnam,country,East Asia and Pacific,14.058324,108.277199,TT,Trinidad and Tobago,country,Latin America and the Caribbean,10.691803,-61.222503,17048.4072815479,1990,37,0,0,0,0,0,37,0,0,0,0,0,0,0,0,0,0,0,0,0,0,0,0,0
BA,Bosnia & Herzegovina,country,Europe and Central Asia,43.915886,17.679076,TT,Trinidad and Tobago,country,Latin America and the Caribbean,10.691803,-61.222503,8308.5146571179,1990,2,0,0,0,0,0,0,0,0,0,0,0,0,2,0,0,0,0,0,0,0,0,0,0
AR,Argentina,country,Latin America and the Caribbean,-38.416097,-63.616672,TT,Trinidad and Tobago,country,Latin America and the Caribbean,10.691803,-61.222503,5472.33471283131,1991,1535,0,0,0,0,0,713,802,0,0,20,0,0,0,0,0,0,0,0,0,0,0,0,0
AU,Australia,country,East Asia and Pacific,-25.274398,133.775136,TT,Trinidad and Tobago,country,Latin America and the Caribbean,10.691803,-61.222503,17770.9081694862,1991,5388,3204,0,0,0,0,4,0,41,0,3,0,0,0,0,29,0,2104,3,0,0,0,0,0
AT,Austria,country,Europe and Central Asia,47.516231,14.550072,TT,Trinidad and Tobago,country,Latin America and the Caribbean,10.691803,-61.222503,8075.86832320684,1991,155,0,0,0,0,0,0,0,0,0,0,0,0,0,0,0,0,0,155,0,0,0,0,0
BS,The Bahamas,country,Latin America and the Caribbean,25.03428,-77.39628,TT,Trinidad and Tobago,country,Latin America and the Caribbean,10.691803,-61.222503,2337.46030898868,1991,64,0,0,0,0,0,0,0,0,0,0,0,0,0,0,0,0,0,64,0,0,0,0,0
BD,Bangladesh,country,South Asia,23.684994,90.356331,TT,Trinidad and Tobago,country,Latin America and the Caribbean,10.691803,-61.222503,15116.9386815602,1991,0,0,0,0,0,0,0,0,0,0,0,0,0,0,0,0,0,0,0,0,0,0,0,0
BB,Barbados,country,Latin America and the Caribbean,13.193887,-59.543198,TT,Trinidad and Tobago,country,Latin America and the Caribbean,10.691803,-61.222503,333.201247831015,1991,1115,235,0,0,0,0,23,0,0,0,0,2,0,190,387,112,0,109,57,0,0,0,0,0
BE,Belgium,country,Europe and Central Asia,50.503887,4.469936,TT,Trinidad and Tobago,country,Latin America and the Caribbean,10.691803,-61.222503,7391.05388046573,1991,1487,135,16,39,229,0,0,131,0,6,0,0,2,20,19,1,0,0,889,0,0,0,0,0
BZ,Belize,country,Latin America and the Caribbean,17.189877,-88.49765,TT,Trinidad and Tobago,country,Latin America and the Caribbean,10.691803,-61.222503,3030.87617195751,1991,7944,0,0,0,0,0,0,0,7943,0,0,0,0,1,0,0,0,0,0,0,0,0,0,0
BR,Brazil,country,Latin America and the Caribbean,-14.235004,-51.92528,TT,Trinidad and Tobago,country,Latin America and the Caribbean,10.691803,-61.222503,2958.52425611145,1991,770,0,0,3,0,0,0,0,62,18,0,0,230,455,0,2,0,0,0,0,0,0,0,0
CA,Canada,country,North America,56.130366,-106.346771,TT,Trinidad and Tobago,country,Latin America and the Caribbean,10.691803,-61.222503,6377.12517487862,1991,37980,2709,24562,14,2141,4,56,6158,733,12,112,52,58,242,31,10,0,720,364,2,0,0,0,0
KY,Cayman Islands,country,Latin America and the Caribbean,19.513469,-80.566956,TT,Trinidad and Tobago,country,Latin America and the Caribbean,10.691803,-61.222503,2296.41286629328,1991,20,0,0,0,0,0,0,0,0,0,0,0,0,0,0,0,0,20,0,0,0,0,0,0
CL,Chile,country,Latin America and the Caribbean,-35.675147,-71.542969,TT,Trinidad and Tobago,country,Latin America and the Caribbean,10.691803,-61.222503,5274.40641291276,1991,485,0,0,0,0,0,0,451,29,0,0,0,0,0,0,5,0,0,0,0,0,0,0,0
HK,Hong Kong,country,East Asia and Pacific,22.396428,114.109497,TT,Trinidad and Tobago,country,Latin America and the Caribbean,10.691803,-61.222503,16319.0833735475,1991,503,8,3,3,1,5,217,148,21,0,7,0,0,57,30,3,0,0,0,0,0,0,0,0
CN,China,country,East Asia and Pacific,35.86166,104.195397,TT,Trinidad and Tobago,country,Latin America and the Caribbean,10.691803,-61.222503,14633.4460159842,1991,1727,1,0,0,0,35,1118,527,7,6,11,0,0,20,2,0,0,0,0,0,0,0,0,0
TW,Taiwan,country,East Asia and Pacific,23.69781,120.960515,TT,Trinidad and Tobago,country,Latin America and the Caribbean,10.691803,-61.222503,16201.9062426976,1991,84,9,7,0,0,0,5,47,9,0,2,0,0,3,2,0,0,0,0,0,0,0,0,0
CO,Colombia,country,Latin America and the Caribbean,4.570868,-74.297333,TT,Trinidad and Tobago,country,Latin America and the Caribbean,10.691803,-61.222503,1594.71062837232,1991,21,3,0,0,0,0,18,0,0,0,0,0,0,0,0,0,0,0,0,0,0,0,0,0
CR,Costa Rica,country,Latin America and the Caribbean,9.748917,-83.753428,TT,Trinidad and Tobago,country,Latin America and the Caribbean,10.691803,-61.222503,2470.02580671903,1991,114,0,0,0,0,0,0,0,114,0,0,0,0,0,0,0,0,0,0,0,0,0,0,0
CZ,Czech Republic,country,Europe and Central Asia,49.817492,15.472962,TT,Trinidad and Tobago,country,Latin America and the Caribbean,10.691803,-61.222503,8157.81588872115,1991,61,0,0,0,0,0,0,0,0,0,0,0,0,0,0,0,0,0,61,0,0,0,0,0
DK,Denmark,country,Europe and Central Asia,56.26392,9.501785,TT,Trinidad and Tobago,country,Latin America and the Caribbean,10.691803,-61.222503,7843.76355868068,1991,681,2,0,0,0,0,0,5,0,0,0,0,0,0,0,0,0,0,674,0,0,0,0,0
DM,Dominica,country,Latin America and the Caribbean,15.414999,-61.370976,TT,Trinidad and Tobago,country,Latin America and the Caribbean,10.691803,-61.222503,526.03007868635,1991,415,0,0,0,0,0,0,0,175,0,14,20,0,0,0,206,0,0,0,0,0,0,0,0
DO,Dominican Republic,country,Latin America and the Caribbean,18.735693,-70.162651,TT,Trinidad and Tobago,country,Latin America and the Caribbean,10.691803,-61.222503,1313.92896135107,1991,342,0,0,0,0,0,0,342,0,0,0,0,0,0,0,0,0,0,0,0,0,0,0,0
EC,Ecuador,country,Latin America and the Caribbean,-1.831239,-78.183406,TT,Trinidad and Tobago,country,Latin America and the Caribbean,10.691803,-61.222503,2339.32045868599,1991,73,0,0,0,0,0,0,0,0,0,0,0,72,0,0,0,0,0,1,0,0,0,0,0
EG,Egypt,country,Middle East and North Africa,26.820553,30.802498,TT,Trinidad and Tobago,country,Latin America and the Caribbean,10.691803,-61.222503,9682.32968001327,1991,2,0,0,0,0,0,0,0,0,0,2,0,0,0,0,0,0,0,0,0,0,0,0,0
ET,Ethiopia,country,Sub-Saharan Africa,9.145,40.489673,TT,Trinidad and Tobago,country,Latin America and the Caribbean,10.691803,-61.222503,11091.8253028607,1991,44,0,0,0,0,0,44,0,0,0,0,0,0,0,0,0,0,0,0,0,0,0,0,0
FI,Finland,country,Europe and Central Asia,61.92411,25.748151,TT,Trinidad and Tobago,country,Latin America and the Caribbean,10.691803,-61.222503,8811.61205039008,1991,66,0,0,0,0,0,0,0,0,0,0,0,0,0,0,0,0,0,66,0,0,0,0,0
FR,France,country,Europe and Central Asia,46.227638,2.213749,TT,Trinidad and Tobago,country,Latin America and the Caribbean,10.691803,-61.222503,7127.34718261979,1991,1677,0,0,96,0,0,0,23,26,0,0,0,33,189,27,115,1,0,1168,0,0,0,0,0
DE,Germany,country,Europe and Central Asia,51.165691,10.451526,TT,Trinidad and Tobago,country,Latin America and the Caribbean,10.691803,-61.222503,7817.86679762451,1991,1561,12,0,100,0,0,0,0,37,0,0,0,20,16,91,74,0,0,1211,0,0,0,0,0
GR,Greece,country,Europe and Central Asia,39.074208,21.824312,TT,Trinidad and Tobago,country,Latin America and the Caribbean,10.691803,-61.222503,8673.92095679334,1991,105,0,0,0,0,0,0,0,105,0,0,0,0,0,0,0,0,0,0,0,0,0,0,0
GD,Grenada,country,Latin America and the Caribbean,12.262776,-61.604171,TT,Trinidad and Tobago,country,Latin America and the Caribbean,10.691803,-61.222503,179.768027292594,1991,1063,0,0,0,0,0,19,0,872,0,13,159,0,0,0,0,0,0,0,0,0,0,0,0
GT,Guatemala,country,Latin America and the Caribbean,15.783471,-90.230759,TT,Trinidad and Tobago,country,Latin America and the Caribbean,10.691803,-61.222503,3191.1040143719,1991,16020,0,0,16000,0,0,0,0,0,0,0,0,0,20,0,0,0,0,0,0,0,0,0,0
GY,Guyana,country,Latin America and the Caribbean,4.860416,-58.93018,TT,Trinidad and Tobago,country,Latin America and the Caribbean,10.691803,-61.222503,696.604837833264,1991,2139,1676,0,0,0,0,0,0,375,0,14,0,0,18,0,52,0,0,0,4,0,0,0,0
HT,Haiti,country,Latin America and the Caribbean,18.971187,-72.285215,TT,Trinidad and Tobago,country,Latin America and the Caribbean,10.691803,-61.222503,1504.45373694973,1991,16,0,0,0,0,0,0,0,0,0,0,0,0,16,0,0,0,0,0,0,0,0,0,0
HU,Hungary,country,Europe and Central Asia,47.162494,19.503304,TT,Trinidad and Tobago,country,Latin America and the Caribbean,10.691803,-61.222503,8448.4798505223,1991,5,0,0,0,0,0,0,5,0,0,0,0,0,0,0,0,0,0,0,0,0,0,0,0
IN,India,country,South Asia,20.593684,78.96288,TT,Trinidad and Tobago,country,Latin America and the Caribbean,10.691803,-61.222503,14459.128395869,1991,366,0,0,0,0,55,4,0,0,0,222,0,85,0,0,0,0,0,0,0,0,0,0,0
ID,Indonesia,country,East Asia and Pacific,-0.789275,113.921327,TT,Trinidad and Tobago,country,Latin America and the Caribbean,10.691803,-61.222503,18811.2421460185,1991,101,0,0,0,0,0,0,0,16,0,24,0,0,61,0,0,0,0,0,0,0,0,0,0
IR,Iran,country,Middle East and North Africa,32.427908,53.688046,TT,Trinidad and Tobago,country,Latin America and the Caribbean,10.691803,-61.222503,11629.4947952153,1991,138,0,0,0,0,0,0,0,108,0,30,0,0,0,0,0,0,0,0,0,0,0,0,0
IE,Ireland,country,Europe and Central Asia,53.41291,-8.24389,TT,Trinidad and Tobago,country,Latin America and the Caribbean,10.691803,-61.222503,6667.20358771526,1991,4737,991,0,0,0,0,0,0,0,0,0,1,0,0,0,54,0,872,2819,0,0,0,0,0
IL,Israel,country,Middle East and North Africa,31.046051,34.851612,TT,Trinidad and Tobago,country,Latin America and the Caribbean,10.691803,-61.222503,9976.67450661713,1991,147,0,0,0,0,0,0,147,0,0,0,0,0,0,0,0,0,0,0,0,0,0,0,0
IT,Italy,country,Europe and Central Asia,41.87194,12.56738,TT,Trinidad and Tobago,country,Latin America and the Caribbean,10.691803,-61.222503,7886.61290176917,1991,203,0,0,0,0,0,0,0,2,0,0,0,0,0,0,201,0,0,0,0,0,0,0,0
JM,Jamaica,country,Latin America and the Caribbean,18.109581,-77.297508,TT,Trinidad and Tobago,country,Latin America and the Caribbean,10.691803,-61.222503,1918.25374307869,1991,2913,225,0,52,0,0,12,11,318,0,0,267,381,419,0,454,0,283,491,0,0,0,0,0
JP,Japan,country,East Asia and Pacific,36.204824,138.252924,TT,Trinidad and Tobago,country,Latin America and the Caribbean,10.691803,-61.222503,14431.3657483464,1991,23,0,0,0,0,0,3,0,0,0,0,0,0,0,0,0,0,0,20,0,0,0,0,0
KE,Kenya,country,Sub-Saharan Africa,-0.023559,37.906193,TT,Trinidad and Tobago,country,Latin America and the Caribbean,10.691803,-61.222503,11017.6596867896,1991,16,0,0,0,0,0,0,0,0,0,0,0,16,0,0,0,0,0,0,0,0,0,0,0
LB,Lebanon,country,Middle East and North Africa,33.854721,35.862285,TT,Trinidad and Tobago,country,Latin America and the Caribbean,10.691803,-61.222503,10001.4929371771,1991,5,0,0,0,0,0,0,0,0,0,0,0,0,2,3,0,0,0,0,0,0,0,0,0
MG,Madagascar,country,Sub-Saharan Africa,-18.766947,46.869107,TT,Trinidad and Tobago,country,Latin America and the Caribbean,10.691803,-61.222503,12289.9325795421,1991,2,0,0,0,0,0,0,0,0,0,2,0,0,0,0,0,0,0,0,0,0,0,0,0
MW,Malawi,country,Sub-Saharan Africa,-13.254308,34.301525,TT,Trinidad and Tobago,country,Latin America and the Caribbean,10.691803,-61.222503,10879.9195400524,1991,12,0,0,0,0,0,0,0,0,0,0,0,12,0,0,0,0,0,0,0,0,0,0,0
MY,Malaysia,country,East Asia and Pacific,4.210484,101.975766,TT,Trinidad and Tobago,country,Latin America and the Caribbean,10.691803,-61.222503,17543.6986023969,1991,746,0,0,0,0,0,0,0,0,0,74,0,0,672,0,0,0,0,0,0,0,0,0,0
MX,Mexico,country,Latin America and the Caribbean,23.634501,-102.552784,TT,Trinidad and Tobago,country,Latin America and the Caribbean,10.691803,-61.222503,4606.18513175198,1991,433,90,0,0,40,0,0,298,0,0,0,0,0,0,0,5,0,0,0,0,0,0,0,0
MA,Morocco,country,Middle East and North Africa,31.791702,-7.09262,TT,Trinidad and Tobago,country,Latin America and the Caribbean,10.691803,-61.222503,6016.38487501351,1991,183,0,0,0,0,0,0,0,0,0,183,0,0,0,0,0,0,0,0,0,0,0,0,0
NL,Netherlands,country,Europe and Central Asia,52.132633,5.291266,TT,Trinidad and Tobago,country,Latin America and the Caribbean,10.691803,-61.222503,7485.31082683629,1991,11064,270,1877,198,260,5,29,5562,0,0,229,0,144,145,578,0,0,0,1767,0,0,0,0,0
NZ,New Zealand,country,East Asia and Pacific,-40.900557,174.885971,TT,Trinidad and Tobago,country,Latin America and the Caribbean,10.691803,-61.222503,13624.0414285173,1991,4230,30,0,0,0,0,0,268,0,0,0,0,0,7,0,0,0,1573,2352,0,0,0,0,0
PA,Panama,country,Latin America and the Caribbean,8.537981,-80.782127,TT,Trinidad and Tobago,country,Latin America and the Caribbean,10.691803,-61.222503,2159.69946508116,1991,17,0,0,0,0,0,0,17,0,0,0,0,0,0,0,0,0,0,0,0,0,0,0,0
PE,Peru,country,Latin America and the Caribbean,-9.189967,-75.015152,TT,Trinidad and Tobago,country,Latin America and the Caribbean,10.691803,-61.222503,2689.1754360126,1991,20,0,0,0,0,0,0,20,0,0,0,0,0,0,0,0,0,0,0,0,0,0,0,0
PL,Poland,country,Europe and Central Asia,51.919438,19.145136,TT,Trinidad and Tobago,country,Latin America and the Caribbean,10.691803,-61.222503,8423.94742598344,1991,1140,0,0,0,0,0,0,0,11,0,0,0,0,0,0,0,0,0,1129,0,0,0,0,0
PT,Portugal,country,Europe and Central Asia,39.399872,-8.224454,TT,Trinidad and Tobago,country,Latin America and the Caribbean,10.691803,-61.222503,6113.43413748332,1991,509,0,0,0,0,0,0,504,0,0,0,0,0,0,0,5,0,0,0,0,0,0,0,0
PR,Puerto Rico,country,Latin America and the Caribbean,18.220833,-66.590149,TT,Trinidad and Tobago,country,Latin America and the Caribbean,10.691803,-61.222503,1018.15934371291,1991,3462,881,0,0,0,0,1,25,66,0,0,2464,0,25,0,0,0,0,0,0,0,0,0,0
KR,"Korea, Rep.",country,East Asia and Pacific,35.907757,127.766922,TT,Trinidad and Tobago,country,Latin America and the Caribbean,10.691803,-61.222503,14764.7886886276,1991,0,0,0,0,0,0,0,0,0,0,0,0,0,0,0,0,0,0,0,0,0,0,0,0
KN,St. Kitts and Nevis,country,Latin America and the Caribbean,17.357822,-62.782998,TT,Trinidad and Tobago,country,Latin America and the Caribbean,10.691803,-61.222503,760.93088920838,1991,101,5,0,0,0,0,0,0,0,0,0,0,0,0,96,0,0,0,0,0,0,0,0,0
LC,St. Lucia,country,Latin America and the Caribbean,13.909444,-60.978893,TT,Trinidad and Tobago,country,Latin America and the Caribbean,10.691803,-61.222503,359.164516664202,1991,507,0,26,2,0,0,0,29,0,0,10,64,18,25,317,16,0,0,0,0,0,0,0,0
VC,St. Vincent & Grenadines,country,Latin America and the Caribbean,12.984305,-61.287228,TT,Trinidad and Tobago,country,Latin America and the Caribbean,10.691803,-61.222503,255.297554206455,1991,5329,0,947,0,0,0,3044,0,947,0,198,3,0,9,181,0,0,0,0,0,0,0,0,0
SG,Singapore,country,East Asia and Pacific,1.352083,103.819836,TT,Trinidad and Tobago,country,Latin America and the Caribbean,10.691803,-61.222503,17906.5059775232,1991,17,0,0,0,0,0,0,0,0,0,17,0,0,0,0,0,0,0,0,0,0,0,0,0
ES,Spain,country,Europe and Central Asia,40.463667,-3.74922,TT,Trinidad and Tobago,country,Latin America and the Caribbean,10.691803,-61.222503,6513.04549669805,1991,268,0,6,0,0,0,11,58,23,0,0,0,13,121,2,34,0,0,0,0,0,0,0,0
LK,Sri Lanka,country,South Asia,7.873054,80.771797,TT,Trinidad and Tobago,country,Latin America and the Caribbean,10.691803,-61.222503,15346.9915494995,1991,2895,0,0,0,0,0,0,0,0,0,0,2890,5,0,0,0,0,0,0,0,0,0,0,0
SZ,Swaziland,country,Sub-Saharan Africa,-26.522503,31.465866,TT,Trinidad and Tobago,country,Latin America and the Caribbean,10.691803,-61.222503,10812.233162865,1991,19,0,0,0,0,0,0,0,0,0,0,0,0,0,0,0,0,0,19,0,0,0,0,0
SE,Sweden,country,Europe and Central Asia,60.128161,18.643501,TT,Trinidad and Tobago,country,Latin America and the Caribbean,10.691803,-61.222503,8426.94265695895,1991,171,0,0,0,0,0,0,168,0,0,0,0,0,0,0,3,0,0,0,0,0,0,0,0
CH,Switzerland,country,Europe and Central Asia,46.818188,8.227512,TT,Trinidad and Tobago,country,Latin America and the Caribbean,10.691803,-61.222503,7592.28874866605,1991,137,0,0,0,0,0,0,0,0,0,0,0,0,8,0,0,0,0,129,0,0,0,0,0
SY,Syrian Arab Rep.,country,Middle East and North Africa,34.802075,38.996815,TT,Trinidad and Tobago,country,Latin America and the Caribbean,10.691803,-61.222503,10256.4900456865,1991,4,0,0,0,0,0,0,0,0,0,4,0,0,0,0,0,0,0,0,0,0,0,0,0
TH,Thailand,country,East Asia and Pacific,15.870032,100.992541,TT,Trinidad and Tobago,country,Latin America and the Caribbean,10.691803,-61.222503,16490.1579910752,1991,228,0,0,0,5,0,0,51,170,0,1,0,0,1,0,0,0,0,0,0,0,0,0,0
TR,Turkey,country,Europe and Central Asia,38.963745,35.243322,TT,Trinidad and Tobago,country,Latin America and the Caribbean,10.691803,-61.222503,9823.39646413717,1991,2721,0,0,0,2251,0,0,197,260,0,1,0,0,0,0,0,0,0,12,0,0,0,0,0
GB,United Kingdom,country,Europe and Central Asia,55.378051,-3.435973,TT,Trinidad and Tobago,country,Latin America and the Caribbean,10.691803,-61.222503,7039.61592230866,1991,9512,3766,39,170,0,0,0,0,5,5,0,0,64,225,77,256,0,2121,2784,0,0,0,0,0
TZ,Tanzania,country,Sub-Saharan Africa,-6.369028,34.888822,TT,Trinidad and Tobago,country,Latin America and the Caribbean,10.691803,-61.222503,10815.2030318004,1991,44,0,0,0,0,0,0,40,0,0,4,0,0,0,0,0,0,0,0,0,0,0,0,0
US,USA,country,North America,37.09024,-95.712891,TT,Trinidad and Tobago,country,Latin America and the Caribbean,10.691803,-61.222503,4532.58682063172,1991,368078,197540,40,1276,1341,110,96271,3700,2142,39,26,52969,103,916,7490,88,396,2543,1484,0,0,0,0,0
RU,Russian Federation,country,Europe and Central Asia,61.52401,105.318756,TT,Trinidad and Tobago,country,Latin America and the Caribbean,10.691803,-61.222503,11912.4821176435,1991,0,0,0,0,0,0,0,0,0,0,0,0,0,0,0,0,0,0,0,0,0,0,0,0
VE,Venezuela,country,Latin America and the Caribbean,6.42375,-66.58973,TT,Trinidad and Tobago,country,Latin America and the Caribbean,10.691803,-61.222503,758.045213174182,1991,408,261,0,0,0,0,0,98,0,0,0,9,0,24,0,16,0,0,0,0,0,0,0,0
AF,Afghanistan,country,South Asia,33.93911,67.709953,TT,Trinidad and Tobago,country,Latin America and the Caribbean,10.691803,-61.222503,12704.2152939342,1992,40,0,0,0,0,0,0,0,40,0,0,0,0,0,0,0,0,0,0,0,0,0,0,0
AR,Argentina,country,Latin America and the Caribbean,-38.416097,-63.616672,TT,Trinidad and Tobago,country,Latin America and the Caribbean,10.691803,-61.222503,5472.33471283131,1992,1157,0,0,0,0,0,72,1083,0,0,0,0,0,2,0,0,0,0,0,0,0,0,0,0
AU,Australia,country,East Asia and Pacific,-25.274398,133.775136,TT,Trinidad and Tobago,country,Latin America and the Caribbean,10.691803,-61.222503,17770.9081694862,1992,3806,1182,0,0,133,0,18,9,5,0,5,0,0,0,0,27,0,1850,577,0,0,0,0,0
AT,Austria,country,Europe and Central Asia,47.516231,14.550072,TT,Trinidad and Tobago,country,Latin America and the Caribbean,10.691803,-61.222503,8075.86832320684,1992,233,0,0,0,0,0,0,0,0,0,0,0,0,0,0,0,0,0,233,0,0,0,0,0
BB,Barbados,country,Latin America and the Caribbean,13.193887,-59.543198,TT,Trinidad and Tobago,country,Latin America and the Caribbean,10.691803,-61.222503,333.201247831015,1992,1913,498,0,0,0,0,0,1,9,0,0,0,2,184,903,176,0,99,41,0,0,0,0,0
BE,Belgium,country,Europe and Central Asia,50.503887,4.469936,TT,Trinidad and Tobago,country,Latin America and the Caribbean,10.691803,-61.222503,7391.05388046573,1992,1187,15,0,259,236,0,4,48,0,0,0,0,22,28,42,2,0,0,531,0,0,0,0,0
BZ,Belize,country,Latin America and the Caribbean,17.189877,-88.49765,TT,Trinidad and Tobago,country,Latin America and the Caribbean,10.691803,-61.222503,3030.87617195751,1992,13516,0,0,11996,0,0,0,0,1518,0,0,0,0,2,0,0,0,0,0,0,0,0,0,0
BT,Bhutan,country,South Asia,27.514162,90.433601,TT,Trinidad and Tobago,country,Latin America and the Caribbean,10.691803,-61.222503,14799.5074611862,1992,6,2,0,0,0,0,0,0,0,0,0,4,0,0,0,0,0,0,0,0,0,0,0,0
BR,Brazil,country,Latin America and the Caribbean,-14.235004,-51.92528,TT,Trinidad and Tobago,country,Latin America and the Caribbean,10.691803,-61.222503,2958.52425611145,1992,1197,0,0,5,0,0,0,17,118,0,0,0,91,479,485,2,0,0,0,0,0,0,0,0
CA,Canada,country,North America,56.130366,-106.346771,TT,Trinidad and Tobago,country,Latin America and the Caribbean,10.691803,-61.222503,6377.12517487862,1992,37288,3288,22117,16,4687,6,128,3217,834,0,215,99,38,226,46,117,0,2069,185,0,0,0,0,0
CL,Chile,country,Latin America and the Caribbean,-35.675147,-71.542969,TT,Trinidad and Tobago,country,Latin America and the Caribbean,10.691803,-61.222503,5274.40641291276,1992,268,0,0,0,0,0,0,258,0,0,0,0,0,0,0,10,0,0,0,0,0,0,0,0
HK,Hong Kong,country,East Asia and Pacific,22.396428,114.109497,TT,Trinidad and Tobago,country,Latin America and the Caribbean,10.691803,-61.222503,16319.0833735475,1992,446,5,0,2,0,0,190,78,62,0,6,0,2,66,34,1,0,0,0,0,0,0,0,0
CN,China,country,East Asia and Pacific,35.86166,104.195397,TT,Trinidad and Tobago,country,Latin America and the Caribbean,10.691803,-61.222503,14633.4460159842,1992,1692,5,0,3,2,0,486,1192,0,0,0,0,0,3,1,0,0,0,0,0,0,0,0,0
TW,Taiwan,country,East Asia and Pacific,23.69781,120.960515,TT,Trinidad and Tobago,country,Latin America and the Caribbean,10.691803,-61.222503,16201.9062426976,1992,90,0,0,0,0,0,0,30,60,0,0,0,0,0,0,0,0,0,0,0,0,0,0,0
CZ,Czech Republic,country,Europe and Central Asia,49.817492,15.472962,TT,Trinidad and Tobago,country,Latin America and the Caribbean,10.691803,-61.222503,8157.81588872115,1992,346,0,0,0,0,0,0,0,0,0,0,0,0,0,0,0,0,0,346,0,0,0,0,0
DK,Denmark,country,Europe and Central Asia,56.26392,9.501785,TT,Trinidad and Tobago,country,Latin America and the Caribbean,10.691803,-61.222503,7843.76355868068,1992,631,14,0,0,0,0,0,0,0,0,0,0,0,4,0,0,0,0,613,0,0,0,0,0
