sourceCode,sourceName,sourceGrouping,sourceRegion,sourceLat,sourceLong,destCode,destName,destGrouping,destRegion,destLat,destLong,distance,year,totalTons,cereals,roots,sugarCrops,pulses,nuts,oilCrops,vegetables,fruits,fibers,spices,fodderCrops,coffeeTea,tobaccoRubber,oilsFats,beverages,livestock,animalMeats,animalProducts,animalHides,nimalOther,pesticides,fertilizers,machinery
AF,Afghanistan,country,South Asia,33.93911,67.709953,AE,United Arab Emirates,country,Middle East and North Africa,23.424076,53.847818,1786.34088935768,2002,2550,0,121,0,224,498,0,5,228,0,123,0,0,1351,0,0,0,0,0,0,0,0,0,0
AL,Albania,country,Europe and Central Asia,41.153332,20.168331,AE,United Arab Emirates,country,Middle East and North Africa,23.424076,53.847818,3698.41166050905,2002,5,0,0,0,0,0,0,0,0,0,0,0,0,5,0,0,0,0,0,0,0,0,0,0
DZ,Algeria,country,Middle East and North Africa,28.033886,1.659626,AE,United Arab Emirates,country,Middle East and North Africa,23.424076,53.847818,5219.95595646008,2002,65,0,0,0,0,0,0,0,65,0,0,0,0,0,0,0,0,0,0,0,0,0,0,0
AG,Antigua & Barbuda,country,Latin America and the Caribbean,17.060816,-61.796428,AE,United Arab Emirates,country,Middle East and North Africa,23.424076,53.847818,11716.2292611164,2002,22,0,0,0,0,0,0,0,22,0,0,0,0,0,0,0,0,0,0,0,0,0,0,0
AR,Argentina,country,Latin America and the Caribbean,-38.416097,-63.616672,AE,United Arab Emirates,country,Middle East and North Africa,23.424076,53.847818,13954.074647522,2002,174333,164919,0,466,699,0,2157,1,1016,0,0,138,63,35,4581,62,0,104,92,0,0,0,0,0
AM,Armenia,country,Europe and Central Asia,40.069099,45.038189,AE,United Arab Emirates,country,Middle East and North Africa,23.424076,53.847818,2029.24636850083,2002,411,0,0,0,0,0,0,0,1,0,0,0,0,0,0,410,0,0,0,0,0,0,0,0
AU,Australia,country,East Asia and Pacific,-25.274398,133.775136,AE,United Arab Emirates,country,Middle East and North Africa,23.424076,53.847818,10175.7193369084,2002,708647,618035,350,504,21331,186,75,13670,6909,0,425,8699,503,1740,236,5447,0,17187,13350,0,0,0,0,0
AT,Austria,country,Europe and Central Asia,47.516231,14.550072,AE,United Arab Emirates,country,Middle East and North Africa,23.424076,53.847818,4385.82870637242,2002,4558,262,0,0,0,0,3,1,593,0,0,118,36,64,0,2885,0,65,531,0,0,0,0,0
AZ,Azerbaijan,country,Europe and Central Asia,40.143105,47.576927,AE,United Arab Emirates,country,Middle East and North Africa,23.424076,53.847818,1952.05237367175,2002,775,0,0,0,22,0,0,46,24,0,0,0,0,661,22,0,0,0,0,0,0,0,0,0
BS,The Bahamas,country,Latin America and the Caribbean,25.03428,-77.39628,AE,United Arab Emirates,country,Middle East and North Africa,23.424076,53.847818,12504.1365871846,2002,30,0,0,0,0,0,0,0,0,0,0,0,0,0,0,30,0,0,0,0,0,0,0,0
BH,Bahrain,country,Middle East and North Africa,25.930414,50.637772,AE,United Arab Emirates,country,Middle East and North Africa,23.424076,53.847818,428.07152930609,2002,1581,21,0,9,0,24,0,146,44,0,44,0,12,181,1,89,5,36,974,0,0,0,0,0
BD,Bangladesh,country,South Asia,23.684994,90.356331,AE,United Arab Emirates,country,Middle East and North Africa,23.424076,53.847818,3715.18551755001,2002,4007,235,39,0,2,0,0,2530,27,0,37,0,126,991,20,0,0,0,0,0,0,0,0,0
BE,Belgium,country,Europe and Central Asia,50.503887,4.469936,AE,United Arab Emirates,country,Middle East and North Africa,23.424076,53.847818,5190.60120030384,2002,23891,1358,4608,6674,15,0,26,4835,634,0,0,446,558,692,977,738,0,103,2227,0,0,0,0,0
BZ,Belize,country,Latin America and the Caribbean,17.189877,-88.49765,AE,United Arab Emirates,country,Middle East and North Africa,23.424076,53.847818,13937.9208114511,2002,105,0,0,0,66,0,0,0,0,0,0,0,39,0,0,0,0,0,0,0,0,0,0,0
BM,Bermuda,country,North America,32.321384,-64.75737,AE,United Arab Emirates,country,Middle East and North Africa,23.424076,53.847818,11035.2619118317,2002,0,0,0,0,0,0,0,0,0,0,0,0,0,0,0,0,0,0,0,0,0,0,0,0
BA,Bosnia & Herzegovina,country,Europe and Central Asia,43.915886,17.679076,AE,United Arab Emirates,country,Middle East and North Africa,23.424076,53.847818,4004.02386621202,2002,4,0,0,0,0,0,0,4,0,0,0,0,0,0,0,0,0,0,0,0,0,0,0,0
BR,Brazil,country,Latin America and the Caribbean,-14.235004,-51.92528,AE,United Arab Emirates,country,Middle East and North Africa,23.424076,53.847818,12228.1905339186,2002,124808,30,0,14196,0,35,0,1,8304,0,679,5,3224,522,11500,14,97,86298,0,0,0,0,0,0
BN,Brunei Darussalam,country,,4.535277,114.727669,AE,United Arab Emirates,country,Middle East and North Africa,23.424076,53.847818,6850.39763763388,2002,4,0,0,0,0,0,0,4,0,0,0,0,0,0,0,0,0,0,0,0,0,0,0,0
BG,Bulgaria,country,Europe and Central Asia,42.733883,25.48583,AE,United Arab Emirates,country,Middle East and North Africa,23.424076,53.847818,3379.96688198518,2002,341,0,0,179,0,0,0,4,34,0,67,0,4,28,0,0,0,0,25,0,0,0,0,0
BF,Burkina Faso,country,Sub-Saharan Africa,12.238333,-1.561593,AE,United Arab Emirates,country,Middle East and North Africa,23.424076,53.847818,5967.24962125109,2002,36,0,0,0,0,0,36,0,0,0,0,0,0,0,0,0,0,0,0,0,0,0,0,0
KH,Cambodia,country,East Asia and Pacific,12.565679,104.990963,AE,United Arab Emirates,country,Middle East and North Africa,23.424076,53.847818,5519.34226762729,2002,0,0,0,0,0,0,0,0,0,0,0,0,0,0,0,0,0,0,0,0,0,0,0,0
CM,Cameroon,country,Sub-Saharan Africa,7.369722,12.354722,AE,United Arab Emirates,country,Middle East and North Africa,23.424076,53.847818,4774.88141946436,2002,73,0,0,0,0,0,0,1,0,0,0,0,72,0,0,0,0,0,0,0,0,0,0,0
CA,Canada,country,North America,56.130366,-106.346771,AE,United Arab Emirates,country,Middle East and North Africa,23.424076,53.847818,10985.8904178984,2002,23463,437,282,63,17319,17,609,130,74,0,0,1616,26,134,322,288,0,208,1938,0,0,0,0,0
CL,Chile,country,Latin America and the Caribbean,-35.675147,-71.542969,AE,United Arab Emirates,country,Middle East and North Africa,23.424076,53.847818,14646.2648889406,2002,20826,0,0,37,44,97,21,0,20270,0,0,2,135,0,0,220,0,0,0,0,0,0,0,0
HK,Hong Kong,country,East Asia and Pacific,22.396428,114.109497,AE,United Arab Emirates,country,Middle East and North Africa,23.424076,53.847818,6132.56532822792,2002,461,0,0,0,0,0,3,0,282,0,51,0,10,72,5,38,0,0,0,0,0,0,0,0
CN,China,country,East Asia and Pacific,35.86166,104.195397,AE,United Arab Emirates,country,Middle East and North Africa,23.424076,53.847818,5006.48134652758,2002,137286,3193,63,2283,1830,499,18737,67150,13326,0,16840,4536,889,4883,14,53,0,2990,0,0,0,0,0,0
TW,Taiwan,country,East Asia and Pacific,23.69781,120.960515,AE,United Arab Emirates,country,Middle East and North Africa,23.424076,53.847818,6777.79051584672,2002,768,600,0,0,0,0,0,31,21,0,0,24,49,13,0,1,0,0,29,0,0,0,0,0
CO,Colombia,country,Latin America and the Caribbean,4.570868,-74.297333,AE,United Arab Emirates,country,Middle East and North Africa,23.424076,53.847818,13606.2138789283,2002,959,0,0,811,0,0,0,3,3,0,13,0,64,65,0,0,0,0,0,0,0,0,0,0
KM,Comoros,country,Sub-Saharan Africa,-11.875001,43.872219,AE,United Arab Emirates,country,Middle East and North Africa,23.424076,53.847818,4076.92564076272,2002,91,0,0,0,0,0,0,0,0,0,91,0,0,0,0,0,0,0,0,0,0,0,0,0
CG,"Congo, Rep.",country,Sub-Saharan Africa,-0.228021,15.827659,AE,United Arab Emirates,country,Middle East and North Africa,23.424076,53.847818,4880.19583080683,2002,1,0,0,0,0,0,0,0,1,0,0,0,0,0,0,0,0,0,0,0,0,0,0,0
CR,Costa Rica,country,Latin America and the Caribbean,9.748917,-83.753428,AE,United Arab Emirates,country,Middle East and North Africa,23.424076,53.847818,14127.1679300823,2002,23,0,0,0,0,0,0,3,2,0,0,0,18,0,0,0,0,0,0,0,0,0,0,0
CI,Ivory Coast,country,Sub-Saharan Africa,7.539989,-5.54708,AE,United Arab Emirates,country,Middle East and North Africa,23.424076,53.847818,6566.01423607969,2002,2,0,0,0,0,0,0,0,0,0,0,0,2,0,0,0,0,0,0,0,0,0,0,0
CU,Cuba,country,Latin America and the Caribbean,21.521757,-77.781167,AE,United Arab Emirates,country,Middle East and North Africa,23.424076,53.847818,12791.9132716454,2002,588,0,0,438,0,0,0,0,0,0,0,0,0,24,0,126,0,0,0,0,0,0,0,0
CY,Cyprus,country,Europe and Central Asia,35.126413,33.429859,AE,United Arab Emirates,country,Middle East and North Africa,23.424076,53.847818,2364.55389839286,2002,3511,760,17,67,0,0,0,9,1561,0,0,1,0,311,47,59,0,92,587,0,0,0,0,0
CZ,Czech Republic,country,Europe and Central Asia,49.817492,15.472962,AE,United Arab Emirates,country,Middle East and North Africa,23.424076,53.847818,4434.73512928286,2002,3939,0,0,7,0,0,1,0,0,0,0,109,0,51,0,58,0,0,3713,0,0,0,0,0
CD,"Congo, Dem. Rep.",country,Sub-Saharan Africa,-4.038333,21.758664,AE,United Arab Emirates,country,Middle East and North Africa,23.424076,53.847818,4633.99474631557,2002,1,0,0,0,0,0,0,0,1,0,0,0,0,0,0,0,0,0,0,0,0,0,0,0
DK,Denmark,country,Europe and Central Asia,56.26392,9.501785,AE,United Arab Emirates,country,Middle East and North Africa,23.424076,53.847818,5117.48118439708,2002,36304,794,27,942,347,0,0,580,327,0,20,801,74,648,37,1113,157,20243,10351,0,0,0,0,0
DJ,Djibouti,country,Middle East and North Africa,11.825138,42.590275,AE,United Arab Emirates,country,Middle East and North Africa,23.424076,53.847818,1756.95199071642,2002,64,0,0,0,60,0,0,0,0,0,0,0,4,0,0,0,0,0,0,0,0,0,0,0
DM,Dominica,country,Latin America and the Caribbean,15.414999,-61.370976,AE,United Arab Emirates,country,Middle East and North Africa,23.424076,53.847818,11770.640445766,2002,0,0,0,0,0,0,0,0,0,0,0,0,0,0,0,0,0,0,0,0,0,0,0,0
DO,Dominican Republic,country,Latin America and the Caribbean,18.735693,-70.162651,AE,United Arab Emirates,country,Middle East and North Africa,23.424076,53.847818,12356.421085993,2002,32,0,0,0,0,0,0,0,12,0,0,0,0,1,19,0,0,0,0,0,0,0,0,0
EC,Ecuador,country,Latin America and the Caribbean,-1.831239,-78.183406,AE,United Arab Emirates,country,Middle East and North Africa,23.424076,53.847818,14339.1240829119,2002,248,0,0,129,0,0,0,0,2,0,52,0,8,57,0,0,0,0,0,0,0,0,0,0
EG,Egypt,country,Middle East and North Africa,26.820553,30.802498,AE,United Arab Emirates,country,Middle East and North Africa,23.424076,53.847818,2349.90672112107,2002,52752,4015,7735,290,235,45,397,9895,22475,0,112,554,497,4133,422,388,110,562,997,0,0,0,0,0
ER,Eritrea,country,Sub-Saharan Africa,15.179384,39.782334,AE,United Arab Emirates,country,Middle East and North Africa,23.424076,53.847818,1737.73715495645,2002,0,0,0,0,0,0,0,0,0,0,0,0,0,0,0,0,0,0,0,0,0,0,0,0
EE,Estonia,country,Europe and Central Asia,58.595272,25.013607,AE,United Arab Emirates,country,Middle East and North Africa,23.424076,53.847818,4530.50446786909,2002,19,0,0,0,0,0,0,0,0,0,0,0,0,19,0,0,0,0,0,0,0,0,0,0
ET,Ethiopia,country,Sub-Saharan Africa,9.145,40.489673,AE,United Arab Emirates,country,Middle East and North Africa,23.424076,53.847818,2133.07050604738,2002,5799,95,0,0,4406,0,72,0,0,0,38,0,9,54,0,15,0,1109,1,0,0,0,0,0
FJ,Fiji,country,East Asia and Pacific,-16.578193,179.414413,AE,United Arab Emirates,country,Middle East and North Africa,23.424076,53.847818,14324.4568357306,2002,0,0,0,0,0,0,0,0,0,0,0,0,0,0,0,0,0,0,0,0,0,0,0,0
FI,Finland,country,Europe and Central Asia,61.92411,25.748151,AE,United Arab Emirates,country,Middle East and North Africa,23.424076,53.847818,4783.45199636753,2002,604,0,0,257,0,0,0,0,1,0,0,6,0,5,0,14,0,0,321,0,0,0,0,0
FR,France,country,Europe and Central Asia,46.227638,2.213749,AE,United Arab Emirates,country,Middle East and North Africa,23.424076,53.847818,5240.2431858622,2002,79673,11334,125,14131,0,21,45,537,10306,0,43,3131,2542,2542,915,8449,8,19722,5830,0,0,0,0,0
GA,Gabon,country,Sub-Saharan Africa,-0.803689,11.609444,AE,United Arab Emirates,country,Middle East and North Africa,23.424076,53.847818,5304.03172676243,2002,1,0,0,0,0,0,0,0,1,0,0,0,0,0,0,0,0,0,0,0,0,0,0,0
GM,The Gambia,country,Sub-Saharan Africa,13.443182,-15.310139,AE,United Arab Emirates,country,Middle East and North Africa,23.424076,53.847818,7324.66825116442,2002,0,0,0,0,0,0,0,0,0,0,0,0,0,0,0,0,0,0,0,0,0,0,0,0
DE,Germany,country,Europe and Central Asia,51.165691,10.451526,AE,United Arab Emirates,country,Middle East and North Africa,23.424076,53.847818,4820.30284415488,2002,131195,2505,4361,103017,0,10,22,120,857,0,59,2265,782,5063,393,2053,12,717,8971,0,0,0,0,0
GH,Ghana,country,Sub-Saharan Africa,7.946527,-1.023194,AE,United Arab Emirates,country,Middle East and North Africa,23.424076,53.847818,6088.9548631176,2002,2,0,0,0,0,2,0,0,0,0,0,0,0,0,0,0,0,0,0,0,0,0,0,0
GR,Greece,country,Europe and Central Asia,39.074208,21.824312,AE,United Arab Emirates,country,Middle East and North Africa,23.424076,53.847818,3483.43988043614,2002,4702,88,0,54,0,0,213,1336,841,0,21,1508,304,238,61,17,0,0,21,0,0,0,0,0
GT,Guatemala,country,Latin America and the Caribbean,15.783471,-90.230759,AE,United Arab Emirates,country,Middle East and North Africa,23.424076,53.847818,14178.5724554781,2002,2159,0,0,0,0,0,0,0,12,0,2106,0,37,4,0,0,0,0,0,0,0,0,0,0
GN,Guinea,country,Sub-Saharan Africa,9.945587,-9.696645,AE,United Arab Emirates,country,Middle East and North Africa,23.424076,53.847818,6888.56279535457,2002,19,0,0,0,0,0,0,0,0,0,0,0,0,0,0,19,0,0,0,0,0,0,0,0
HN,Honduras,country,Latin America and the Caribbean,15.199999,-86.241905,AE,United Arab Emirates,country,Middle East and North Africa,23.424076,53.847818,13925.9032512167,2002,0,0,0,0,0,0,0,0,0,0,0,0,0,0,0,0,0,0,0,0,0,0,0,0
HU,Hungary,country,Europe and Central Asia,47.162494,19.503304,AE,United Arab Emirates,country,Middle East and North Africa,23.424076,53.847818,4033.39108502351,2002,426,2,0,15,0,0,0,0,4,0,0,14,0,7,0,0,0,120,264,0,0,0,0,0
IN,India,country,South Asia,20.593684,78.96288,AE,United Arab Emirates,country,Middle East and North Africa,23.424076,53.847818,2607.80139174908,2002,781875,392076,5875,40484,6754,5117,4775,143177,51931,0,17357,27899,20648,8333,1713,1415,24,32687,21634,0,0,0,0,0
ID,Indonesia,country,East Asia and Pacific,-0.789275,113.921327,AE,United Arab Emirates,country,Middle East and North Africa,23.424076,53.847818,7025.54887369428,2002,14438,610,17,1702,0,144,2814,9,462,0,1411,2202,2927,1347,418,360,0,0,15,0,0,0,0,0
IR,Iran,country,Middle East and North Africa,32.427908,53.688046,AE,United Arab Emirates,country,Middle East and North Africa,23.424076,53.847818,1002.42470962484,2002,391388,4836,12254,2551,40231,20168,290,144350,127527,0,9634,21316,382,5804,112,1094,43,44,795,0,0,0,0,0
IQ,Iraq,country,Middle East and North Africa,33.223191,43.679291,AE,United Arab Emirates,country,Middle East and North Africa,23.424076,53.847818,1475.69679220153,2002,76,0,0,0,0,0,0,0,45,0,0,0,0,26,0,0,3,5,0,0,0,0,0,0
IE,Ireland,country,Europe and Central Asia,53.41291,-8.24389,AE,United Arab Emirates,country,Middle East and North Africa,23.424076,53.847818,6109.98739569226,2002,4026,982,1,28,0,0,0,39,557,0,0,251,115,767,0,411,0,1,874,0,0,0,0,0
IT,Italy,country,Europe and Central Asia,41.87194,12.56738,AE,United Arab Emirates,country,Middle East and North Africa,23.424076,53.847818,4324.5482529839,2002,33765,7339,74,581,195,21,38,13203,3814,0,0,3999,1050,1272,495,1112,0,35,537,0,0,0,0,0
JM,Jamaica,country,Latin America and the Caribbean,18.109581,-77.297508,AE,United Arab Emirates,country,Middle East and North Africa,23.424076,53.847818,12997.7862930929,2002,63,0,0,0,0,0,0,0,0,0,2,0,0,2,0,59,0,0,0,0,0,0,0,0
JP,Japan,country,East Asia and Pacific,36.204824,138.252924,AE,United Arab Emirates,country,Middle East and North Africa,23.424076,53.847818,8028.53645683057,2002,6938,9,0,468,0,0,68,37,25,0,12,0,3,500,0,5763,0,53,0,0,0,0,0,0
JO,Jordan,country,Middle East and North Africa,30.585164,36.238414,AE,United Arab Emirates,country,Middle East and North Africa,23.424076,53.847818,1916.72055438608,2002,120110,205,3990,66,61,32,118,106441,4401,0,385,163,12,3225,164,16,0,170,661,0,0,0,0,0
KZ,Kazakhstan,country,Europe and Central Asia,48.019573,66.923684,AE,United Arab Emirates,country,Middle East and North Africa,23.424076,53.847818,2972.46251845964,2002,2,0,0,0,0,0,0,2,0,0,0,0,0,0,0,0,0,0,0,0,0,0,0,0
KE,Kenya,country,Sub-Saharan Africa,-0.023559,37.906193,AE,United Arab Emirates,country,Middle East and North Africa,23.424076,53.847818,3127.95988647763,2002,7989,0,0,435,4,3,93,309,4236,0,125,1,2067,259,0,0,0,457,0,0,0,0,0,0
KW,Kuwait,country,Middle East and North Africa,29.31166,47.481766,AE,United Arab Emirates,country,Middle East and North Africa,23.424076,53.847818,912.139818623064,2002,4959,384,23,1,214,0,5,167,890,0,0,6,44,770,246,1568,187,209,432,0,0,0,0,0
KG,Kyrgyz Rep.,country,Europe and Central Asia,41.20438,74.766098,AE,United Arab Emirates,country,Middle East and North Africa,23.424076,53.847818,2776.56018974439,2002,245,0,0,2,120,71,0,0,1,0,0,0,0,0,0,51,0,0,0,0,0,0,0,0
LA,Lao PDR,country,East Asia and Pacific,19.85627,102.495496,AE,United Arab Emirates,country,Middle East and North Africa,23.424076,53.847818,5026.34391944781,2002,0,0,0,0,0,0,0,0,0,0,0,0,0,0,0,0,0,0,0,0,0,0,0,0
LB,Lebanon,country,Middle East and North Africa,33.854721,35.862285,AE,United Arab Emirates,country,Middle East and North Africa,23.424076,53.847818,2100.91829152951,2002,51978,160,21894,221,29,60,90,5755,19329,0,68,8,214,3096,437,368,7,175,74,0,0,0,0,0
LR,Liberia,country,Sub-Saharan Africa,6.428055,-9.429499,AE,United Arab Emirates,country,Middle East and North Africa,23.424076,53.847818,7009.29314680678,2002,1,0,0,0,0,0,0,0,0,0,1,0,0,0,0,0,0,0,0,0,0,0,0,0
LY,Libya,country,Middle East and North Africa,26.3351,17.228331,AE,United Arab Emirates,country,Middle East and North Africa,23.424076,53.847818,3700.18074789097,2002,0,0,0,0,0,0,0,0,0,0,0,0,0,0,0,0,0,0,0,0,0,0,0,0
LT,Lithuania,country,Europe and Central Asia,55.169438,23.881275,AE,United Arab Emirates,country,Middle East and North Africa,23.424076,53.847818,4309.04622899548,2002,1,0,0,0,0,0,0,0,0,0,0,0,0,0,0,0,0,0,1,0,0,0,0,0
LU,Luxembourg,country,Europe and Central Asia,49.815273,6.129583,AE,United Arab Emirates,country,Middle East and North Africa,23.424076,53.847818,5054.92783035055,2002,22,0,0,0,0,0,0,10,7,0,0,0,0,5,0,0,0,0,0,0,0,0,0,0
MG,Madagascar,country,Sub-Saharan Africa,-18.766947,46.869107,AE,United Arab Emirates,country,Middle East and North Africa,23.424076,53.847818,4757.49234451487,2002,168,0,0,0,0,0,0,0,15,0,153,0,0,0,0,0,0,0,0,0,0,0,0,0
MW,Malawi,country,Sub-Saharan Africa,-13.254308,34.301525,AE,United Arab Emirates,country,Middle East and North Africa,23.424076,53.847818,4604.58087677201,2002,41,0,0,19,0,0,0,0,0,0,0,0,22,0,0,0,0,0,0,0,0,0,0,0
MY,Malaysia,country,East Asia and Pacific,4.210484,101.975766,AE,United Arab Emirates,country,Middle East and North Africa,23.424076,53.847818,5589.18327849531,2002,93200,3658,11,778,272,50,739,990,9079,0,197,120,2010,5340,67875,912,0,577,592,0,0,0,0,0
ML,Mali,country,Sub-Saharan Africa,17.570692,-3.996166,AE,United Arab Emirates,country,Middle East and North Africa,23.424076,53.847818,6028.55607859618,2002,0,0,0,0,0,0,0,0,0,0,0,0,0,0,0,0,0,0,0,0,0,0,0,0
MT,Malta,country,Middle East and North Africa,35.937496,14.375416,AE,United Arab Emirates,country,Middle East and North Africa,23.424076,53.847818,4031.43768014056,2002,5030,747,24,31,0,0,0,10,185,0,0,0,36,3533,64,332,0,7,61,0,0,0,0,0
MU,Mauritius,country,Sub-Saharan Africa,-20.348404,57.552152,AE,United Arab Emirates,country,Middle East and North Africa,23.424076,53.847818,4889.27969350854,2002,66,0,0,26,0,0,0,2,4,0,20,0,9,5,0,0,0,0,0,0,0,0,0,0
MX,Mexico,country,Latin America and the Caribbean,23.634501,-102.552784,AE,United Arab Emirates,country,Middle East and North Africa,23.424076,53.847818,14210.8206734961,2002,9723,0,0,99,3565,0,55,22,0,0,52,0,1056,4092,0,782,0,0,0,0,0,0,0,0
MA,Morocco,country,Middle East and North Africa,31.791702,-7.09262,AE,United Arab Emirates,country,Middle East and North Africa,23.424076,53.847818,6007.54204217974,2002,696,0,1,0,1,0,73,105,159,0,1,0,63,66,1,24,0,0,202,0,0,0,0,0
MZ,Mozambique,country,Sub-Saharan Africa,-18.665695,35.529562,AE,United Arab Emirates,country,Middle East and North Africa,23.424076,53.847818,5090.61909034474,2002,2312,0,0,0,0,0,1283,0,732,0,0,0,297,0,0,0,0,0,0,0,0,0,0,0
MM,Myanmar,country,East Asia and Pacific,21.913965,95.956223,AE,United Arab Emirates,country,Middle East and North Africa,23.424076,53.847818,4313.30727365053,2002,7302,0,0,0,3127,16,0,0,45,0,3145,0,0,969,0,0,0,0,0,0,0,0,0,0
NA,Namibia,country,Sub-Saharan Africa,-22.95764,18.49041,AE,United Arab Emirates,country,Middle East and North Africa,23.424076,53.847818,6425.68658001378,2002,34,0,0,0,0,0,0,0,34,0,0,0,0,0,0,0,0,0,0,0,0,0,0,0
NP,Nepal,country,South Asia,28.394857,84.124008,AE,United Arab Emirates,country,Middle East and North Africa,23.424076,53.847818,3073.26665819842,2002,112,0,0,0,0,0,0,0,0,0,72,0,0,40,0,0,0,0,0,0,0,0,0,0
NL,Netherlands,country,Europe and Central Asia,52.132633,5.291266,AE,United Arab Emirates,country,Middle East and North Africa,23.424076,53.847818,5191.50956132163,2002,97203,1385,8009,4112,130,15,8,3736,3173,0,90,4754,1770,4160,518,16120,63,2258,46965,0,0,0,0,0
NZ,New Zealand,country,East Asia and Pacific,-40.900557,174.885971,AE,United Arab Emirates,country,Middle East and North Africa,23.424076,53.847818,14266.9350349334,2002,24550,55,54,24,0,17,0,871,4418,0,0,50,0,99,0,752,0,3776,14434,0,0,0,0,0
NI,Nicaragua,country,Latin America and the Caribbean,12.865416,-85.207229,AE,United Arab Emirates,country,Middle East and North Africa,23.424076,53.847818,14021.448092355,2002,36,0,0,0,0,0,0,0,0,0,0,0,36,0,0,0,0,0,0,0,0,0,0,0
NE,Niger,country,Sub-Saharan Africa,17.607789,8.081666,AE,United Arab Emirates,country,Middle East and North Africa,23.424076,53.847818,4795.99261809536,2002,4,0,0,0,0,0,0,3,1,0,0,0,0,0,0,0,0,0,0,0,0,0,0,0
NG,Nigeria,country,Sub-Saharan Africa,9.081999,8.675277,AE,United Arab Emirates,country,Middle East and North Africa,23.424076,53.847818,5059.61042030537,2002,10,0,0,0,0,3,0,0,1,0,4,0,0,2,0,0,0,0,0,0,0,0,0,0
NO,Norway,country,Europe and Central Asia,60.472024,8.468946,AE,United Arab Emirates,country,Middle East and North Africa,23.424076,53.847818,5391.03312651559,2002,115,6,0,28,0,0,0,19,1,0,0,0,1,4,1,33,0,18,4,0,0,0,0,0
PS,Palestine,country,Middle East and North Africa,31.952162,35.233154,AE,United Arab Emirates,country,Middle East and North Africa,23.424076,53.847818,2061.61234105192,2002,6920,23,0,0,0,0,60,87,5901,0,0,0,0,524,294,0,0,27,4,0,0,0,0,0
OM,Oman,country,Middle East and North Africa,21.512583,55.923255,AE,United Arab Emirates,country,Middle East and North Africa,23.424076,53.847818,301.417786949232,2002,21165,1827,0,11,0,0,19,11,373,0,812,10088,0,142,0,7872,0,6,4,0,0,0,0,0
PK,Pakistan,country,South Asia,30.375321,69.345116,AE,United Arab Emirates,country,Middle East and North Africa,23.424076,53.847818,1719.7691838554,2002,492850,379266,709,1161,2205,744,171,26661,59720,0,1465,17153,184,2291,4,53,382,941,122,0,0,0,0,0
PY,Paraguay,country,Latin America and the Caribbean,-23.442503,-58.443832,AE,United Arab Emirates,country,Middle East and North Africa,23.424076,53.847818,13193.7040530651,2002,46,0,0,0,0,0,0,0,0,0,0,0,0,0,0,0,0,46,0,0,0,0,0,0
PE,Peru,country,Latin America and the Caribbean,-9.189967,-75.015152,AE,United Arab Emirates,country,Middle East and North Africa,23.424076,53.847818,14380.9922546081,2002,643,0,0,0,569,0,0,2,54,0,0,18,0,0,0,0,0,0,0,0,0,0,0,0
PH,Philippines,country,East Asia and Pacific,12.879721,121.774017,AE,United Arab Emirates,country,Middle East and North Africa,23.424076,53.847818,7220.64149208586,2002,74292,317,0,23,0,2,667,8,70682,0,6,1,61,2336,4,31,0,108,46,0,0,0,0,0
PL,Poland,country,Europe and Central Asia,51.919438,19.145136,AE,United Arab Emirates,country,Middle East and North Africa,23.424076,53.847818,4330.91936702787,2002,5625,248,870,249,0,0,0,117,122,0,0,11,355,148,0,19,0,0,3486,0,0,0,0,0
PT,Portugal,country,Europe and Central Asia,39.399872,-8.224454,AE,United Arab Emirates,country,Middle East and North Africa,23.424076,53.847818,6037.77671570563,2002,274,0,0,244,0,0,0,0,0,0,0,0,1,0,0,29,0,0,0,0,0,0,0,0
QA,Qatar,country,Middle East and North Africa,25.354826,51.183884,AE,United Arab Emirates,country,Middle East and North Africa,23.424076,53.847818,345.147488919567,2002,1471,40,0,3,0,1,0,45,60,0,0,2,1266,13,22,0,56,0,4,0,15,0,0,0
KR,"Korea, Rep.",country,East Asia and Pacific,35.907757,127.766922,AE,United Arab Emirates,country,Middle East and North Africa,23.424076,53.847818,7119.90209205201,2002,2182,182,0,1096,0,0,4,2,263,0,1,3,3,604,1,22,0,0,1,0,0,0,0,0
MD,Moldova,country,Europe and Central Asia,47.411631,28.369885,AE,United Arab Emirates,country,Middle East and North Africa,23.424076,53.847818,3499.1559398153,2002,19,0,0,0,0,0,0,0,0,0,18,0,0,1,0,0,0,0,0,0,0,0,0,0
RO,Romania,country,Europe and Central Asia,45.943161,24.96676,AE,United Arab Emirates,country,Middle East and North Africa,23.424076,53.847818,3605.98550965363,2002,27,27,0,0,0,0,0,0,0,0,0,0,0,0,0,0,0,0,0,0,0,0,0,0
RU,Russian Federation,country,Europe and Central Asia,61.52401,105.318756,AE,United Arab Emirates,country,Middle East and North Africa,23.424076,53.847818,5737.46748564327,2002,79,0,0,7,0,0,0,0,0,0,0,0,0,2,0,70,0,0,0,0,0,0,0,0
WS,Samoa,country,East Asia and Pacific,-13.759029,-172.104629,AE,United Arab Emirates,country,Middle East and North Africa,23.424076,53.847818,15092.4382132068,2002,0,0,0,0,0,0,0,0,0,0,0,0,0,0,0,0,0,0,0,0,0,0,0,0
SA,Saudi Arabia,country,Middle East and North Africa,23.885942,45.079162,AE,United Arab Emirates,country,Middle East and North Africa,23.424076,53.847818,895.439246379647,2002,136185,3665,27035,1507,147,13,56,9367,24854,0,234,752,429,12127,5643,1383,2686,5067,43906,0,0,0,0,0
SN,Senegal,country,Sub-Saharan Africa,14.497401,-14.452362,AE,United Arab Emirates,country,Middle East and North Africa,23.424076,53.847818,7197.9347589452,2002,2,0,0,0,0,0,0,1,0,0,0,0,0,1,0,0,0,0,0,0,0,0,0,0
RS,Serbia,country,Europe and Central Asia,44.016521,21.005859,AE,United Arab Emirates,country,Middle East and North Africa,23.424076,53.847818,3766.56792777802,2002,23,0,0,0,0,0,0,0,0,0,0,0,23,0,0,0,0,0,0,0,0,0,0,0
SL,Sierra Leone,country,Sub-Saharan Africa,8.460555,-11.779889,AE,United Arab Emirates,country,Middle East and North Africa,23.424076,53.847818,7162.34396903579,2002,1,0,0,0,0,0,0,0,1,0,0,0,0,0,0,0,0,0,0,0,0,0,0,0
SG,Singapore,country,East Asia and Pacific,1.352083,103.819836,AE,United Arab Emirates,country,Middle East and North Africa,23.424076,53.847818,5919.41234364878,2002,26079,346,5,2018,367,58,116,71,368,0,151,1179,304,674,17243,1301,0,37,1841,0,0,0,0,0
SK,Slovak Rep.,country,Europe and Central Asia,48.669026,19.699024,AE,United Arab Emirates,country,Middle East and North Africa,23.424076,53.847818,4104.22239857601,2002,8,0,0,8,0,0,0,0,0,0,0,0,0,0,0,0,0,0,0,0,0,0,0,0
SI,Slovenia,country,Europe and Central Asia,46.151241,14.995463,AE,United Arab Emirates,country,Middle East and North Africa,23.424076,53.847818,4294.85498852918,2002,269,0,0,1,0,0,0,0,0,0,0,0,0,268,0,0,0,0,0,0,0,0,0,0
SO,Somalia,country,Sub-Saharan Africa,5.152149,46.199616,AE,United Arab Emirates,country,Middle East and North Africa,23.424076,53.847818,2193.39665134199,2002,4456,0,0,2,7,0,17,1,839,0,10,40,0,89,32,0,0,3416,3,0,0,0,0,0
ZA,S. Africa,country,Sub-Saharan Africa,-30.559482,22.937506,AE,United Arab Emirates,country,Middle East and North Africa,23.424076,53.847818,6856.03300945242,2002,67961,1958,0,258,401,2,3,138,58905,0,51,1918,503,1622,117,1162,0,793,130,0,0,0,0,0
ES,Spain,country,Europe and Central Asia,40.463667,-3.74922,AE,United Arab Emirates,country,Middle East and North Africa,23.424076,53.847818,5654.5649550044,2002,56645,872,1004,378,28,53,3454,1799,2365,0,10,42677,745,766,2028,183,0,22,261,0,0,0,0,0
LK,Sri Lanka,country,South Asia,7.873054,80.771797,AE,United Arab Emirates,country,Middle East and North Africa,23.424076,53.847818,3354.28729133591,2002,60726,512,751,26,21,42,22626,636,1228,0,226,41,32705,1575,143,22,0,97,75,0,0,0,0,0
SD,Sudan,country,Sub-Saharan Africa,12.862807,30.217636,AE,United Arab Emirates,country,Middle East and North Africa,23.424076,53.847818,2756.54594892937,2002,7921,1490,0,8,0,0,674,151,479,0,0,4273,0,692,12,0,0,132,10,0,0,0,0,0
SR,Suriname,country,Latin America and the Caribbean,3.919305,-56.027783,AE,United Arab Emirates,country,Middle East and North Africa,23.424076,53.847818,11855.8165840857,2002,36,0,0,0,0,0,0,23,13,0,0,0,0,0,0,0,0,0,0,0,0,0,0,0
SE,Sweden,country,Europe and Central Asia,60.128161,18.643501,AE,United Arab Emirates,country,Middle East and North Africa,23.424076,53.847818,4909.01238751593,2002,703,155,0,6,0,0,0,0,1,0,0,2,121,74,6,191,0,1,146,0,0,0,0,0
CH,Switzerland,country,Europe and Central Asia,46.818188,8.227512,AE,United Arab Emirates,country,Middle East and North Africa,23.424076,53.847818,4808.25189355717,2002,3493,190,0,160,125,0,0,5,369,0,0,54,1084,462,0,290,0,0,754,0,0,0,0,0
SY,Syrian Arab Rep.,country,Middle East and North Africa,34.802075,38.996815,AE,United Arab Emirates,country,Middle East and North Africa,23.424076,53.847818,1916.85404268745,2002,58237,379,2903,279,627,242,431,28422,12217,0,9881,134,223,1767,266,13,111,53,400,0,0,0,0,0
TJ,Tajikistan,country,Europe and Central Asia,38.861034,71.276093,AE,United Arab Emirates,country,Middle East and North Africa,23.424076,53.847818,2381.05909763729,2002,3,0,0,0,0,3,0,0,0,0,0,0,0,0,0,0,0,0,0,0,0,0,0,0
TH,Thailand,country,East Asia and Pacific,15.870032,100.992541,AE,United Arab Emirates,country,Middle East and North Africa,23.424076,53.847818,4992.12861865051,2002,278636,238343,406,20693,304,135,87,1288,13039,0,794,158,71,1500,22,637,0,1150,9,0,0,0,0,0
MK,Macedonia,country,Europe and Central Asia,41.608635,21.745275,AE,United Arab Emirates,country,Middle East and North Africa,23.424076,53.847818,3596.91066181844,2002,0,0,0,0,0,0,0,0,0,0,0,0,0,0,0,0,0,0,0,0,0,0,0,0
TT,Trinidad and Tobago,country,Latin America and the Caribbean,10.691803,-61.222503,AE,United Arab Emirates,country,Middle East and North Africa,23.424076,53.847818,12017.7432708454,2002,0,0,0,0,0,0,0,0,0,0,0,0,0,0,0,0,0,0,0,0,0,0,0,0
TN,Tunisia,country,Middle East and North Africa,33.886917,9.537499,AE,United Arab Emirates,country,Middle East and North Africa,23.424076,53.847818,4446.14300731585,2002,915,61,0,1,0,0,0,21,207,0,0,0,0,434,152,0,0,0,39,0,0,0,0,0
TR,Turkey,country,Europe and Central Asia,38.963745,35.243322,AE,United Arab Emirates,country,Middle East and North Africa,23.424076,53.847818,2466.36984769033,2002,74241,25749,194,1990,3511,350,481,11894,20458,0,1041,67,2490,2694,1210,1237,0,75,800,0,0,0,0,0
UG,Uganda,country,Sub-Saharan Africa,1.373333,32.290275,AE,United Arab Emirates,country,Middle East and North Africa,23.424076,53.847818,3381.96496290818,2002,54,0,0,0,0,0,0,0,11,0,0,0,28,0,0,0,0,15,0,0,0,0,0,0
UA,Ukraine,country,Europe and Central Asia,48.379433,31.16558,AE,United Arab Emirates,country,Middle East and North Africa,23.424076,53.847818,3421.90668397938,2002,2251,21,0,0,663,1,11,0,0,0,0,0,0,0,1500,0,0,0,55,0,0,0,0,0
GB,United Kingdom,country,Europe and Central Asia,55.378051,-3.435973,AE,United Arab Emirates,country,Middle East and North Africa,23.424076,53.847818,5843.0911511644,2002,47692,7052,56,9199,1476,16,1122,1475,321,0,112,4666,2953,7238,440,7865,0,173,3528,0,0,0,0,0
TZ,Tanzania,country,Sub-Saharan Africa,-6.369028,34.888822,AE,United Arab Emirates,country,Middle East and North Africa,23.424076,53.847818,3905.04117961911,2002,10466,0,0,0,6071,77,38,0,0,0,988,3153,98,41,0,0,8,0,0,0,0,0,0,0
US,USA,country,North America,37.09024,-95.712891,AE,United Arab Emirates,country,Middle East and North Africa,23.424076,53.847818,12583.1774681464,2002,263290,137622,1692,687,958,12060,1076,8769,24987,0,89,8054,979,24430,17352,5142,21,17727,1666,0,0,0,0,0
UY,Uruguay,country,Latin America and the Caribbean,-32.522779,-55.765835,AE,United Arab Emirates,country,Middle East and North Africa,23.424076,53.847818,13164.3787002277,2002,2304,43,0,0,0,0,0,0,27,0,0,0,0,0,0,0,0,208,2026,0,0,0,0,0
UZ,Uzbekistan,country,Europe and Central Asia,41.377491,64.585262,AE,United Arab Emirates,country,Middle East and North Africa,23.424076,53.847818,2234.5897129856,2002,2693,0,0,0,2520,87,0,0,17,0,0,0,0,67,0,0,0,0,2,0,0,0,0,0
VN,Vietnam,country,East Asia and Pacific,14.058324,108.277199,AE,United Arab Emirates,country,Middle East and North Africa,23.424076,53.847818,5799.27021658979,2002,8543,35,0,201,0,41,1525,1,128,0,6159,0,294,159,0,0,0,0,0,0,0,0,0,0
YE,Yemen,country,Middle East and North Africa,15.552727,48.516388,AE,United Arab Emirates,country,Middle East and North Africa,23.424076,53.847818,1039.28505072365,2002,751,18,67,40,0,0,11,54,10,0,2,0,467,59,0,1,0,2,20,0,0,0,0,0
ZM,Zambia,country,Sub-Saharan Africa,-13.133897,27.849332,AE,United Arab Emirates,country,Middle East and North Africa,23.424076,53.847818,4957.55299314407,2002,0,0,0,0,0,0,0,0,0,0,0,0,0,0,0,0,0,0,0,0,0,0,0,0
ZW,Zimbabwe,country,Sub-Saharan Africa,-19.015438,29.154857,AE,United Arab Emirates,country,Middle East and North Africa,23.424076,53.847818,5432.60634345749,2002,183,0,0,0,0,0,22,0,161,0,0,0,0,0,0,0,0,0,0,0,0,0,0,0
AF,Afghanistan,country,South Asia,33.93911,67.709953,AE,United Arab Emirates,country,Middle East and North Africa,23.424076,53.847818,1786.34088935768,2003,4781,0,0,0,136,428,0,0,101,0,2566,0,0,1550,0,0,0,0,0,0,0,0,0,0
DZ,Algeria,country,Middle East and North Africa,28.033886,1.659626,AE,United Arab Emirates,country,Middle East and North Africa,23.424076,53.847818,5219.95595646008,2003,205,0,0,0,0,0,0,116,0,0,0,0,48,7,0,34,0,0,0,0,0,0,0,0
AG,Antigua & Barbuda,country,Latin America and the Caribbean,17.060816,-61.796428,AE,United Arab Emirates,country,Middle East and North Africa,23.424076,53.847818,11716.2292611164,2003,1,0,0,0,0,0,0,0,1,0,0,0,0,0,0,0,0,0,0,0,0,0,0,0
AR,Argentina,country,Latin America and the Caribbean,-38.416097,-63.616672,AE,United Arab Emirates,country,Middle East and North Africa,23.424076,53.847818,13954.074647522,2003,96178,81988,0,276,342,0,2460,49,2062,0,0,109,106,113,7884,94,0,573,122,0,0,0,0,0
AM,Armenia,country,Europe and Central Asia,40.069099,45.038189,AE,United Arab Emirates,country,Middle East and North Africa,23.424076,53.847818,2029.24636850083,2003,770,0,0,0,0,0,0,0,0,0,0,0,0,0,0,770,0,0,0,0,0,0,0,0
AU,Australia,country,East Asia and Pacific,-25.274398,133.775136,AE,United Arab Emirates,country,Middle East and North Africa,23.424076,53.847818,10175.7193369084,2003,255994,182814,300,1352,12174,96,37,9994,6186,0,11,6249,1141,788,231,6927,0,14153,13541,0,0,0,0,0
AT,Austria,country,Europe and Central Asia,47.516231,14.550072,AE,United Arab Emirates,country,Middle East and North Africa,23.424076,53.847818,4385.82870637242,2003,4193,375,0,4,22,0,0,136,427,0,0,67,92,183,0,2020,0,65,802,0,0,0,0,0
AZ,Azerbaijan,country,Europe and Central Asia,40.143105,47.576927,AE,United Arab Emirates,country,Middle East and North Africa,23.424076,53.847818,1952.05237367175,2003,230,0,0,0,0,40,13,65,13,0,0,0,0,60,17,22,0,0,0,0,0,0,0,0
BS,The Bahamas,country,Latin America and the Caribbean,25.03428,-77.39628,AE,United Arab Emirates,country,Middle East and North Africa,23.424076,53.847818,12504.1365871846,2003,64,0,0,0,0,0,0,0,0,0,0,0,0,0,0,64,0,0,0,0,0,0,0,0
BH,Bahrain,country,Middle East and North Africa,25.930414,50.637772,AE,United Arab Emirates,country,Middle East and North Africa,23.424076,53.847818,428.07152930609,2003,579,9,0,20,0,0,1,32,60,0,39,6,71,154,0,105,0,9,73,0,0,0,0,0
BD,Bangladesh,country,South Asia,23.684994,90.356331,AE,United Arab Emirates,country,Middle East and North Africa,23.424076,53.847818,3715.18551755001,2003,3210,408,24,0,1,23,0,2303,19,0,2,0,186,214,11,3,0,1,15,0,0,0,0,0
BY,Belarus,country,Europe and Central Asia,53.709807,27.953389,AE,United Arab Emirates,country,Middle East and North Africa,23.424076,53.847818,4007.74763640672,2003,3,0,0,0,0,0,0,0,0,0,0,0,0,0,0,3,0,0,0,0,0,0,0,0
BE,Belgium,country,Europe and Central Asia,50.503887,4.469936,AE,United Arab Emirates,country,Middle East and North Africa,23.424076,53.847818,5190.60120030384,2003,21911,1532,4873,972,0,0,56,6523,1083,0,0,259,824,1147,690,2933,2,148,871,0,0,0,0,0
BZ,Belize,country,Latin America and the Caribbean,17.189877,-88.49765,AE,United Arab Emirates,country,Middle East and North Africa,23.424076,53.847818,13937.9208114511,2003,247,0,0,0,247,0,0,0,0,0,0,0,0,0,0,0,0,0,0,0,0,0,0,0
BR,Brazil,country,Latin America and the Caribbean,-14.235004,-51.92528,AE,United Arab Emirates,country,Middle East and North Africa,23.424076,53.847818,12228.1905339186,2003,831414,9012,0,668011,21,20,0,4165,6718,0,155,11,1186,239,22350,16,2294,119234,276,0,0,0,0,0
BN,Brunei Darussalam,country,,4.535277,114.727669,AE,United Arab Emirates,country,Middle East and North Africa,23.424076,53.847818,6850.39763763388,2003,36,0,0,0,0,0,0,0,0,0,0,0,0,0,0,36,0,0,0,0,0,0,0,0
BG,Bulgaria,country,Europe and Central Asia,42.733883,25.48583,AE,United Arab Emirates,country,Middle East and North Africa,23.424076,53.847818,3379.96688198518,2003,383,2,0,89,0,0,23,14,0,0,32,0,0,39,0,37,0,0,147,0,0,0,0,0
BI,Burundi,country,Sub-Saharan Africa,-3.373056,29.918886,AE,United Arab Emirates,country,Middle East and North Africa,23.424076,53.847818,3954.45350675613,2003,0,0,0,0,0,0,0,0,0,0,0,0,0,0,0,0,0,0,0,0,0,0,0,0
KH,Cambodia,country,East Asia and Pacific,12.565679,104.990963,AE,United Arab Emirates,country,Middle East and North Africa,23.424076,53.847818,5519.34226762729,2003,1,0,0,0,0,0,0,0,0,0,0,0,0,1,0,0,0,0,0,0,0,0,0,0
CA,Canada,country,North America,56.130366,-106.346771,AE,United Arab Emirates,country,Middle East and North Africa,23.424076,53.847818,10985.8904178984,2003,154898,133722,422,48,16312,25,870,167,40,0,0,848,58,284,326,215,0,196,1365,0,0,0,0,0
CL,Chile,country,Latin America and the Caribbean,-35.675147,-71.542969,AE,United Arab Emirates,country,Middle East and North Africa,23.424076,53.847818,14646.2648889406,2003,19795,3,0,22,0,31,0,0,19112,0,0,0,83,1,21,522,0,0,0,0,0,0,0,0
HK,Hong Kong,country,East Asia and Pacific,22.396428,114.109497,AE,United Arab Emirates,country,Middle East and North Africa,23.424076,53.847818,6132.56532822792,2003,409,56,0,141,0,0,5,0,42,0,0,0,11,131,2,19,0,2,0,0,0,0,0,0
MO,"Macao SAR, China",country,East Asia and Pacific,22.198745,113.543873,AE,United Arab Emirates,country,Middle East and North Africa,23.424076,53.847818,6081.17583673703,2003,0,0,0,0,0,0,0,0,0,0,0,0,0,0,0,0,0,0,0,0,0,0,0,0
CN,China,country,East Asia and Pacific,35.86166,104.195397,AE,United Arab Emirates,country,Middle East and North Africa,23.424076,53.847818,5006.48134652758,2003,155017,4541,93,4043,2020,602,11541,53173,18651,0,18311,5415,453,6612,175,26069,0,3281,37,0,0,0,0,0
TW,Taiwan,country,East Asia and Pacific,23.69781,120.960515,AE,United Arab Emirates,country,Middle East and North Africa,23.424076,53.847818,6777.79051584672,2003,121,0,0,36,0,0,0,15,9,0,0,43,1,6,6,0,0,0,5,0,0,0,0,0
CO,Colombia,country,Latin America and the Caribbean,4.570868,-74.297333,AE,United Arab Emirates,country,Middle East and North Africa,23.424076,53.847818,13606.2138789283,2003,634,0,0,440,0,0,0,0,2,0,44,0,68,79,0,1,0,0,0,0,0,0,0,0
KM,Comoros,country,Sub-Saharan Africa,-11.875001,43.872219,AE,United Arab Emirates,country,Middle East and North Africa,23.424076,53.847818,4076.92564076272,2003,295,0,0,0,0,0,0,0,0,0,295,0,0,0,0,0,0,0,0,0,0,0,0,0
CG,"Congo, Rep.",country,Sub-Saharan Africa,-0.228021,15.827659,AE,United Arab Emirates,country,Middle East and North Africa,23.424076,53.847818,4880.19583080683,2003,0,0,0,0,0,0,0,0,0,0,0,0,0,0,0,0,0,0,0,0,0,0,0,0
CR,Costa Rica,country,Latin America and the Caribbean,9.748917,-83.753428,AE,United Arab Emirates,country,Middle East and North Africa,23.424076,53.847818,14127.1679300823,2003,67,0,0,0,0,0,0,30,0,0,0,0,36,1,0,0,0,0,0,0,0,0,0,0
HR,Croatia,country,Europe and Central Asia,45.1,15.2,AE,United Arab Emirates,country,Middle East and North Africa,23.424076,53.847818,4236.03495063709,2003,407,0,0,0,0,0,0,0,0,0,0,381,12,14,0,0,0,0,0,0,0,0,0,0
CU,Cuba,country,Latin America and the Caribbean,21.521757,-77.781167,AE,United Arab Emirates,country,Middle East and North Africa,23.424076,53.847818,12791.9132716454,2003,21,0,0,0,0,0,0,0,0,0,0,0,0,19,0,2,0,0,0,0,0,0,0,0
CY,Cyprus,country,Europe and Central Asia,35.126413,33.429859,AE,United Arab Emirates,country,Middle East and North Africa,23.424076,53.847818,2364.55389839286,2003,4497,767,9,18,0,0,0,145,2686,0,0,0,10,269,0,57,0,8,528,0,0,0,0,0
CZ,Czech Republic,country,Europe and Central Asia,49.817492,15.472962,AE,United Arab Emirates,country,Middle East and North Africa,23.424076,53.847818,4434.73512928286,2003,3248,0,0,0,0,0,0,0,0,0,0,168,0,31,0,12,0,0,3037,0,0,0,0,0
DK,Denmark,country,Europe and Central Asia,56.26392,9.501785,AE,United Arab Emirates,country,Middle East and North Africa,23.424076,53.847818,5117.48118439708,2003,36523,833,324,942,0,9,0,491,344,0,1,945,92,586,30,1026,428,18591,12309,0,0,0,0,0
DJ,Djibouti,country,Middle East and North Africa,11.825138,42.590275,AE,United Arab Emirates,country,Middle East and North Africa,23.424076,53.847818,1756.95199071642,2003,143,0,0,35,42,0,0,0,0,0,45,0,14,7,0,0,0,0,0,0,0,0,0,0
DO,Dominican Republic,country,Latin America and the Caribbean,18.735693,-70.162651,AE,United Arab Emirates,country,Middle East and North Africa,23.424076,53.847818,12356.421085993,2003,15,0,0,0,0,0,0,0,12,0,0,0,0,3,0,0,0,0,0,0,0,0,0,0
EC,Ecuador,country,Latin America and the Caribbean,-1.831239,-78.183406,AE,United Arab Emirates,country,Middle East and North Africa,23.424076,53.847818,14339.1240829119,2003,281,0,0,171,0,0,0,0,0,0,60,0,0,50,0,0,0,0,0,0,0,0,0,0
EG,Egypt,country,Middle East and North Africa,26.820553,30.802498,AE,United Arab Emirates,country,Middle East and North Africa,23.424076,53.847818,2349.90672112107,2003,77987,5369,9697,452,1276,173,735,13091,33675,0,152,3942,968,5004,317,286,324,412,2438,0,0,0,0,0
ER,Eritrea,country,Sub-Saharan Africa,15.179384,39.782334,AE,United Arab Emirates,country,Middle East and North Africa,23.424076,53.847818,1737.73715495645,2003,10,0,0,0,0,0,0,0,0,0,0,0,0,0,0,0,0,0,10,0,0,0,0,0
EE,Estonia,country,Europe and Central Asia,58.595272,25.013607,AE,United Arab Emirates,country,Middle East and North Africa,23.424076,53.847818,4530.50446786909,2003,0,0,0,0,0,0,0,0,0,0,0,0,0,0,0,0,0,0,0,0,0,0,0,0
ET,Ethiopia,country,Sub-Saharan Africa,9.145,40.489673,AE,United Arab Emirates,country,Middle East and North Africa,23.424076,53.847818,2133.07050604738,2003,3805,160,0,0,142,0,418,0,2,0,521,0,105,36,0,0,0,2420,1,0,0,0,0,0
FI,Finland,country,Europe and Central Asia,61.92411,25.748151,AE,United Arab Emirates,country,Middle East and North Africa,23.424076,53.847818,4783.45199636753,2003,708,0,0,146,0,0,0,0,0,0,0,31,7,6,0,18,0,0,500,0,0,0,0,0
FR,France,country,Europe and Central Asia,46.227638,2.213749,AE,United Arab Emirates,country,Middle East and North Africa,23.424076,53.847818,5240.2431858622,2003,54842,8063,379,3921,0,4,65,704,6128,0,166,2210,884,2929,1011,10792,0,12151,5435,0,0,0,0,0
GE,Georgia,country,Europe and Central Asia,42.315407,43.356892,AE,United Arab Emirates,country,Middle East and North Africa,23.424076,53.847818,2316.04635453517,2003,78,0,0,0,0,0,0,11,0,0,0,0,0,47,20,0,0,0,0,0,0,0,0,0
DE,Germany,country,Europe and Central Asia,51.165691,10.451526,AE,United Arab Emirates,country,Middle East and North Africa,23.424076,53.847818,4820.30284415488,2003,112948,3518,251,90382,0,7,2,94,907,0,11,423,746,3918,490,4852,14,544,6803,0,0,0,0,0
GH,Ghana,country,Sub-Saharan Africa,7.946527,-1.023194,AE,United Arab Emirates,country,Middle East and North Africa,23.424076,53.847818,6088.9548631176,2003,114,0,0,0,0,0,0,78,36,0,0,0,0,0,0,0,0,0,0,0,0,0,0,0
GR,Greece,country,Europe and Central Asia,39.074208,21.824312,AE,United Arab Emirates,country,Middle East and North Africa,23.424076,53.847818,3483.43988043614,2003,3555,860,1,27,0,0,106,1089,869,0,24,1,277,194,56,27,0,0,24,0,0,0,0,0
GT,Guatemala,country,Latin America and the Caribbean,15.783471,-90.230759,AE,United Arab Emirates,country,Middle East and North Africa,23.424076,53.847818,14178.5724554781,2003,3158,0,0,0,0,0,0,0,23,0,3118,0,17,0,0,0,0,0,0,0,0,0,0,0
HN,Honduras,country,Latin America and the Caribbean,15.199999,-86.241905,AE,United Arab Emirates,country,Middle East and North Africa,23.424076,53.847818,13925.9032512167,2003,1,0,0,0,0,0,0,0,1,0,0,0,0,0,0,0,0,0,0,0,0,0,0,0
HU,Hungary,country,Europe and Central Asia,47.162494,19.503304,AE,United Arab Emirates,country,Middle East and North Africa,23.424076,53.847818,4033.39108502351,2003,586,1,0,25,0,0,0,0,21,0,0,46,0,34,0,0,0,200,259,0,0,0,0,0
IS,Iceland,country,Europe and Central Asia,64.963051,-19.020835,AE,United Arab Emirates,country,Middle East and North Africa,23.424076,53.847818,6864.95317275821,2003,3,0,0,0,0,0,0,0,0,0,0,0,0,0,0,3,0,0,0,0,0,0,0,0
IN,India,country,South Asia,20.593684,78.96288,AE,United Arab Emirates,country,Middle East and North Africa,23.424076,53.847818,2607.80139174908,2003,1569492,1140525,4280,45272,6067,6198,9743,139607,67311,0,15680,26889,24889,10455,4396,10005,30,33388,24787,0,0,0,0,0
ID,Indonesia,country,East Asia and Pacific,-0.789275,113.921327,AE,United Arab Emirates,country,Middle East and North Africa,23.424076,53.847818,7025.54887369428,2003,20049,521,17,1502,0,2053,3493,29,1015,0,1633,3121,3535,2058,545,471,0,1,55,0,0,0,0,0
IR,Iran,country,Middle East and North Africa,32.427908,53.688046,AE,United Arab Emirates,country,Middle East and North Africa,23.424076,53.847818,1002.42470962484,2003,359776,6130,5213,2213,11966,19818,2733,144255,125611,0,13473,22718,233,3295,192,425,6,0,1148,0,353,0,0,0
IQ,Iraq,country,Middle East and North Africa,33.223191,43.679291,AE,United Arab Emirates,country,Middle East and North Africa,23.424076,53.847818,1475.69679220153,2003,10592,567,0,0,100,0,0,0,8842,0,23,1042,0,18,0,0,0,0,0,0,0,0,0,0
IE,Ireland,country,Europe and Central Asia,53.41291,-8.24389,AE,United Arab Emirates,country,Middle East and North Africa,23.424076,53.847818,6109.98739569226,2003,4219,1418,0,28,0,0,0,149,51,0,3,207,729,753,0,572,0,9,300,0,0,0,0,0
IT,Italy,country,Europe and Central Asia,41.87194,12.56738,AE,United Arab Emirates,country,Middle East and North Africa,23.424076,53.847818,4324.5482529839,2003,32960,6036,205,1369,475,57,26,11920,3166,0,1,3499,2374,1132,402,1845,0,20,433,0,0,0,0,0
JM,Jamaica,country,Latin America and the Caribbean,18.109581,-77.297508,AE,United Arab Emirates,country,Middle East and North Africa,23.424076,53.847818,12997.7862930929,2003,22,0,0,0,0,0,0,0,0,0,0,0,0,7,0,15,0,0,0,0,0,0,0,0
JP,Japan,country,East Asia and Pacific,36.204824,138.252924,AE,United Arab Emirates,country,Middle East and North Africa,23.424076,53.847818,8028.53645683057,2003,8394,30,0,378,0,2,68,48,1,0,0,0,15,525,0,7306,0,20,1,0,0,0,0,0
JO,Jordan,country,Middle East and North Africa,30.585164,36.238414,AE,United Arab Emirates,country,Middle East and North Africa,23.424076,53.847818,1916.72055438608,2003,118662,326,1516,103,52,20,82,108726,3618,0,242,63,95,1982,264,70,12,862,641,0,0,0,0,0
KZ,Kazakhstan,country,Europe and Central Asia,48.019573,66.923684,AE,United Arab Emirates,country,Middle East and North Africa,23.424076,53.847818,2972.46251845964,2003,57478,57453,0,5,0,0,0,0,0,0,0,0,0,0,0,20,0,0,0,0,0,0,0,0
KE,Kenya,country,Sub-Saharan Africa,-0.023559,37.906193,AE,United Arab Emirates,country,Middle East and North Africa,23.424076,53.847818,3127.95988647763,2003,7439,0,0,424,0,0,12,529,3923,0,73,0,1731,324,21,0,0,402,0,0,0,0,0,0
KW,Kuwait,country,Middle East and North Africa,29.31166,47.481766,AE,United Arab Emirates,country,Middle East and North Africa,23.424076,53.847818,912.139818623064,2003,7744,370,44,72,64,35,9,213,365,0,0,0,2007,495,558,2774,0,250,488,0,0,0,0,0
KG,Kyrgyz Rep.,country,Europe and Central Asia,41.20438,74.766098,AE,United Arab Emirates,country,Middle East and North Africa,23.424076,53.847818,2776.56018974439,2003,65,0,0,0,0,65,0,0,0,0,0,0,0,0,0,0,0,0,0,0,0,0,0,0
LA,Lao PDR,country,East Asia and Pacific,19.85627,102.495496,AE,United Arab Emirates,country,Middle East and North Africa,23.424076,53.847818,5026.34391944781,2003,0,0,0,0,0,0,0,0,0,0,0,0,0,0,0,0,0,0,0,0,0,0,0,0
LV,Latvia,country,Europe and Central Asia,56.879635,24.603189,AE,United Arab Emirates,country,Middle East and North Africa,23.424076,53.847818,4409.28466603462,2003,1,0,0,0,0,0,0,0,0,0,0,0,0,1,0,0,0,0,0,0,0,0,0,0
LB,Lebanon,country,Middle East and North Africa,33.854721,35.862285,AE,United Arab Emirates,country,Middle East and North Africa,23.424076,53.847818,2100.91829152951,2003,47411,211,16583,378,58,14,18,4975,21189,0,81,0,294,2482,158,588,37,93,289,0,0,0,0,0
LY,Libya,country,Middle East and North Africa,26.3351,17.228331,AE,United Arab Emirates,country,Middle East and North Africa,23.424076,53.847818,3700.18074789097,2003,4,0,0,0,0,2,0,0,2,0,0,0,0,0,0,0,0,0,0,0,0,0,0,0
LT,Lithuania,country,Europe and Central Asia,55.169438,23.881275,AE,United Arab Emirates,country,Middle East and North Africa,23.424076,53.847818,4309.04622899548,2003,20,0,0,0,0,0,0,0,0,0,0,0,0,0,0,0,0,2,18,0,0,0,0,0
LU,Luxembourg,country,Europe and Central Asia,49.815273,6.129583,AE,United Arab Emirates,country,Middle East and North Africa,23.424076,53.847818,5054.92783035055,2003,88,0,0,0,0,0,0,7,6,0,0,1,33,41,0,0,0,0,0,0,0,0,0,0
MG,Madagascar,country,Sub-Saharan Africa,-18.766947,46.869107,AE,United Arab Emirates,country,Middle East and North Africa,23.424076,53.847818,4757.49234451487,2003,1237,0,0,0,0,0,0,0,0,0,1217,0,0,20,0,0,0,0,0,0,0,0,0,0
MW,Malawi,country,Sub-Saharan Africa,-13.254308,34.301525,AE,United Arab Emirates,country,Middle East and North Africa,23.424076,53.847818,4604.58087677201,2003,75,0,0,2,0,0,0,0,0,0,0,0,73,0,0,0,0,0,0,0,0,0,0,0
MY,Malaysia,country,East Asia and Pacific,4.210484,101.975766,AE,United Arab Emirates,country,Middle East and North Africa,23.424076,53.847818,5589.18327849531,2003,107313,4492,12,906,75,85,643,1412,6290,0,60,49,2830,6271,81528,358,0,408,1894,0,0,0,0,0
MT,Malta,country,Middle East and North Africa,35.937496,14.375416,AE,United Arab Emirates,country,Middle East and North Africa,23.424076,53.847818,4031.43768014056,2003,5100,749,0,39,36,0,0,156,175,0,0,0,0,3212,0,658,0,0,75,0,0,0,0,0
MU,Mauritius,country,Sub-Saharan Africa,-20.348404,57.552152,AE,United Arab Emirates,country,Middle East and North Africa,23.424076,53.847818,4889.27969350854,2003,73,0,0,63,0,0,0,4,0,0,0,0,0,6,0,0,0,0,0,0,0,0,0,0
MX,Mexico,country,Latin America and the Caribbean,23.634501,-102.552784,AE,United Arab Emirates,country,Middle East and North Africa,23.424076,53.847818,14210.8206734961,2003,8030,0,0,87,3915,0,76,0,0,0,163,0,245,2710,0,834,0,0,0,0,0,0,0,0
MA,Morocco,country,Middle East and North Africa,31.791702,-7.09262,AE,United Arab Emirates,country,Middle East and North Africa,23.424076,53.847818,6007.54204217974,2003,1195,16,0,4,168,0,106,23,217,0,1,0,100,138,1,22,0,0,399,0,0,0,0,0
MZ,Mozambique,country,Sub-Saharan Africa,-18.665695,35.529562,AE,United Arab Emirates,country,Middle East and North Africa,23.424076,53.847818,5090.61909034474,2003,66,0,0,0,0,0,0,0,0,0,0,0,66,0,0,0,0,0,0,0,0,0,0,0
MM,Myanmar,country,East Asia and Pacific,21.913965,95.956223,AE,United Arab Emirates,country,Middle East and North Africa,23.424076,53.847818,4313.30727365053,2003,10213,0,0,0,4503,0,0,0,164,0,3475,0,0,2071,0,0,0,0,0,0,0,0,0,0
NA,Namibia,country,Sub-Saharan Africa,-22.95764,18.49041,AE,United Arab Emirates,country,Middle East and North Africa,23.424076,53.847818,6425.68658001378,2003,128,0,0,0,0,0,0,0,107,0,0,0,0,0,0,21,0,0,0,0,0,0,0,0
NP,Nepal,country,South Asia,28.394857,84.124008,AE,United Arab Emirates,country,Middle East and North Africa,23.424076,53.847818,3073.26665819842,2003,97,0,0,0,0,0,0,0,0,0,71,0,0,24,0,2,0,0,0,0,0,0,0,0
NL,Netherlands,country,Europe and Central Asia,52.132633,5.291266,AE,United Arab Emirates,country,Middle East and North Africa,23.424076,53.847818,5191.50956132163,2003,97740,1728,9020,4390,2,48,13,3924,3409,0,19,1490,4896,4136,261,17308,48,2141,44955,0,0,0,0,0
NZ,New Zealand,country,East Asia and Pacific,-40.900557,174.885971,AE,United Arab Emirates,country,Middle East and North Africa,23.424076,53.847818,14266.9350349334,2003,22462,76,26,33,0,0,0,995,2656,0,0,76,57,61,0,635,0,2856,14991,0,0,0,0,0
NI,Nicaragua,country,Latin America and the Caribbean,12.865416,-85.207229,AE,United Arab Emirates,country,Middle East and North Africa,23.424076,53.847818,14021.448092355,2003,215,0,0,0,0,0,0,0,0,0,0,0,215,0,0,0,0,0,0,0,0,0,0,0
NG,Nigeria,country,Sub-Saharan Africa,9.081999,8.675277,AE,United Arab Emirates,country,Middle East and North Africa,23.424076,53.847818,5059.61042030537,2003,19,0,0,0,0,8,0,0,6,0,0,0,0,5,0,0,0,0,0,0,0,0,0,0
NO,Norway,country,Europe and Central Asia,60.472024,8.468946,AE,United Arab Emirates,country,Middle East and North Africa,23.424076,53.847818,5391.03312651559,2003,117,8,0,8,0,0,0,0,1,0,0,0,1,12,0,84,0,2,1,0,0,0,0,0
PS,Palestine,country,Middle East and North Africa,31.952162,35.233154,AE,United Arab Emirates,country,Middle East and North Africa,23.424076,53.847818,2061.61234105192,2003,5061,15,0,2,0,0,35,44,4447,0,0,0,0,87,383,0,0,35,13,0,0,0,0,0
OM,Oman,country,Middle East and North Africa,21.512583,55.923255,AE,United Arab Emirates,country,Middle East and North Africa,23.424076,53.847818,301.417786949232,2003,30988,28,0,2,0,0,2,8888,244,0,10,12941,0,378,41,8315,0,137,2,0,0,0,0,0
PK,Pakistan,country,South Asia,30.375321,69.345116,AE,United Arab Emirates,country,Middle East and North Africa,23.424076,53.847818,1719.7691838554,2003,493445,345762,990,1286,6981,863,380,37707,56667,0,4813,32106,72,3810,61,125,270,1798,24,0,0,0,0,0
PY,Paraguay,country,Latin America and the Caribbean,-23.442503,-58.443832,AE,United Arab Emirates,country,Middle East and North Africa,23.424076,53.847818,13193.7040530651,2003,206,0,0,0,0,0,0,0,0,0,0,0,0,0,0,0,0,206,0,0,0,0,0,0
PE,Peru,country,Latin America and the Caribbean,-9.189967,-75.015152,AE,United Arab Emirates,country,Middle East and North Africa,23.424076,53.847818,14380.9922546081,2003,594,0,0,0,576,0,0,0,0,0,0,0,18,0,0,0,0,0,0,0,0,0,0,0
PH,Philippines,country,East Asia and Pacific,12.879721,121.774017,AE,United Arab Emirates,country,Middle East and North Africa,23.424076,53.847818,7220.64149208586,2003,76296,302,0,24,0,2,470,27,72131,0,5,1,67,3027,0,62,0,158,20,0,0,0,0,0
PL,Poland,country,Europe and Central Asia,51.919438,19.145136,AE,United Arab Emirates,country,Middle East and North Africa,23.424076,53.847818,4330.91936702787,2003,3021,342,553,379,0,1,0,343,151,0,0,6,277,80,1,0,0,26,862,0,0,0,0,0
PT,Portugal,country,Europe and Central Asia,39.399872,-8.224454,AE,United Arab Emirates,country,Middle East and North Africa,23.424076,53.847818,6037.77671570563,2003,299,0,0,181,21,0,0,48,0,0,0,0,4,1,0,44,0,0,0,0,0,0,0,0
QA,Qatar,country,Middle East and North Africa,25.354826,51.183884,AE,United Arab Emirates,country,Middle East and North Africa,23.424076,53.847818,345.147488919567,2003,62,14,3,1,0,0,0,7,5,0,0,0,0,11,18,0,0,0,3,0,0,0,0,0
KR,"Korea, Rep.",country,East Asia and Pacific,35.907757,127.766922,AE,United Arab Emirates,country,Middle East and North Africa,23.424076,53.847818,7119.90209205201,2003,1760,134,0,658,0,1,7,8,47,0,0,0,8,734,5,158,0,0,0,0,0,0,0,0
MD,Moldova,country,Europe and Central Asia,47.411631,28.369885,AE,United Arab Emirates,country,Middle East and North Africa,23.424076,53.847818,3499.1559398153,2003,40,0,24,0,0,0,0,0,0,0,9,0,0,0,0,7,0,0,0,0,0,0,0,0
RO,Romania,country,Europe and Central Asia,45.943161,24.96676,AE,United Arab Emirates,country,Middle East and North Africa,23.424076,53.847818,3605.98550965363,2003,17402,17359,0,0,0,0,0,0,0,0,0,0,0,14,0,20,0,0,9,0,0,0,0,0
RU,Russian Federation,country,Europe and Central Asia,61.52401,105.318756,AE,United Arab Emirates,country,Middle East and North Africa,23.424076,53.847818,5737.46748564327,2003,12939,0,0,9,0,3,17,12750,0,0,0,0,4,17,0,139,0,0,0,0,0,0,0,0
SA,Saudi Arabia,country,Middle East and North Africa,23.885942,45.079162,AE,United Arab Emirates,country,Middle East and North Africa,23.424076,53.847818,895.439246379647,2003,177555,5313,43859,1758,159,26,45,10983,34091,0,108,1303,815,11574,6425,2014,5566,4577,54505,0,0,0,0,0
SN,Senegal,country,Sub-Saharan Africa,14.497401,-14.452362,AE,United Arab Emirates,country,Middle East and North Africa,23.424076,53.847818,7197.9347589452,2003,2,0,0,0,0,0,0,0,0,0,0,0,0,2,0,0,0,0,0,0,0,0,0,0
RS,Serbia,country,Europe and Central Asia,44.016521,21.005859,AE,United Arab Emirates,country,Middle East and North Africa,23.424076,53.847818,3766.56792777802,2003,38,0,0,3,0,0,0,0,1,0,0,0,31,0,0,0,0,3,0,0,0,0,0,0
SC,Seychelles,country,Sub-Saharan Africa,-4.679574,55.491977,AE,United Arab Emirates,country,Middle East and North Africa,23.424076,53.847818,3133.57808539363,2003,0,0,0,0,0,0,0,0,0,0,0,0,0,0,0,0,0,0,0,0,0,0,0,0
SG,Singapore,country,East Asia and Pacific,1.352083,103.819836,AE,United Arab Emirates,country,Middle East and North Africa,23.424076,53.847818,5919.41234364878,2003,33240,386,0,1404,4,192,76,92,250,0,312,55,1127,656,24640,1480,0,12,2554,0,0,0,0,0
SK,Slovak Rep.,country,Europe and Central Asia,48.669026,19.699024,AE,United Arab Emirates,country,Middle East and North Africa,23.424076,53.847818,4104.22239857601,2003,71,3,0,9,0,0,0,0,0,0,0,0,1,0,0,0,0,0,58,0,0,0,0,0
SI,Slovenia,country,Europe and Central Asia,46.151241,14.995463,AE,United Arab Emirates,country,Middle East and North Africa,23.424076,53.847818,4294.85498852918,2003,610,0,0,0,0,0,0,0,0,0,0,0,0,610,0,0,0,0,0,0,0,0,0,0
SO,Somalia,country,Sub-Saharan Africa,5.152149,46.199616,AE,United Arab Emirates,country,Middle East and North Africa,23.424076,53.847818,2193.39665134199,2003,3557,0,0,17,0,0,100,0,136,0,0,0,0,69,20,0,0,3215,0,0,0,0,0,0
ZA,S. Africa,country,Sub-Saharan Africa,-30.559482,22.937506,AE,United Arab Emirates,country,Middle East and North Africa,23.424076,53.847818,6856.03300945242,2003,92009,677,0,6317,0,0,376,119,77145,0,7,1902,982,2192,0,926,0,1199,167,0,0,0,0,0
ES,Spain,country,Europe and Central Asia,40.463667,-3.74922,AE,United Arab Emirates,country,Middle East and North Africa,23.424076,53.847818,5654.5649550044,2003,51349,600,20,514,0,73,3389,2311,2737,0,14,36090,972,944,2349,330,0,57,949,0,0,0,0,0
LK,Sri Lanka,country,South Asia,7.873054,80.771797,AE,United Arab Emirates,country,Middle East and North Africa,23.424076,53.847818,3354.28729133591,2003,62419,555,796,57,6,17,26385,897,1625,0,498,0,30796,380,212,109,0,68,18,0,0,0,0,0
SD,Sudan,country,Sub-Saharan Africa,12.862807,30.217636,AE,United Arab Emirates,country,Middle East and North Africa,23.424076,53.847818,2756.54594892937,2003,4043,290,0,5,0,0,594,53,426,0,2,2342,1,239,16,2,0,68,5,0,0,0,0,0
SR,Suriname,country,Latin America and the Caribbean,3.919305,-56.027783,AE,United Arab Emirates,country,Middle East and North Africa,23.424076,53.847818,11855.8165840857,2003,13,0,0,0,0,0,0,12,1,0,0,0,0,0,0,0,0,0,0,0,0,0,0,0
SZ,Swaziland,country,Sub-Saharan Africa,-26.522503,31.465866,AE,United Arab Emirates,country,Middle East and North Africa,23.424076,53.847818,6059.48272153988,2003,44,0,0,0,0,0,0,0,44,0,0,0,0,0,0,0,0,0,0,0,0,0,0,0
SE,Sweden,country,Europe and Central Asia,60.128161,18.643501,AE,United Arab Emirates,country,Middle East and North Africa,23.424076,53.847818,4909.01238751593,2003,1229,184,0,345,0,0,0,0,0,0,0,59,227,54,1,47,0,1,311,0,0,0,0,0
CH,Switzerland,country,Europe and Central Asia,46.818188,8.227512,AE,United Arab Emirates,country,Middle East and North Africa,23.424076,53.847818,4808.25189355717,2003,2747,408,0,207,0,1,16,1,276,0,0,27,1152,241,0,163,0,8,247,0,0,0,0,0
SY,Syrian Arab Rep.,country,Middle East and North Africa,34.802075,38.996815,AE,United Arab Emirates,country,Middle East and North Africa,23.424076,53.847818,1916.85404268745,2003,47768,422,2932,353,1308,98,538,25017,11531,0,2883,32,289,1413,486,123,113,0,343,0,0,0,0,0
TJ,Tajikistan,country,Europe and Central Asia,38.861034,71.276093,AE,United Arab Emirates,country,Middle East and North Africa,23.424076,53.847818,2381.05909763729,2003,11,0,0,0,0,4,0,7,0,0,0,0,0,0,0,0,0,0,0,0,0,0,0,0
TH,Thailand,country,East Asia and Pacific,15.870032,100.992541,AE,United Arab Emirates,country,Middle East and North Africa,23.424076,53.847818,4992.12861865051,2003,129511,99521,1023,3440,151,1321,61,1870,15800,0,1253,217,126,1753,42,922,0,2004,7,0,0,0,0,0
TT,Trinidad and Tobago,country,Latin America and the Caribbean,10.691803,-61.222503,AE,United Arab Emirates,country,Middle East and North Africa,23.424076,53.847818,12017.7432708454,2003,1,0,0,0,0,0,0,0,0,0,0,0,0,0,0,1,0,0,0,0,0,0,0,0
TN,Tunisia,country,Middle East and North Africa,33.886917,9.537499,AE,United Arab Emirates,country,Middle East and North Africa,23.424076,53.847818,4446.14300731585,2003,1293,162,0,2,0,0,0,54,308,0,0,0,46,495,168,57,0,0,1,0,0,0,0,0
TR,Turkey,country,Europe and Central Asia,38.963745,35.243322,AE,United Arab Emirates,country,Middle East and North Africa,23.424076,53.847818,2466.36984769033,2003,57933,19362,2,1692,3579,448,230,8308,15880,0,74,0,2032,3113,1175,1309,0,1,728,0,0,0,0,0
TM,Turkmenistan,country,Europe and Central Asia,38.969719,59.556278,AE,United Arab Emirates,country,Middle East and North Africa,23.424076,53.847818,1812.82259387953,2003,0,0,0,0,0,0,0,0,0,0,0,0,0,0,0,0,0,0,0,0,0,0,0,0
UG,Uganda,country,Sub-Saharan Africa,1.373333,32.290275,AE,United Arab Emirates,country,Middle East and North Africa,23.424076,53.847818,3381.96496290818,2003,144,0,1,0,0,0,0,42,65,0,0,0,36,0,0,0,0,0,0,0,0,0,0,0
UA,Ukraine,country,Europe and Central Asia,48.379433,31.16558,AE,United Arab Emirates,country,Middle East and North Africa,23.424076,53.847818,3421.90668397938,2003,99179,90997,0,2,0,124,0,8053,0,0,0,0,0,2,0,1,0,0,0,0,0,0,0,0
GB,United Kingdom,country,Europe and Central Asia,55.378051,-3.435973,AE,United Arab Emirates,country,Middle East and North Africa,23.424076,53.847818,5843.0911511644,2003,50738,7199,187,3377,1753,76,35,1443,548,0,122,5013,3362,10184,387,9813,12,177,7062,0,0,0,0,0
TZ,Tanzania,country,Sub-Saharan Africa,-6.369028,34.888822,AE,United Arab Emirates,country,Middle East and North Africa,23.424076,53.847818,3905.04117961911,2003,13135,1511,0,3,3394,0,0,0,0,0,1153,6999,0,75,0,0,0,0,0,0,0,0,0,0
US,USA,country,North America,37.09024,-95.712891,AE,United Arab Emirates,country,Middle East and North Africa,23.424076,53.847818,12583.1774681464,2003,167674,9354,1776,883,249,12836,909,9045,31891,0,141,13000,804,35499,8446,10433,0,30785,1623,0,0,0,0,0
UY,Uruguay,country,Latin America and the Caribbean,-32.522779,-55.765835,AE,United Arab Emirates,country,Middle East and North Africa,23.424076,53.847818,13164.3787002277,2003,280,0,0,0,0,0,0,0,132,0,0,0,0,0,0,0,0,45,103,0,0,0,0,0
UZ,Uzbekistan,country,Europe and Central Asia,41.377491,64.585262,AE,United Arab Emirates,country,Middle East and North Africa,23.424076,53.847818,2234.5897129856,2003,993,0,0,0,830,55,0,0,5,0,63,40,0,0,0,0,0,0,0,0,0,0,0,0
VE,Venezuela,country,Latin America and the Caribbean,6.42375,-66.58973,AE,United Arab Emirates,country,Middle East and North Africa,23.424076,53.847818,12765.4460032069,2003,14,0,0,0,0,0,0,0,0,0,14,0,0,0,0,0,0,0,0,0,0,0,0,0
VN,Vietnam,country,East Asia and Pacific,14.058324,108.277199,AE,United Arab Emirates,country,Middle East and North Africa,23.424076,53.847818,5799.27021658979,2003,18162,6239,0,202,0,377,1224,22,55,0,8881,0,108,1054,0,0,0,0,0,0,0,0,0,0
YE,Yemen,country,Middle East and North Africa,15.552727,48.516388,AE,United Arab Emirates,country,Middle East and North Africa,23.424076,53.847818,1039.28505072365,2003,1621,71,0,118,0,0,0,122,533,0,6,0,432,58,1,0,0,28,252,0,0,0,0,0
ZM,Zambia,country,Sub-Saharan Africa,-13.133897,27.849332,AE,United Arab Emirates,country,Middle East and North Africa,23.424076,53.847818,4957.55299314407,2003,36,0,0,0,0,0,0,0,0,0,0,0,36,0,0,0,0,0,0,0,0,0,0,0
ZW,Zimbabwe,country,Sub-Saharan Africa,-19.015438,29.154857,AE,United Arab Emirates,country,Middle East and North Africa,23.424076,53.847818,5432.60634345749,2003,2514,0,0,0,0,0,0,15,2496,0,0,2,0,1,0,0,0,0,0,0,0,0,0,0
AF,Afghanistan,country,South Asia,33.93911,67.709953,AE,United Arab Emirates,country,Middle East and North Africa,23.424076,53.847818,1786.34088935768,2005,5775,0,0,0,0,142,0,0,82,0,3696,0,0,1855,0,0,0,0,0,0,0,0,0,0
DZ,Algeria,country,Middle East and North Africa,28.033886,1.659626,AE,United Arab Emirates,country,Middle East and North Africa,23.424076,53.847818,5219.95595646008,2005,59,0,0,5,0,0,0,22,5,0,0,0,0,12,0,15,0,0,0,0,0,0,0,0
AO,Angola,country,Sub-Saharan Africa,-11.202692,17.873887,AE,United Arab Emirates,country,Middle East and North Africa,23.424076,53.847818,5495.54583607028,2005,21,0,0,0,0,0,0,0,0,0,0,0,0,21,0,0,0,0,0,0,0,0,0,0
AR,Argentina,country,Latin America and the Caribbean,-38.416097,-63.616672,AE,United Arab Emirates,country,Middle East and North Africa,23.424076,53.847818,13954.074647522,2005,1005753,596950,0,430,585,38,314990,1,4257,0,1,21361,175,10,65734,170,0,670,381,0,0,0,0,0
AM,Armenia,country,Europe and Central Asia,40.069099,45.038189,AE,United Arab Emirates,country,Middle East and North Africa,23.424076,53.847818,2029.24636850083,2005,58,0,0,0,0,0,0,0,0,0,0,0,0,0,0,53,0,4,1,0,0,0,0,0
AU,Australia,country,East Asia and Pacific,-25.274398,133.775136,AE,United Arab Emirates,country,Middle East and North Africa,23.424076,53.847818,10175.7193369084,2005,660658,572493,691,2975,16406,449,289,13332,13855,2,8,6762,874,706,797,6819,0,12952,11248,0,0,0,0,0
AT,Austria,country,Europe and Central Asia,47.516231,14.550072,AE,United Arab Emirates,country,Middle East and North Africa,23.424076,53.847818,4385.82870637242,2005,2972,59,0,14,0,0,0,13,236,0,0,27,407,1100,33,724,0,2,357,0,0,0,0,0
AZ,Azerbaijan,country,Europe and Central Asia,40.143105,47.576927,AE,United Arab Emirates,country,Middle East and North Africa,23.424076,53.847818,1952.05237367175,2005,88,0,0,0,0,41,0,0,20,0,0,0,0,26,0,0,0,1,0,0,0,0,0,0
BS,The Bahamas,country,Latin America and the Caribbean,25.03428,-77.39628,AE,United Arab Emirates,country,Middle East and North Africa,23.424076,53.847818,12504.1365871846,2005,86,0,0,0,0,0,0,0,0,0,0,0,0,0,0,86,0,0,0,0,0,0,0,0
BH,Bahrain,country,Middle East and North Africa,25.930414,50.637772,AE,United Arab Emirates,country,Middle East and North Africa,23.424076,53.847818,428.07152930609,2005,1672,3,2,17,0,3,0,65,270,0,73,0,21,233,1,677,0,224,56,27,0,0,0,0
BD,Bangladesh,country,South Asia,23.684994,90.356331,AE,United Arab Emirates,country,Middle East and North Africa,23.424076,53.847818,3715.18551755001,2005,4583,833,275,0,0,0,6,1895,96,0,11,5,154,1059,38,199,0,1,11,0,0,0,0,0
BY,Belarus,country,Europe and Central Asia,53.709807,27.953389,AE,United Arab Emirates,country,Middle East and North Africa,23.424076,53.847818,4007.74763640672,2005,0,0,0,0,0,0,0,0,0,0,0,0,0,0,0,0,0,0,0,0,0,0,0,0
BE,Belgium,country,Europe and Central Asia,50.503887,4.469936,AE,United Arab Emirates,country,Middle East and North Africa,23.424076,53.847818,5190.60120030384,2005,57643,2069,6380,33810,259,0,5,5178,839,0,20,733,2697,1388,546,2987,9,232,500,0,0,0,0,0
BZ,Belize,country,Latin America and the Caribbean,17.189877,-88.49765,AE,United Arab Emirates,country,Middle East and North Africa,23.424076,53.847818,13937.9208114511,2005,688,0,0,0,688,0,0,0,0,0,0,0,0,0,0,0,0,0,0,0,0,0,0,0
BJ,Benin,country,Sub-Saharan Africa,9.30769,2.315834,AE,United Arab Emirates,country,Middle East and North Africa,23.424076,53.847818,5691.4738488405,2005,16,0,0,0,0,0,0,0,0,0,0,0,0,16,0,0,0,0,0,0,0,0,0,0
BO,Bolivia,country,Latin America and the Caribbean,-16.290154,-63.588653,AE,United Arab Emirates,country,Middle East and North Africa,23.424076,53.847818,13486.7064253212,2005,29,0,0,0,0,17,12,0,0,0,0,0,0,0,0,0,0,0,0,0,0,0,0,0
BA,Bosnia & Herzegovina,country,Europe and Central Asia,43.915886,17.679076,AE,United Arab Emirates,country,Middle East and North Africa,23.424076,53.847818,4004.02386621202,2005,1,0,0,0,0,0,0,0,0,0,0,0,0,0,0,1,0,0,0,0,0,0,0,0
BR,Brazil,country,Latin America and the Caribbean,-14.235004,-51.92528,AE,United Arab Emirates,country,Middle East and North Africa,23.424076,53.847818,12228.1905339186,2005,1371952,149,0,1178339,0,0,52689,5,1496,0,123,3000,3754,557,33309,111,0,98371,49,0,0,0,0,0
BG,Bulgaria,country,Europe and Central Asia,42.733883,25.48583,AE,United Arab Emirates,country,Middle East and North Africa,23.424076,53.847818,3379.96688198518,2005,803,3,0,5,0,0,0,0,0,0,50,0,241,271,0,13,0,0,220,0,0,0,0,0
BI,Burundi,country,Sub-Saharan Africa,-3.373056,29.918886,AE,United Arab Emirates,country,Middle East and North Africa,23.424076,53.847818,3954.45350675613,2005,11,1,0,0,0,0,0,0,0,0,0,0,10,0,0,0,0,0,0,0,0,0,0,0
KH,Cambodia,country,East Asia and Pacific,12.565679,104.990963,AE,United Arab Emirates,country,Middle East and North Africa,23.424076,53.847818,5519.34226762729,2005,0,0,0,0,0,0,0,0,0,0,0,0,0,0,0,0,0,0,0,0,0,0,0,0
CM,Cameroon,country,Sub-Saharan Africa,7.369722,12.354722,AE,United Arab Emirates,country,Middle East and North Africa,23.424076,53.847818,4774.88141946436,2005,98,0,0,0,0,0,0,0,0,0,0,0,0,98,0,0,0,0,0,0,0,0,0,0
CA,Canada,country,North America,56.130366,-106.346771,AE,United Arab Emirates,country,Middle East and North Africa,23.424076,53.847818,10985.8904178984,2005,90501,54420,412,103,30909,0,406,549,24,0,20,840,16,924,291,76,58,104,1407,0,0,0,0,0
CL,Chile,country,Latin America and the Caribbean,-35.675147,-71.542969,AE,United Arab Emirates,country,Middle East and North Africa,23.424076,53.847818,14646.2648889406,2005,13352,0,0,45,0,123,37,0,12214,0,0,125,157,40,0,589,0,22,0,0,0,0,0,0
HK,Hong Kong,country,East Asia and Pacific,22.396428,114.109497,AE,United Arab Emirates,country,Middle East and North Africa,23.424076,53.847818,6132.56532822792,2005,1115,0,0,544,0,0,46,44,123,0,0,0,5,342,1,10,0,0,0,0,0,0,0,0
CN,China,country,East Asia and Pacific,35.86166,104.195397,AE,United Arab Emirates,country,Middle East and North Africa,23.424076,53.847818,5006.48134652758,2005,228104,3273,420,8965,2053,2989,24676,84802,32436,236,19089,313,1034,20154,18923,1260,0,7470,2,9,0,0,0,0
CO,Colombia,country,Latin America and the Caribbean,4.570868,-74.297333,AE,United Arab Emirates,country,Middle East and North Africa,23.424076,53.847818,13606.2138789283,2005,3216,0,0,3030,0,0,0,3,4,0,53,0,94,32,0,0,0,0,0,0,0,0,0,0
KM,Comoros,country,Sub-Saharan Africa,-11.875001,43.872219,AE,United Arab Emirates,country,Middle East and North Africa,23.424076,53.847818,4076.92564076272,2005,296,0,0,0,0,0,0,0,2,0,268,0,0,26,0,0,0,0,0,0,0,0,0,0
CG,"Congo, Rep.",country,Sub-Saharan Africa,-0.228021,15.827659,AE,United Arab Emirates,country,Middle East and North Africa,23.424076,53.847818,4880.19583080683,2005,16,0,0,0,0,0,0,2,6,0,0,0,0,7,0,0,0,1,0,0,0,0,0,0
CR,Costa Rica,country,Latin America and the Caribbean,9.748917,-83.753428,AE,United Arab Emirates,country,Middle East and North Africa,23.424076,53.847818,14127.1679300823,2005,43,0,0,0,0,0,0,0,28,0,0,0,3,12,0,0,0,0,0,0,0,0,0,0
CI,Ivory Coast,country,Sub-Saharan Africa,7.539989,-5.54708,AE,United Arab Emirates,country,Middle East and North Africa,23.424076,53.847818,6566.01423607969,2005,153,0,0,0,0,0,0,0,0,0,0,0,0,153,0,0,0,0,0,0,0,0,0,0
HR,Croatia,country,Europe and Central Asia,45.1,15.2,AE,United Arab Emirates,country,Middle East and North Africa,23.424076,53.847818,4236.03495063709,2005,81,5,0,9,0,0,0,24,0,0,0,0,18,1,0,24,0,0,0,0,0,0,0,0
CU,Cuba,country,Latin America and the Caribbean,21.521757,-77.781167,AE,United Arab Emirates,country,Middle East and North Africa,23.424076,53.847818,12791.9132716454,2005,33,0,0,0,0,0,0,0,0,0,0,0,0,18,0,15,0,0,0,0,0,0,0,0
CY,Cyprus,country,Europe and Central Asia,35.126413,33.429859,AE,United Arab Emirates,country,Middle East and North Africa,23.424076,53.847818,2364.55389839286,2005,5163,1257,0,0,0,0,0,5,2122,0,2,0,0,1124,0,95,0,0,558,0,0,0,0,0
CZ,Czech Republic,country,Europe and Central Asia,49.817492,15.472962,AE,United Arab Emirates,country,Middle East and North Africa,23.424076,53.847818,4434.73512928286,2005,37806,36988,0,0,0,0,0,0,17,0,0,2,0,4,0,23,0,0,772,0,0,0,0,0
DK,Denmark,country,Europe and Central Asia,56.26392,9.501785,AE,United Arab Emirates,country,Middle East and North Africa,23.424076,53.847818,5117.48118439708,2005,32390,595,81,10204,0,0,0,570,572,0,1,209,313,413,29,1191,0,7103,11109,0,0,0,0,0
DJ,Djibouti,country,Middle East and North Africa,11.825138,42.590275,AE,United Arab Emirates,country,Middle East and North Africa,23.424076,53.847818,1756.95199071642,2005,142,0,0,0,0,0,0,0,0,0,54,0,88,0,0,0,0,0,0,0,0,0,0,0
DM,Dominica,country,Latin America and the Caribbean,15.414999,-61.370976,AE,United Arab Emirates,country,Middle East and North Africa,23.424076,53.847818,11770.640445766,2005,16,0,0,0,0,0,0,0,12,0,0,0,0,4,0,0,0,0,0,0,0,0,0,0
EC,Ecuador,country,Latin America and the Caribbean,-1.831239,-78.183406,AE,United Arab Emirates,country,Middle East and North Africa,23.424076,53.847818,14339.1240829119,2005,592,0,0,516,0,0,0,0,18,0,0,0,0,58,0,0,0,0,0,0,0,0,0,0
EG,Egypt,country,Middle East and North Africa,26.820553,30.802498,AE,United Arab Emirates,country,Middle East and North Africa,23.424076,53.847818,2349.90672112107,2005,97151,13857,5416,450,114,16,591,23762,35030,124,70,3820,821,8730,90,538,210,512,3186,24,0,0,0,0
ET,Ethiopia,country,Sub-Saharan Africa,9.145,40.489673,AE,United Arab Emirates,country,Middle East and North Africa,23.424076,53.847818,2133.07050604738,2005,5658,290,0,0,553,0,286,4,2,0,563,0,162,57,0,0,0,3741,0,0,0,0,0,0
FI,Finland,country,Europe and Central Asia,61.92411,25.748151,AE,United Arab Emirates,country,Middle East and North Africa,23.424076,53.847818,4783.45199636753,2005,2127,2,0,1726,0,0,0,0,0,0,2,0,15,50,0,59,0,1,272,0,0,0,0,0
FR,France,country,Europe and Central Asia,46.227638,2.213749,AE,United Arab Emirates,country,Middle East and North Africa,23.424076,53.847818,5240.2431858622,2005,110854,6653,511,52795,9,19,84,1244,9404,3,198,2545,854,3106,890,12885,0,14412,5242,0,0,0,0,0
GA,Gabon,country,Sub-Saharan Africa,-0.803689,11.609444,AE,United Arab Emirates,country,Middle East and North Africa,23.424076,53.847818,5304.03172676243,2005,21,0,0,0,0,0,0,0,0,0,0,0,0,21,0,0,0,0,0,0,0,0,0,0
GE,Georgia,country,Europe and Central Asia,42.315407,43.356892,AE,United Arab Emirates,country,Middle East and North Africa,23.424076,53.847818,2316.04635453517,2005,42,0,0,0,0,0,0,0,0,0,0,0,6,31,0,5,0,0,0,0,0,0,0,0
DE,Germany,country,Europe and Central Asia,51.165691,10.451526,AE,United Arab Emirates,country,Middle East and North Africa,23.424076,53.847818,4820.30284415488,2005,331362,4257,239,304568,16,63,7,213,5663,1,79,276,1668,3311,474,4201,0,913,5413,0,0,0,0,0
GH,Ghana,country,Sub-Saharan Africa,7.946527,-1.023194,AE,United Arab Emirates,country,Middle East and North Africa,23.424076,53.847818,6088.9548631176,2005,203,0,0,0,0,0,0,0,184,0,0,0,0,19,0,0,0,0,0,0,0,0,0,0
GR,Greece,country,Europe and Central Asia,39.074208,21.824312,AE,United Arab Emirates,country,Middle East and North Africa,23.424076,53.847818,3483.43988043614,2005,2594,144,0,35,0,0,51,77,1606,0,0,0,203,395,25,42,0,0,16,0,0,0,0,0
GT,Guatemala,country,Latin America and the Caribbean,15.783471,-90.230759,AE,United Arab Emirates,country,Middle East and North Africa,23.424076,53.847818,14178.5724554781,2005,4199,0,0,0,0,0,36,0,70,0,4082,0,0,11,0,0,0,0,0,0,0,0,0,0
GN,Guinea,country,Sub-Saharan Africa,9.945587,-9.696645,AE,United Arab Emirates,country,Middle East and North Africa,23.424076,53.847818,6888.56279535457,2005,71,0,0,0,0,0,47,0,0,0,0,0,0,0,0,0,0,0,0,24,0,0,0,0
HN,Honduras,country,Latin America and the Caribbean,15.199999,-86.241905,AE,United Arab Emirates,country,Middle East and North Africa,23.424076,53.847818,13925.9032512167,2005,0,0,0,0,0,0,0,0,0,0,0,0,0,0,0,0,0,0,0,0,0,0,0,0
HU,Hungary,country,Europe and Central Asia,47.162494,19.503304,AE,United Arab Emirates,country,Middle East and North Africa,23.424076,53.847818,4033.39108502351,2005,233,1,0,14,0,0,0,56,0,0,0,34,0,11,0,0,0,103,14,0,0,0,0,0
IS,Iceland,country,Europe and Central Asia,64.963051,-19.020835,AE,United Arab Emirates,country,Middle East and North Africa,23.424076,53.847818,6864.95317275821,2005,1,0,0,0,0,0,0,0,0,0,0,0,0,0,0,1,0,0,0,0,0,0,0,0
IN,India,country,South Asia,20.593684,78.96288,AE,United Arab Emirates,country,Middle East and North Africa,23.424076,53.847818,2607.80139174908,2005,1407890,1009075,6192,5938,14580,7823,6680,158746,71682,62,21509,8186,20475,15006,5523,2542,57,21182,32684,5,0,0,0,0
ID,Indonesia,country,East Asia and Pacific,-0.789275,113.921327,AE,United Arab Emirates,country,Middle East and North Africa,23.424076,53.847818,7025.54887369428,2005,28873,618,0,1460,0,48,2017,94,1702,1,1902,18,4834,4771,10765,638,0,0,5,0,0,0,0,0
IR,Iran,country,Middle East and North Africa,32.427908,53.688046,AE,United Arab Emirates,country,Middle East and North Africa,23.424076,53.847818,1002.42470962484,2005,299855,859,8010,1230,6306,13334,69,126401,118397,103,6678,10439,620,6071,92,741,10,51,434,20,0,0,0,0
IQ,Iraq,country,Middle East and North Africa,33.223191,43.679291,AE,United Arab Emirates,country,Middle East and North Africa,23.424076,53.847818,1475.69679220153,2005,127624,367,0,119,1225,0,50,0,124098,1318,0,305,0,92,0,0,0,0,0,50,0,0,0,0
IE,Ireland,country,Europe and Central Asia,53.41291,-8.24389,AE,United Arab Emirates,country,Middle East and North Africa,23.424076,53.847818,6109.98739569226,2005,4853,1166,0,10,0,0,0,4,31,0,0,189,385,767,0,636,0,10,1654,1,0,0,0,0
IT,Italy,country,Europe and Central Asia,41.87194,12.56738,AE,United Arab Emirates,country,Middle East and North Africa,23.424076,53.847818,4324.5482529839,2005,31569,5505,2,319,535,34,29,12559,4536,47,0,286,2691,1895,202,2495,0,147,270,17,0,0,0,0
JM,Jamaica,country,Latin America and the Caribbean,18.109581,-77.297508,AE,United Arab Emirates,country,Middle East and North Africa,23.424076,53.847818,12997.7862930929,2005,22,0,0,0,0,0,0,0,0,0,0,0,0,0,0,22,0,0,0,0,0,0,0,0
JP,Japan,country,East Asia and Pacific,36.204824,138.252924,AE,United Arab Emirates,country,Middle East and North Africa,23.424076,53.847818,8028.53645683057,2005,12032,64,0,518,124,1,121,51,33,8,3,3,46,407,0,10639,0,14,0,0,0,0,0,0
JO,Jordan,country,Middle East and North Africa,30.585164,36.238414,AE,United Arab Emirates,country,Middle East and North Africa,23.424076,53.847818,1916.72055438608,2005,119862,176,1943,171,32,2,29,110894,4447,20,396,20,29,792,377,66,134,260,208,0,0,0,0,0
KZ,Kazakhstan,country,Europe and Central Asia,48.019573,66.923684,AE,United Arab Emirates,country,Middle East and North Africa,23.424076,53.847818,2972.46251845964,2005,3,0,0,1,0,0,0,0,0,0,0,0,0,2,0,0,0,0,0,0,0,0,0,0
KE,Kenya,country,Sub-Saharan Africa,-0.023559,37.906193,AE,United Arab Emirates,country,Middle East and North Africa,23.424076,53.847818,3127.95988647763,2005,9532,0,0,42,19,0,0,626,4477,8,247,0,2694,770,0,0,0,580,0,69,0,0,0,0
KW,Kuwait,country,Middle East and North Africa,29.31166,47.481766,AE,United Arab Emirates,country,Middle East and North Africa,23.424076,53.847818,912.139818623064,2005,7266,415,0,153,80,2,0,344,864,1,0,16,39,161,153,3374,119,491,984,189,0,0,0,0
KG,Kyrgyz Rep.,country,Europe and Central Asia,41.20438,74.766098,AE,United Arab Emirates,country,Middle East and North Africa,23.424076,53.847818,2776.56018974439,2005,1,0,0,1,0,0,0,0,0,0,0,0,0,0,0,0,0,0,0,0,0,0,0,0
KR,"Korea, Rep.",country,East Asia and Pacific,35.907757,127.766922,AE,United Arab Emirates,country,Middle East and North Africa,23.424076,53.847818,7119.90209205201,2005,5669,162,0,1037,0,0,142,27,315,0,3,0,85,719,0,3153,0,26,0,0,0,0,0,0
AF,Afghanistan,country,South Asia,33.93911,67.709953,AE,United Arab Emirates,country,Middle East and North Africa,23.424076,53.847818,1786.34088935768,2007,6366,2,0,0,0,91,0,15,382,0,3428,0,0,2444,0,0,0,4,0,0,0,0,0,0
DZ,Algeria,country,Middle East and North Africa,28.033886,1.659626,AE,United Arab Emirates,country,Middle East and North Africa,23.424076,53.847818,5219.95595646008,2007,74,0,0,0,0,0,0,28,46,0,0,0,0,0,0,0,0,0,0,0,0,0,0,0
AR,Argentina,country,Latin America and the Caribbean,-38.416097,-63.616672,AE,United Arab Emirates,country,Middle East and North Africa,23.424076,53.847818,13954.074647522,2007,279489,180457,0,614,635,0,80227,48,4630,0,0,0,437,77,7465,183,0,3969,747,0,0,0,0,0
AM,Armenia,country,Europe and Central Asia,40.069099,45.038189,AE,United Arab Emirates,country,Middle East and North Africa,23.424076,53.847818,2029.24636850083,2007,67,0,0,0,0,0,0,0,12,0,0,0,0,51,0,0,0,4,0,0,0,0,0,0
AU,Australia,country,East Asia and Pacific,-25.274398,133.775136,AE,United Arab Emirates,country,Middle East and North Africa,23.424076,53.847818,10175.7193369084,2007,279608,167898,590,3413,15376,183,29,17105,14838,0,66,6622,1365,1104,1984,8468,0,26235,14332,0,0,0,0,0
AT,Austria,country,Europe and Central Asia,47.516231,14.550072,AE,United Arab Emirates,country,Middle East and North Africa,23.424076,53.847818,4385.82870637242,2007,14494,70,17,13,0,0,0,3,9694,0,3,51,1192,1758,0,1054,0,158,481,0,0,0,0,0
AZ,Azerbaijan,country,Europe and Central Asia,40.143105,47.576927,AE,United Arab Emirates,country,Middle East and North Africa,23.424076,53.847818,1952.05237367175,2007,177,0,0,29,0,67,0,16,50,0,0,0,0,9,6,0,0,0,0,0,0,0,0,0
BS,The Bahamas,country,Latin America and the Caribbean,25.03428,-77.39628,AE,United Arab Emirates,country,Middle East and North Africa,23.424076,53.847818,12504.1365871846,2007,534,0,0,0,0,0,0,0,0,0,0,0,0,0,0,534,0,0,0,0,0,0,0,0
BH,Bahrain,country,Middle East and North Africa,25.930414,50.637772,AE,United Arab Emirates,country,Middle East and North Africa,23.424076,53.847818,428.07152930609,2007,923,2,0,3,0,0,0,31,4,91,64,0,16,49,0,191,0,253,3,216,0,0,0,0
BD,Bangladesh,country,South Asia,23.684994,90.356331,AE,United Arab Emirates,country,Middle East and North Africa,23.424076,53.847818,3715.18551755001,2007,4644,896,50,0,24,6,0,1876,598,66,52,0,195,61,83,605,0,132,0,0,0,0,0,0
BY,Belarus,country,Europe and Central Asia,53.709807,27.953389,AE,United Arab Emirates,country,Middle East and North Africa,23.424076,53.847818,4007.74763640672,2007,528,0,0,0,0,0,0,0,0,0,0,0,0,0,0,0,0,0,528,0,0,0,0,0
BE,Belgium,country,Europe and Central Asia,50.503887,4.469936,AE,United Arab Emirates,country,Middle East and North Africa,23.424076,53.847818,5190.60120030384,2007,33120,3132,8942,4133,53,25,126,4889,1034,1,0,676,1915,1314,954,4147,0,462,1271,46,0,0,0,0
BZ,Belize,country,Latin America and the Caribbean,17.189877,-88.49765,AE,United Arab Emirates,country,Middle East and North Africa,23.424076,53.847818,13937.9208114511,2007,94,0,0,0,94,0,0,0,0,0,0,0,0,0,0,0,0,0,0,0,0,0,0,0
BO,Bolivia,country,Latin America and the Caribbean,-16.290154,-63.588653,AE,United Arab Emirates,country,Middle East and North Africa,23.424076,53.847818,13486.7064253212,2007,15,0,0,0,0,0,15,0,0,0,0,0,0,0,0,0,0,0,0,0,0,0,0,0
BA,Bosnia & Herzegovina,country,Europe and Central Asia,43.915886,17.679076,AE,United Arab Emirates,country,Middle East and North Africa,23.424076,53.847818,4004.02386621202,2007,24,0,0,0,0,0,0,0,0,0,0,0,0,24,0,0,0,0,0,0,0,0,0,0
BR,Brazil,country,Latin America and the Caribbean,-14.235004,-51.92528,AE,United Arab Emirates,country,Middle East and North Africa,23.424076,53.847818,12228.1905339186,2007,1662301,527,0,1342442,361,2,58700,100,4828,0,106,7,3170,2981,14904,146,0,229884,4085,58,0,0,0,0
BN,Brunei Darussalam,country,,4.535277,114.727669,AE,United Arab Emirates,country,Middle East and North Africa,23.424076,53.847818,6850.39763763388,2007,0,0,0,0,0,0,0,0,0,0,0,0,0,0,0,0,0,0,0,0,0,0,0,0
BG,Bulgaria,country,Europe and Central Asia,42.733883,25.48583,AE,United Arab Emirates,country,Middle East and North Africa,23.424076,53.847818,3379.96688198518,2007,1083,6,0,17,40,0,0,0,0,0,0,20,667,147,0,11,0,1,174,0,0,0,0,0
CM,Cameroon,country,Sub-Saharan Africa,7.369722,12.354722,AE,United Arab Emirates,country,Middle East and North Africa,23.424076,53.847818,4774.88141946436,2007,1,0,0,0,0,0,0,0,0,0,0,0,0,1,0,0,0,0,0,0,0,0,0,0
CA,Canada,country,North America,56.130366,-106.346771,AE,United Arab Emirates,country,Middle East and North Africa,23.424076,53.847818,10985.8904178984,2007,351808,189878,1935,158,75006,110,78481,764,41,24,2,718,95,289,526,127,0,765,2888,1,0,0,0,0
CL,Chile,country,Latin America and the Caribbean,-35.675147,-71.542969,AE,United Arab Emirates,country,Middle East and North Africa,23.424076,53.847818,14646.2648889406,2007,31347,0,0,11,0,19,15,74,29846,0,0,114,21,560,0,447,0,0,240,0,0,0,0,0
HK,Hong Kong,country,East Asia and Pacific,22.396428,114.109497,AE,United Arab Emirates,country,Middle East and North Africa,23.424076,53.847818,6132.56532822792,2007,2037,0,0,72,0,113,39,1,0,0,26,0,0,1041,14,731,0,0,0,0,0,0,0,0
CN,China,country,East Asia and Pacific,35.86166,104.195397,AE,United Arab Emirates,country,Middle East and North Africa,23.424076,53.847818,5006.48134652758,2007,353382,7029,24662,11030,18051,3866,23875,126547,56063,369,26435,758,1616,26266,14734,5025,0,5448,1605,3,0,0,0,0
TW,Taiwan,country,East Asia and Pacific,23.69781,120.960515,AE,United Arab Emirates,country,Middle East and North Africa,23.424076,53.847818,6777.79051584672,2007,420,75,7,9,8,0,0,35,36,0,0,124,34,69,23,0,0,0,0,0,0,0,0,0
CO,Colombia,country,Latin America and the Caribbean,4.570868,-74.297333,AE,United Arab Emirates,country,Middle East and North Africa,23.424076,53.847818,13606.2138789283,2007,3520,0,0,2787,0,0,0,13,196,0,119,0,307,98,0,0,0,0,0,0,0,0,0,0
KM,Comoros,country,Sub-Saharan Africa,-11.875001,43.872219,AE,United Arab Emirates,country,Middle East and North Africa,23.424076,53.847818,4076.92564076272,2007,184,0,0,0,0,0,0,1,0,0,179,0,0,4,0,0,0,0,0,0,0,0,0,0
CR,Costa Rica,country,Latin America and the Caribbean,9.748917,-83.753428,AE,United Arab Emirates,country,Middle East and North Africa,23.424076,53.847818,14127.1679300823,2007,186,0,0,0,0,0,0,1,76,0,42,0,0,67,0,0,0,0,0,0,0,0,0,0
CI,Ivory Coast,country,Sub-Saharan Africa,7.539989,-5.54708,AE,United Arab Emirates,country,Middle East and North Africa,23.424076,53.847818,6566.01423607969,2007,193,0,0,0,0,0,0,0,4,0,0,0,0,189,0,0,0,0,0,0,0,0,0,0
HR,Croatia,country,Europe and Central Asia,45.1,15.2,AE,United Arab Emirates,country,Middle East and North Africa,23.424076,53.847818,4236.03495063709,2007,30,17,0,0,0,0,0,0,0,0,0,6,0,7,0,0,0,0,0,0,0,0,0,0
CU,Cuba,country,Latin America and the Caribbean,21.521757,-77.781167,AE,United Arab Emirates,country,Middle East and North Africa,23.424076,53.847818,12791.9132716454,2007,47,0,0,0,0,0,0,0,10,0,0,0,0,35,0,2,0,0,0,0,0,0,0,0
CY,Cyprus,country,Europe and Central Asia,35.126413,33.429859,AE,United Arab Emirates,country,Middle East and North Africa,23.424076,53.847818,2364.55389839286,2007,5534,1491,1872,0,0,0,0,21,1471,0,8,0,0,17,1,73,0,0,580,0,0,0,0,0
CZ,Czech Republic,country,Europe and Central Asia,49.817492,15.472962,AE,United Arab Emirates,country,Middle East and North Africa,23.424076,53.847818,4434.73512928286,2007,3237,21,0,27,0,0,0,0,11,1,0,33,46,3,0,34,25,0,3061,0,0,0,0,0
DK,Denmark,country,Europe and Central Asia,56.26392,9.501785,AE,United Arab Emirates,country,Middle East and North Africa,23.424076,53.847818,5117.48118439708,2007,25003,578,81,2625,1456,1,0,54,46,0,0,0,851,1057,0,879,44,2569,14806,0,0,0,0,0
DJ,Djibouti,country,Middle East and North Africa,11.825138,42.590275,AE,United Arab Emirates,country,Middle East and North Africa,23.424076,53.847818,1756.95199071642,2007,736,0,0,0,340,0,0,19,6,0,0,0,334,0,0,0,0,37,0,0,0,0,0,0
DM,Dominica,country,Latin America and the Caribbean,15.414999,-61.370976,AE,United Arab Emirates,country,Middle East and North Africa,23.424076,53.847818,11770.640445766,2007,33,0,0,0,0,32,0,0,0,0,0,0,0,1,0,0,0,0,0,0,0,0,0,0
EC,Ecuador,country,Latin America and the Caribbean,-1.831239,-78.183406,AE,United Arab Emirates,country,Middle East and North Africa,23.424076,53.847818,14339.1240829119,2007,901,0,0,659,0,0,0,0,139,0,0,0,0,103,0,0,0,0,0,0,0,0,0,0
EG,Egypt,country,Middle East and North Africa,26.820553,30.802498,AE,United Arab Emirates,country,Middle East and North Africa,23.424076,53.847818,2349.90672112107,2007,127897,13835,17175,1085,2015,0,1379,27369,44583,97,191,5618,1080,7650,1182,1335,0,344,2849,110,0,0,0,0
GQ,Equatorial Guinea,country,Sub-Saharan Africa,1.650801,10.267895,AE,United Arab Emirates,country,Middle East and North Africa,23.424076,53.847818,5285.08967399437,2007,2,0,0,0,0,0,0,0,0,0,0,0,0,2,0,0,0,0,0,0,0,0,0,0
ER,Eritrea,country,Sub-Saharan Africa,15.179384,39.782334,AE,United Arab Emirates,country,Middle East and North Africa,23.424076,53.847818,1737.73715495645,2007,15,0,0,0,0,0,0,0,0,0,0,0,0,0,0,0,0,0,0,15,0,0,0,0
ET,Ethiopia,country,Sub-Saharan Africa,9.145,40.489673,AE,United Arab Emirates,country,Middle East and North Africa,23.424076,53.847818,2133.07050604738,2007,20942,507,0,0,17873,0,0,623,6,0,232,81,93,311,0,29,0,1187,0,0,0,0,0,0
FJ,Fiji,country,East Asia and Pacific,-16.578193,179.414413,AE,United Arab Emirates,country,Middle East and North Africa,23.424076,53.847818,14324.4568357306,2007,58,0,0,0,0,0,0,0,0,0,0,0,0,0,0,58,0,0,0,0,0,0,0,0
FI,Finland,country,Europe and Central Asia,61.92411,25.748151,AE,United Arab Emirates,country,Middle East and North Africa,23.424076,53.847818,4783.45199636753,2007,844,0,0,193,0,0,0,0,2,0,98,0,19,2,19,61,0,0,450,0,0,0,0,0
FR,France,country,Europe and Central Asia,46.227638,2.213749,AE,United Arab Emirates,country,Middle East and North Africa,23.424076,53.847818,5240.2431858622,2007,77830,10274,510,5094,58,6,64,1778,12124,4,146,1079,1328,4541,1015,19446,0,14608,5755,0,0,0,0,0
GE,Georgia,country,Europe and Central Asia,42.315407,43.356892,AE,United Arab Emirates,country,Middle East and North Africa,23.424076,53.847818,2316.04635453517,2007,141,0,0,0,0,20,0,0,0,0,0,0,0,0,0,110,0,11,0,0,0,0,0,0
DE,Germany,country,Europe and Central Asia,51.165691,10.451526,AE,United Arab Emirates,country,Middle East and North Africa,23.424076,53.847818,4820.30284415488,2007,34682,4955,1997,4908,67,125,1,207,561,12,72,218,2297,4306,603,3595,307,3102,7656,0,0,0,0,0
GH,Ghana,country,Sub-Saharan Africa,7.946527,-1.023194,AE,United Arab Emirates,country,Middle East and North Africa,23.424076,53.847818,6088.9548631176,2007,881,0,0,0,0,0,0,0,863,0,0,0,18,0,0,0,0,0,0,0,0,0,0,0
GR,Greece,country,Europe and Central Asia,39.074208,21.824312,AE,United Arab Emirates,country,Middle East and North Africa,23.424076,53.847818,3483.43988043614,2007,7517,285,0,76,0,0,218,112,6354,0,0,0,193,58,55,5,0,0,161,0,0,0,0,0
GT,Guatemala,country,Latin America and the Caribbean,15.783471,-90.230759,AE,United Arab Emirates,country,Middle East and North Africa,23.424076,53.847818,14178.5724554781,2007,4506,0,0,0,0,0,36,0,30,0,4431,0,9,0,0,0,0,0,0,0,0,0,0,0
GY,Guyana,country,Latin America and the Caribbean,4.860416,-58.93018,AE,United Arab Emirates,country,Middle East and North Africa,23.424076,53.847818,12098.2859045753,2007,1,0,0,0,0,0,0,0,0,0,0,0,0,0,0,1,0,0,0,0,0,0,0,0
HN,Honduras,country,Latin America and the Caribbean,15.199999,-86.241905,AE,United Arab Emirates,country,Middle East and North Africa,23.424076,53.847818,13925.9032512167,2007,38,0,0,0,0,0,0,2,0,0,0,0,36,0,0,0,0,0,0,0,0,0,0,0
HU,Hungary,country,Europe and Central Asia,47.162494,19.503304,AE,United Arab Emirates,country,Middle East and North Africa,23.424076,53.847818,4033.39108502351,2007,521,3,0,27,3,0,0,0,0,0,0,0,0,2,0,0,0,70,416,0,0,0,0,0
IN,India,country,South Asia,20.593684,78.96288,AE,United Arab Emirates,country,Middle East and North Africa,23.424076,53.847818,2607.80139174908,2007,1267597,579738,15546,161336,21801,13739,13551,222604,85529,696,30282,15935,14211,14584,7273,3315,1,52938,14518,1,0,0,0,0
ID,Indonesia,country,East Asia and Pacific,-0.789275,113.921327,AE,United Arab Emirates,country,Middle East and North Africa,23.424076,53.847818,7025.54887369428,2007,60577,1421,21,1848,0,13,2553,381,1545,0,3361,0,4514,5760,38176,967,0,17,0,0,0,0,0,0
IR,Iran,country,Middle East and North Africa,32.427908,53.688046,AE,United Arab Emirates,country,Middle East and North Africa,23.424076,53.847818,1002.42470962484,2007,390199,9007,4033,903,921,19055,29,205918,107495,0,8486,22119,5096,4625,337,1243,0,99,155,115,563,0,0,0
IQ,Iraq,country,Middle East and North Africa,33.223191,43.679291,AE,United Arab Emirates,country,Middle East and North Africa,23.424076,53.847818,1475.69679220153,2007,180363,180,0,23,0,15,0,0,179641,129,16,60,0,205,0,0,0,0,1,93,0,0,0,0
IE,Ireland,country,Europe and Central Asia,53.41291,-8.24389,AE,United Arab Emirates,country,Middle East and North Africa,23.424076,53.847818,6109.98739569226,2007,4613,1826,0,19,3,0,0,3,0,0,0,173,241,660,0,511,0,0,1177,0,0,0,0,0
IT,Italy,country,Europe and Central Asia,41.87194,12.56738,AE,United Arab Emirates,country,Middle East and North Africa,23.424076,53.847818,4324.5482529839,2007,92430,6345,2,460,834,140,23,16325,6946,10,0,47845,4204,2718,432,5436,0,56,635,7,12,0,0,0
JM,Jamaica,country,Latin America and the Caribbean,18.109581,-77.297508,AE,United Arab Emirates,country,Middle East and North Africa,23.424076,53.847818,12997.7862930929,2007,13,0,0,0,0,0,0,0,0,0,0,0,0,5,0,8,0,0,0,0,0,0,0,0
JP,Japan,country,East Asia and Pacific,36.204824,138.252924,AE,United Arab Emirates,country,Middle East and North Africa,23.424076,53.847818,8028.53645683057,2007,18880,587,1,742,1,0,230,182,60,75,4,0,9,699,83,16201,0,5,1,0,0,0,0,0
JO,Jordan,country,Middle East and North Africa,30.585164,36.238414,AE,United Arab Emirates,country,Middle East and North Africa,23.424076,53.847818,1916.72055438608,2007,128511,189,1430,192,42,3,209,115932,4422,1,346,1,15,2573,233,2198,39,471,254,0,0,0,0,0
KZ,Kazakhstan,country,Europe and Central Asia,48.019573,66.923684,AE,United Arab Emirates,country,Middle East and North Africa,23.424076,53.847818,2972.46251845964,2007,70584,70584,0,0,0,0,0,0,0,0,0,0,0,0,0,0,0,0,0,0,0,0,0,0
KE,Kenya,country,Sub-Saharan Africa,-0.023559,37.906193,AE,United Arab Emirates,country,Middle East and North Africa,23.424076,53.847818,3127.95988647763,2007,28425,294,1,382,474,2,8,1416,5027,0,41,15623,3119,1347,0,0,0,691,0,0,0,0,0,0
KW,Kuwait,country,Middle East and North Africa,29.31166,47.481766,AE,United Arab Emirates,country,Middle East and North Africa,23.424076,53.847818,912.139818623064,2007,10338,939,411,518,52,0,11,175,342,0,0,50,20,539,241,5536,0,100,1349,55,0,0,0,0
KG,Kyrgyz Rep.,country,Europe and Central Asia,41.20438,74.766098,AE,United Arab Emirates,country,Middle East and North Africa,23.424076,53.847818,2776.56018974439,2007,54,0,0,0,0,54,0,0,0,0,0,0,0,0,0,0,0,0,0,0,0,0,0,0
LV,Latvia,country,Europe and Central Asia,56.879635,24.603189,AE,United Arab Emirates,country,Middle East and North Africa,23.424076,53.847818,4409.28466603462,2007,1019,0,0,0,0,0,0,0,0,0,0,0,0,0,1000,19,0,0,0,0,0,0,0,0
LB,Lebanon,country,Middle East and North Africa,33.854721,35.862285,AE,United Arab Emirates,country,Middle East and North Africa,23.424076,53.847818,2100.91829152951,2007,61348,209,23287,535,117,37,93,6377,23763,1,82,36,364,2863,329,3117,0,76,47,15,0,0,0,0
LY,Libya,country,Middle East and North Africa,26.3351,17.228331,AE,United Arab Emirates,country,Middle East and North Africa,23.424076,53.847818,3700.18074789097,2007,38,0,0,0,0,22,0,2,0,0,0,0,0,0,14,0,0,0,0,0,0,0,0,0
LT,Lithuania,country,Europe and Central Asia,55.169438,23.881275,AE,United Arab Emirates,country,Middle East and North Africa,23.424076,53.847818,4309.04622899548,2007,941,0,0,0,0,0,0,0,0,0,0,303,0,8,0,0,0,0,630,0,0,0,0,0
LU,Luxembourg,country,Europe and Central Asia,49.815273,6.129583,AE,United Arab Emirates,country,Middle East and North Africa,23.424076,53.847818,5054.92783035055,2007,2,0,0,0,0,0,0,0,0,0,0,1,0,1,0,0,0,0,0,0,0,0,0,0
MG,Madagascar,country,Sub-Saharan Africa,-18.766947,46.869107,AE,United Arab Emirates,country,Middle East and North Africa,23.424076,53.847818,4757.49234451487,2007,2578,0,0,0,574,0,0,0,422,0,1542,0,17,23,0,0,0,0,0,0,0,0,0,0
MW,Malawi,country,Sub-Saharan Africa,-13.254308,34.301525,AE,United Arab Emirates,country,Middle East and North Africa,23.424076,53.847818,4604.58087677201,2007,126,0,0,0,69,0,0,0,0,0,0,0,57,0,0,0,0,0,0,0,0,0,0,0
MY,Malaysia,country,East Asia and Pacific,4.210484,101.975766,AE,United Arab Emirates,country,Middle East and North Africa,23.424076,53.847818,5589.18327849531,2007,278705,6616,15,1990,373,204,152,1480,8491,0,35,397,3184,8411,240027,1058,0,1290,4982,0,0,0,0,0
MV,Maldives,country,South Asia,3.202778,73.22068,AE,United Arab Emirates,country,Middle East and North Africa,23.424076,53.847818,3068.44728830994,2007,15,0,0,15,0,0,0,0,0,0,0,0,0,0,0,0,0,0,0,0,0,0,0,0
MT,Malta,country,Middle East and North Africa,35.937496,14.375416,AE,United Arab Emirates,country,Middle East and North Africa,23.424076,53.847818,4031.43768014056,2007,3961,720,0,124,0,0,0,16,24,0,184,0,0,2763,0,2,0,104,24,0,0,0,0,0
MU,Mauritius,country,Sub-Saharan Africa,-20.348404,57.552152,AE,United Arab Emirates,country,Middle East and North Africa,23.424076,53.847818,4889.27969350854,2007,127,0,0,105,0,0,0,0,0,0,0,0,0,22,0,0,0,0,0,0,0,0,0,0
MX,Mexico,country,Latin America and the Caribbean,23.634501,-102.552784,AE,United Arab Emirates,country,Middle East and North Africa,23.424076,53.847818,14210.8206734961,2007,3204,0,0,137,898,0,58,0,1,0,323,0,39,74,0,1674,0,0,0,0,0,0,0,0
MA,Morocco,country,Middle East and North Africa,31.791702,-7.09262,AE,United Arab Emirates,country,Middle East and North Africa,23.424076,53.847818,6007.54204217974,2007,2935,53,2,0,0,0,35,357,209,0,1,1,412,179,1,21,0,13,1651,0,0,0,0,0
MZ,Mozambique,country,Sub-Saharan Africa,-18.665695,35.529562,AE,United Arab Emirates,country,Middle East and North Africa,23.424076,53.847818,5090.61909034474,2007,361,0,0,0,241,102,0,0,0,0,0,0,0,18,0,0,0,0,0,0,0,0,0,0
MM,Myanmar,country,East Asia and Pacific,21.913965,95.956223,AE,United Arab Emirates,country,Middle East and North Africa,23.424076,53.847818,4313.30727365053,2007,17949,0,0,0,13662,0,48,168,1948,0,1964,0,0,81,0,0,0,78,0,0,0,0,0,0
NA,Namibia,country,Sub-Saharan Africa,-22.95764,18.49041,AE,United Arab Emirates,country,Middle East and North Africa,23.424076,53.847818,6425.68658001378,2007,0,0,0,0,0,0,0,0,0,0,0,0,0,0,0,0,0,0,0,0,0,0,0,0
NP,Nepal,country,South Asia,28.394857,84.124008,AE,United Arab Emirates,country,Middle East and North Africa,23.424076,53.847818,3073.26665819842,2007,103,47,0,0,0,0,0,0,0,0,41,0,0,14,0,1,0,0,0,0,0,0,0,0
NL,Netherlands,country,Europe and Central Asia,52.132633,5.291266,AE,United Arab Emirates,country,Middle East and North Africa,23.424076,53.847818,5191.50956132163,2007,132322,3520,11399,5045,9,13,131,8057,3638,0,21,2806,21176,7001,379,6652,919,3923,58552,0,0,0,0,0
NZ,New Zealand,country,East Asia and Pacific,-40.900557,174.885971,AE,United Arab Emirates,country,Middle East and North Africa,23.424076,53.847818,14266.9350349334,2007,41761,40,225,19,0,0,0,1204,6963,0,0,41,246,97,2,465,0,4851,27608,0,0,0,0,0
NI,Nicaragua,country,Latin America and the Caribbean,12.865416,-85.207229,AE,United Arab Emirates,country,Middle East and North Africa,23.424076,53.847818,14021.448092355,2007,362,0,0,0,0,0,0,0,0,0,0,0,362,0,0,0,0,0,0,0,0,0,0,0
NG,Nigeria,country,Sub-Saharan Africa,9.081999,8.675277,AE,United Arab Emirates,country,Middle East and North Africa,23.424076,53.847818,5059.61042030537,2007,1,0,0,0,0,0,0,0,0,0,0,0,0,1,0,0,0,0,0,0,0,0,0,0
NO,Norway,country,Europe and Central Asia,60.472024,8.468946,AE,United Arab Emirates,country,Middle East and North Africa,23.424076,53.847818,5391.03312651559,2007,393,32,0,0,0,0,0,1,0,0,0,0,0,4,6,350,0,0,0,0,0,0,0,0
PS,Palestine,country,Middle East and North Africa,31.952162,35.233154,AE,United Arab Emirates,country,Middle East and North Africa,23.424076,53.847818,2061.61234105192,2007,2491,6,174,1,0,0,62,342,1258,0,13,0,0,18,609,0,0,6,2,0,0,0,0,0
OM,Oman,country,Middle East and North Africa,21.512583,55.923255,AE,United Arab Emirates,country,Middle East and North Africa,23.424076,53.847818,301.417786949232,2007,31891,359,83,1,2,0,6,691,282,1,0,27061,22,72,69,2590,42,461,191,0,0,0,0,0
PK,Pakistan,country,South Asia,30.375321,69.345116,AE,United Arab Emirates,country,Middle East and North Africa,23.424076,53.847818,1719.7691838554,2007,676002,522478,19502,1336,5436,1270,334,24113,59055,2112,3695,26402,69,3178,528,37,0,6450,3,4,0,0,0,0
PA,Panama,country,Latin America and the Caribbean,8.537981,-80.782127,AE,United Arab Emirates,country,Middle East and North Africa,23.424076,53.847818,13953.0766501777,2007,0,0,0,0,0,0,0,0,0,0,0,0,0,0,0,0,0,0,0,0,0,0,0,0
