sourceCode,sourceName,sourceGrouping,sourceRegion,sourceLat,sourceLong,destCode,destName,destGrouping,destRegion,destLat,destLong,year,totalTons,cereals,roots,sugarCrops,pulses,nuts,oilCrops,vegetables,fruits,fibers,spices,fodderCrops,coffeeTea,tobaccoRubber,oilsFats,beverages,livestock,animalMeats,animalProducts,animalHides,nimalOther,pesticides,fertilizers,machinery
AR,Argentina,country,Latin America and the Caribbean,-38.416097,-63.616672,JP,Japan,country,East Asia and Pacific,36.204824,138.252924,1986,1516991,1506288,0,4186,1260,0,1807,1,547,1131,0,1490,20,257,0,0,0,4,0,0,0,0,0,0
AU,Australia,country,East Asia and Pacific,-25.274398,133.775136,JP,Japan,country,East Asia and Pacific,36.204824,138.252924,1986,7254501,2931005,0,98776,1497,235,100007,2778,78345,240871,126,59359,6220,3425545,14407,1733,0,176374,32293,84930,0,0,0,0
AT,Austria,country,Europe and Central Asia,47.516231,14.550072,JP,Japan,country,East Asia and Pacific,36.204824,138.252924,1986,22449,279,0,96,0,0,0,0,149,0,2,0,1820,0,0,38,0,0,20065,0,0,0,0,0
BD,Bangladesh,country,South Asia,23.684994,90.356331,JP,Japan,country,East Asia and Pacific,36.204824,138.252924,1986,193,0,0,0,0,0,0,1,0,154,0,0,38,0,0,0,0,0,0,0,0,0,0,0
BB,Barbados,country,Latin America and the Caribbean,13.193887,-59.543198,JP,Japan,country,East Asia and Pacific,36.204824,138.252924,1986,2,0,0,0,0,0,0,0,2,0,0,0,0,0,0,0,0,0,0,0,0,0,0,0
BE,Belgium,country,Europe and Central Asia,50.503887,4.469936,JP,Japan,country,East Asia and Pacific,36.204824,138.252924,1986,249850,49329,198,5246,1995,0,2596,38708,35637,15355,0,101,2004,4440,11515,193,0,43679,34069,4785,0,0,0,0
BR,Brazil,country,Latin America and the Caribbean,-14.235004,-51.92528,JP,Japan,country,East Asia and Pacific,36.204824,138.252924,1986,266905,8,0,20145,0,71,113850,65,18253,1597,32,783,81593,2423,1304,3839,0,21059,1883,0,0,0,0,0
BN,Brunei Darussalam,country,,4.535277,114.727669,JP,Japan,country,East Asia and Pacific,36.204824,138.252924,1986,194,122,47,0,0,0,0,0,0,0,0,0,0,25,0,0,0,0,0,0,0,0,0,0
BG,Bulgaria,country,Europe and Central Asia,42.733883,25.48583,JP,Japan,country,East Asia and Pacific,36.204824,138.252924,1986,731,0,0,0,0,0,0,327,0,0,0,0,0,404,0,0,0,0,0,0,0,0,0,0
CM,Cameroon,country,Sub-Saharan Africa,7.369722,12.354722,JP,Japan,country,East Asia and Pacific,36.204824,138.252924,1986,5054,0,0,0,0,0,0,0,0,2001,0,0,3053,0,0,0,0,0,0,0,0,0,0,0
CA,Canada,country,North America,56.130366,-106.346771,JP,Japan,country,East Asia and Pacific,36.204824,138.252924,1986,4582004,2402500,7618,2564,8661,40,1524178,1446,1979,0,46,517963,49,11652,43637,3724,26,30779,17325,7843,0,0,0,0
CL,Chile,country,Latin America and the Caribbean,-35.675147,-71.542969,JP,Japan,country,East Asia and Pacific,36.204824,138.252924,1986,119560,0,0,7,11,3,0,3245,1342,84,18,103599,0,8944,0,1573,0,674,60,0,0,0,0,0
HK,Hong Kong,country,East Asia and Pacific,22.396428,114.109497,JP,Japan,country,East Asia and Pacific,36.204824,138.252924,1986,85484,775,108,286,13267,3421,27385,7586,592,4415,645,6936,3620,10132,57,5647,0,366,15,231,0,0,0,0
MO,"Macao SAR, China",country,East Asia and Pacific,22.198745,113.543873,JP,Japan,country,East Asia and Pacific,36.204824,138.252924,1986,14,0,0,0,0,0,0,0,0,0,0,0,4,10,0,0,0,0,0,0,0,0,0,0
TW,Taiwan,country,East Asia and Pacific,23.69781,120.960515,JP,Japan,country,East Asia and Pacific,36.204824,138.252924,1986,669081,2964,257,48538,1178,0,0,185276,156775,8737,1142,105143,12467,53225,451,2002,1,90762,105,7,52,0,0,0
CO,Colombia,country,Latin America and the Caribbean,4.570868,-74.297333,JP,Japan,country,East Asia and Pacific,36.204824,138.252924,1986,49875,0,0,50,0,0,19,143,4702,3000,0,0,41675,286,0,0,0,0,0,0,0,0,0,0
CR,Costa Rica,country,Latin America and the Caribbean,9.748917,-83.753428,JP,Japan,country,East Asia and Pacific,36.204824,138.252924,1986,6117,0,18,0,0,0,0,0,0,0,0,0,2291,3471,0,4,0,333,0,0,0,0,0,0
CU,Cuba,country,Latin America and the Caribbean,21.521757,-77.781167,JP,Japan,country,East Asia and Pacific,36.204824,138.252924,1986,513341,0,0,513341,0,0,0,0,0,0,0,0,0,0,0,0,0,0,0,0,0,0,0,0
CY,Cyprus,country,Europe and Central Asia,35.126413,33.429859,JP,Japan,country,East Asia and Pacific,36.204824,138.252924,1986,645,0,0,0,0,0,0,0,538,0,0,0,0,5,0,102,0,0,0,0,0,0,0,0
DK,Denmark,country,Europe and Central Asia,56.26392,9.501785,JP,Japan,country,East Asia and Pacific,36.204824,138.252924,1986,116766,14159,0,1217,0,0,0,3,49,0,0,4,218,1992,185,700,0,87554,10685,0,0,0,0,0
EG,Egypt,country,Middle East and North Africa,26.820553,30.802498,JP,Japan,country,East Asia and Pacific,36.204824,138.252924,1986,26767,0,0,0,0,0,20,104,0,26011,500,0,0,132,0,0,0,0,0,0,0,0,0,0
FJ,Fiji,country,East Asia and Pacific,-16.578193,179.414413,JP,Japan,country,East Asia and Pacific,36.204824,138.252924,1986,27177,0,0,25900,0,0,0,0,110,0,0,1164,0,0,0,3,0,0,0,0,0,0,0,0
FI,Finland,country,Europe and Central Asia,61.92411,25.748151,JP,Japan,country,East Asia and Pacific,36.204824,138.252924,1986,7209,590,0,3619,0,0,0,0,2,0,0,4,517,289,14,46,0,616,1512,0,0,0,0,0
FR,France,country,Europe and Central Asia,46.227638,2.213749,JP,Japan,country,East Asia and Pacific,36.204824,138.252924,1986,97557,41115,64,4122,2,8,327,303,56,6892,84,1499,1934,19,219,34852,72,2865,3121,75,0,0,0,0
GR,Greece,country,Europe and Central Asia,39.074208,21.824312,JP,Japan,country,East Asia and Pacific,36.204824,138.252924,1986,18297,37,0,3,0,0,5,2322,10151,739,6,0,3,4786,2,40,0,0,0,203,0,0,0,0
GT,Guatemala,country,Latin America and the Caribbean,15.783471,-90.230759,JP,Japan,country,East Asia and Pacific,36.204824,138.252924,1986,52141,0,0,28903,0,0,2309,0,45,9944,28,0,10317,584,0,0,0,11,0,0,0,0,0,0
HN,Honduras,country,Latin America and the Caribbean,15.199999,-86.241905,JP,Japan,country,East Asia and Pacific,36.204824,138.252924,1986,20850,0,0,0,0,0,356,0,991,165,0,0,19098,240,0,0,0,0,0,0,0,0,0,0
HU,Hungary,country,Europe and Central Asia,47.162494,19.503304,JP,Japan,country,East Asia and Pacific,36.204824,138.252924,1986,4014,0,0,904,560,0,0,220,440,0,825,0,0,0,0,222,45,843,0,0,0,0,0,0
IS,Iceland,country,Europe and Central Asia,64.963051,-19.020835,JP,Japan,country,East Asia and Pacific,36.204824,138.252924,1986,2166,0,0,0,0,0,0,0,0,0,0,217,0,0,0,0,0,1949,0,0,0,0,0,0
IN,India,country,South Asia,20.593684,78.96288,JP,Japan,country,East Asia and Pacific,36.204824,138.252924,1986,91312,6,0,0,0,3034,281,1769,81,36788,4013,6560,3392,29399,5931,56,0,2,0,0,0,0,0,0
ID,Indonesia,country,East Asia and Pacific,-0.789275,113.921327,JP,Japan,country,East Asia and Pacific,36.204824,138.252924,1986,376145,4747,0,147992,0,300,9902,0,160,0,2225,116749,46187,39545,8209,32,0,0,4,93,0,0,0,0
IE,Ireland,country,Europe and Central Asia,53.41291,-8.24389,JP,Japan,country,East Asia and Pacific,36.204824,138.252924,1986,9507,1930,0,10,0,0,0,0,0,0,0,16,135,138,0,967,0,5721,590,0,0,0,0,0
IL,Israel,country,Middle East and North Africa,31.046051,34.851612,JP,Japan,country,East Asia and Pacific,36.204824,138.252924,1986,17885,0,0,11,0,0,0,89,15902,381,0,79,2,0,0,0,0,41,1380,0,0,0,0,0
IT,Italy,country,Europe and Central Asia,41.87194,12.56738,JP,Japan,country,East Asia and Pacific,36.204824,138.252924,1986,53009,35399,0,41,0,181,28,9034,2429,34,3,0,86,2081,1130,2246,0,5,308,4,0,0,0,0
JM,Jamaica,country,Latin America and the Caribbean,18.109581,-77.297508,JP,Japan,country,East Asia and Pacific,36.204824,138.252924,1986,949,0,0,0,0,0,0,0,0,0,76,0,667,0,0,206,0,0,0,0,0,0,0,0
JO,Jordan,country,Middle East and North Africa,30.585164,36.238414,JP,Japan,country,East Asia and Pacific,36.204824,138.252924,1986,15,0,0,0,0,0,0,15,0,0,0,0,0,0,0,0,0,0,0,0,0,0,0,0
KE,Kenya,country,Sub-Saharan Africa,-0.023559,37.906193,JP,Japan,country,East Asia and Pacific,36.204824,138.252924,1986,33097,29400,0,0,0,266,0,0,0,0,0,0,684,2130,600,0,0,0,17,0,0,0,0,0
MW,Malawi,country,Sub-Saharan Africa,-13.254308,34.301525,JP,Japan,country,East Asia and Pacific,36.204824,138.252924,1986,3852,0,0,0,0,0,0,0,0,0,7,0,0,3845,0,0,0,0,0,0,0,0,0,0
MY,Malaysia,country,East Asia and Pacific,4.210484,101.975766,JP,Japan,country,East Asia and Pacific,36.204824,138.252924,1986,361169,8,11861,25,0,0,8637,0,3459,410,3065,50,4857,83935,244844,1,0,0,0,0,17,0,0,0
MX,Mexico,country,Latin America and the Caribbean,23.634501,-102.552784,JP,Japan,country,East Asia and Pacific,36.204824,138.252924,1986,19477,0,0,72,308,2,1701,170,1615,1468,10,0,7144,2320,0,316,0,4351,0,0,0,0,0,0
MA,Morocco,country,Middle East and North Africa,31.791702,-7.09262,JP,Japan,country,East Asia and Pacific,36.204824,138.252924,1986,3738,0,0,0,0,0,0,665,0,0,2801,0,0,272,0,0,0,0,0,0,0,0,0,0
NL,Netherlands,country,Europe and Central Asia,52.132633,5.291266,JP,Japan,country,East Asia and Pacific,36.204824,138.252924,1986,84774,9452,2161,31292,300,0,111,409,319,4,28,196,12051,4670,3683,994,76,159,17466,1464,15,0,0,0
NZ,New Zealand,country,East Asia and Pacific,-40.900557,174.885971,JP,Japan,country,East Asia and Pacific,36.204824,138.252924,1986,323159,47610,34,5153,1995,0,2596,64503,36147,29846,0,25881,6031,0,11515,341,0,43463,43259,4785,0,0,0,0
NG,Nigeria,country,Sub-Saharan Africa,9.081999,8.675277,JP,Japan,country,East Asia and Pacific,36.204824,138.252924,1986,10003,9800,0,0,0,3,0,0,0,0,0,0,200,0,0,0,0,0,0,0,0,0,0,0
NO,Norway,country,Europe and Central Asia,60.472024,8.468946,JP,Japan,country,East Asia and Pacific,36.204824,138.252924,1986,4831,24,0,0,0,0,0,0,0,0,0,241,1,1860,0,73,0,726,1903,3,0,0,0,0
PA,Panama,country,Latin America and the Caribbean,8.537981,-80.782127,JP,Japan,country,East Asia and Pacific,36.204824,138.252924,1986,71,0,0,0,0,0,0,0,0,0,0,0,68,0,0,3,0,0,0,0,0,0,0,0
PG,Papua New Guinea,country,East Asia and Pacific,-6.314993,143.95555,JP,Japan,country,East Asia and Pacific,36.204824,138.252924,1986,49511,0,0,0,0,0,48591,0,0,0,0,0,477,86,0,0,0,0,0,357,0,0,0,0
PY,Paraguay,country,Latin America and the Caribbean,-23.442503,-58.443832,JP,Japan,country,East Asia and Pacific,36.204824,138.252924,1986,1271,0,0,0,0,0,1209,0,0,0,0,0,1,21,0,0,0,40,0,0,0,0,0,0
PE,Peru,country,Latin America and the Caribbean,-9.189967,-75.015152,JP,Japan,country,East Asia and Pacific,36.204824,138.252924,1986,19542,765,0,0,0,0,0,18,20,2159,0,0,15060,1518,0,2,0,0,0,0,0,0,0,0
PH,Philippines,country,East Asia and Pacific,12.879721,121.774017,JP,Japan,country,East Asia and Pacific,36.204824,138.252924,1986,1070790,18,0,196239,142,0,20832,2903,813088,4911,0,4207,1445,4051,22556,398,0,0,0,0,0,0,0,0
PL,Poland,country,Europe and Central Asia,51.919438,19.145136,JP,Japan,country,East Asia and Pacific,36.204824,138.252924,1986,9679,2563,0,0,0,0,0,62,39,0,0,0,0,0,0,158,0,0,6203,654,0,0,0,0
PT,Portugal,country,Europe and Central Asia,39.399872,-8.224454,JP,Japan,country,East Asia and Pacific,36.204824,138.252924,1986,9778,0,0,0,948,2,1,6826,0,24,0,0,1,155,4,1817,0,0,0,0,0,0,0,0
KR,"Korea, Rep.",country,East Asia and Pacific,35.907757,127.766922,JP,Japan,country,East Asia and Pacific,36.204824,138.252924,1986,106413,1790,0,1751,4,13809,33,5753,13429,1562,681,991,1955,45264,4911,3706,0,10483,2,0,289,0,0,0
RE,Reunion,country,Sub-Saharan Africa,-21.115141,55.536384,JP,Japan,country,East Asia and Pacific,36.204824,138.252924,1986,0,0,0,0,0,0,0,0,0,0,0,0,0,0,0,0,0,0,0,0,0,0,0,0
SG,Singapore,country,East Asia and Pacific,1.352083,103.819836,JP,Japan,country,East Asia and Pacific,36.204824,138.252924,1986,79508,542,0,373,42,29,2708,546,3193,53,2137,23,11942,1823,45810,10054,0,0,233,0,0,0,0,0
SB,Solomon Islands,country,East Asia and Pacific,-9.64571,160.156194,JP,Japan,country,East Asia and Pacific,36.204824,138.252924,1986,10618,0,0,0,0,0,10618,0,0,0,0,0,0,0,0,0,0,0,0,0,0,0,0,0
ES,Spain,country,Europe and Central Asia,40.463667,-3.74922,JP,Japan,country,East Asia and Pacific,36.204824,138.252924,1986,11599,399,32,595,0,97,196,1067,1277,0,1171,120,29,602,1253,4668,0,9,79,5,0,0,0,0
LK,Sri Lanka,country,South Asia,7.873054,80.771797,JP,Japan,country,East Asia and Pacific,36.204824,138.252924,1986,18161,0,0,0,0,8,48,0,127,0,38,0,4250,13690,0,0,0,0,0,0,0,0,0,0
SE,Sweden,country,Europe and Central Asia,60.128161,18.643501,JP,Japan,country,East Asia and Pacific,36.204824,138.252924,1986,16551,139,0,4386,0,0,5250,830,3,0,0,0,3,210,0,38,0,4135,1482,75,0,0,0,0
CH,Switzerland,country,Europe and Central Asia,46.818188,8.227512,JP,Japan,country,East Asia and Pacific,36.204824,138.252924,1986,7836,370,0,1409,265,0,0,33,375,0,0,28,2402,2009,0,109,0,39,797,0,0,0,0,0
SY,Syrian Arab Rep.,country,Middle East and North Africa,34.802075,38.996815,JP,Japan,country,East Asia and Pacific,36.204824,138.252924,1986,5470,0,0,0,0,0,0,0,0,5470,0,0,0,0,0,0,0,0,0,0,0,0,0,0
TH,Thailand,country,East Asia and Pacific,15.870032,100.992541,JP,Japan,country,East Asia and Pacific,36.204824,138.252924,1986,1461810,115645,101735,592678,54876,4,20698,37334,25459,1296,85,24797,396,414241,4243,2120,0,66078,9,116,0,0,0,0
TT,Trinidad and Tobago,country,Latin America and the Caribbean,10.691803,-61.222503,JP,Japan,country,East Asia and Pacific,36.204824,138.252924,1986,47,0,0,0,0,0,0,0,0,0,0,0,45,0,0,2,0,0,0,0,0,0,0,0
TR,Turkey,country,Europe and Central Asia,38.963745,35.243322,JP,Japan,country,East Asia and Pacific,36.204824,138.252924,1986,56224,32,0,0,60,550,521,10620,414,1125,286,0,0,42582,0,20,0,14,0,0,0,0,0,0
GB,United Kingdom,country,Europe and Central Asia,55.378051,-3.435973,JP,Japan,country,East Asia and Pacific,36.204824,138.252924,1986,119452,68729,2,1103,7538,7,23,41,38,3672,43,186,1595,353,64,32347,139,1381,2186,144,0,0,0,0
US,USA,country,North America,37.09024,-95.712891,JP,Japan,country,East Asia and Pacific,36.204824,138.252924,1986,21381099,14639929,83240,14604,34736,27950,4157068,123397,544461,182860,225,909612,7320,82953,84866,25488,348,257213,21480,183697,0,0,0,0
UY,Uruguay,country,Latin America and the Caribbean,-32.522779,-55.765835,JP,Japan,country,East Asia and Pacific,36.204824,138.252924,1986,22746,0,0,0,0,0,0,0,0,715,0,21972,0,36,0,0,0,23,0,0,0,0,0,0
RU,Russian Federation,country,Europe and Central Asia,61.52401,105.318756,JP,Japan,country,East Asia and Pacific,36.204824,138.252924,1986,53419,0,0,3527,0,0,0,0,0,49126,0,0,0,0,0,405,0,361,0,0,0,0,0,0
VE,Venezuela,country,Latin America and the Caribbean,6.42375,-66.58973,JP,Japan,country,East Asia and Pacific,36.204824,138.252924,1986,1154,0,0,0,0,0,0,0,0,0,0,0,1120,34,0,0,0,0,0,0,0,0,0,0
BA,Bosnia & Herzegovina,country,Europe and Central Asia,43.915886,17.679076,JP,Japan,country,East Asia and Pacific,36.204824,138.252924,1986,3241,0,0,0,0,0,0,0,10,0,0,0,0,663,0,2558,0,10,0,0,0,0,0,0
ZW,Zimbabwe,country,Sub-Saharan Africa,-19.015438,29.154857,JP,Japan,country,East Asia and Pacific,36.204824,138.252924,1986,2108,10,0,0,36,0,53,0,0,1576,0,0,231,202,0,0,0,0,0,0,0,0,0,0
AR,Argentina,country,Latin America and the Caribbean,-38.416097,-63.616672,JP,Japan,country,East Asia and Pacific,36.204824,138.252924,1987,1164257,1061418,0,5595,1548,0,1694,0,2155,1044,0,73673,9,836,0,5363,0,10864,58,0,0,0,0,0
AU,Australia,country,East Asia and Pacific,-25.274398,133.775136,JP,Japan,country,East Asia and Pacific,36.204824,138.252924,1987,3145619,2377389,0,35352,2002,395,66336,2411,15204,224696,140,93136,67769,23,33579,7834,0,183409,33093,2851,0,0,0,0
AT,Austria,country,Europe and Central Asia,47.516231,14.550072,JP,Japan,country,East Asia and Pacific,36.204824,138.252924,1987,12963,338,0,124,0,0,0,0,334,0,3,0,1935,4,0,163,0,0,10062,0,0,0,0,0
BB,Barbados,country,Latin America and the Caribbean,13.193887,-59.543198,JP,Japan,country,East Asia and Pacific,36.204824,138.252924,1987,159,0,0,0,0,0,0,0,0,159,0,0,0,0,0,0,0,0,0,0,0,0,0,0
BE,Belgium,country,Europe and Central Asia,50.503887,4.469936,JP,Japan,country,East Asia and Pacific,36.204824,138.252924,1987,25635,10408,243,93,0,1,1,472,15,7025,0,93,1789,4774,0,136,0,261,306,18,0,0,0,0
BR,Brazil,country,Latin America and the Caribbean,-14.235004,-51.92528,JP,Japan,country,East Asia and Pacific,36.204824,138.252924,1987,527568,10,0,10697,0,39,301244,207,9075,12796,12,61329,95782,7516,1466,3173,0,23217,935,54,16,0,0,0
BG,Bulgaria,country,Europe and Central Asia,42.733883,25.48583,JP,Japan,country,East Asia and Pacific,36.204824,138.252924,1987,4225,0,0,0,0,0,0,238,332,20,0,0,0,444,0,3191,0,0,0,0,0,0,0,0
CM,Cameroon,country,Sub-Saharan Africa,7.369722,12.354722,JP,Japan,country,East Asia and Pacific,36.204824,138.252924,1987,3275,0,0,0,0,0,0,0,0,906,0,0,2369,0,0,0,0,0,0,0,0,0,0,0
CA,Canada,country,North America,56.130366,-106.346771,JP,Japan,country,East Asia and Pacific,36.204824,138.252924,1987,4718211,2376269,12003,3002,9994,0,1675893,1950,1854,0,5,513915,83,10911,58207,10752,16,31356,5963,6054,0,0,0,0
CL,Chile,country,Latin America and the Caribbean,-35.675147,-71.542969,JP,Japan,country,East Asia and Pacific,36.204824,138.252924,1987,113253,6,0,2,48,0,0,7264,1385,49,108,94174,13,6514,0,2565,0,1095,30,0,0,0,0,0
HK,Hong Kong,country,East Asia and Pacific,22.396428,114.109497,JP,Japan,country,East Asia and Pacific,36.204824,138.252924,1987,130783,420,93,410,6542,5195,30747,26708,858,5780,1683,8109,3656,15637,101,23518,0,247,22,1057,0,0,0,0
MO,"Macao SAR, China",country,East Asia and Pacific,22.198745,113.543873,JP,Japan,country,East Asia and Pacific,36.204824,138.252924,1987,11,0,0,0,0,0,0,0,0,5,0,0,1,5,0,0,0,0,0,0,0,0,0,0
CN,China,country,East Asia and Pacific,35.86166,104.195397,JP,Japan,country,East Asia and Pacific,36.204824,138.252924,1987,3515212,1784296,3025,32531,45974,32222,434098,206391,11275,224873,10250,499817,9251,186658,6153,5666,0,22253,450,29,0,0,0,0
TW,Taiwan,country,East Asia and Pacific,23.69781,120.960515,JP,Japan,country,East Asia and Pacific,36.204824,138.252924,1987,670592,3469,352,4495,764,0,2,164658,177362,11120,5602,91291,9763,55123,558,2739,5,143172,76,5,41,0,0,0
CO,Colombia,country,Latin America and the Caribbean,4.570868,-74.297333,JP,Japan,country,East Asia and Pacific,36.204824,138.252924,1987,57187,0,0,71,0,0,0,100,9630,500,0,0,46781,105,0,0,0,0,0,0,0,0,0,0
CR,Costa Rica,country,Latin America and the Caribbean,9.748917,-83.753428,JP,Japan,country,East Asia and Pacific,36.204824,138.252924,1987,8260,0,108,0,0,0,43,0,41,0,0,0,4121,3721,0,3,0,223,0,0,0,0,0,0
CU,Cuba,country,Latin America and the Caribbean,21.521757,-77.781167,JP,Japan,country,East Asia and Pacific,36.204824,138.252924,1987,222931,0,0,222931,0,0,0,0,0,0,0,0,0,0,0,0,0,0,0,0,0,0,0,0
CY,Cyprus,country,Europe and Central Asia,35.126413,33.429859,JP,Japan,country,East Asia and Pacific,36.204824,138.252924,1987,1362,0,0,0,18,0,0,0,696,0,0,0,0,0,0,648,0,0,0,0,0,0,0,0
DK,Denmark,country,Europe and Central Asia,56.26392,9.501785,JP,Japan,country,East Asia and Pacific,36.204824,138.252924,1987,196221,75482,0,202,0,0,0,3,73,1,0,13,780,1686,145,740,0,103703,13376,17,0,0,0,0
EG,Egypt,country,Middle East and North Africa,26.820553,30.802498,JP,Japan,country,East Asia and Pacific,36.204824,138.252924,1987,30719,0,0,3500,0,0,0,55,0,27010,10,0,0,144,0,0,0,0,0,0,0,0,0,0
ET,Ethiopia,country,Sub-Saharan Africa,9.145,40.489673,JP,Japan,country,East Asia and Pacific,36.204824,138.252924,1987,14476,0,0,0,0,0,0,0,0,0,0,4542,8957,0,0,0,0,20,116,841,0,0,0,0
FJ,Fiji,country,East Asia and Pacific,-16.578193,179.414413,JP,Japan,country,East Asia and Pacific,36.204824,138.252924,1987,39989,0,0,38750,0,0,0,0,77,0,0,1162,0,0,0,0,0,0,0,0,0,0,0,0
FI,Finland,country,Europe and Central Asia,61.92411,25.748151,JP,Japan,country,East Asia and Pacific,36.204824,138.252924,1987,7987,579,0,3955,0,0,0,0,4,0,0,2,1017,444,0,137,0,567,1282,0,0,0,0,0
FR,France,country,Europe and Central Asia,46.227638,2.213749,JP,Japan,country,East Asia and Pacific,36.204824,138.252924,1987,150543,70193,41,3720,0,6,334,469,2329,10155,117,1783,1559,3428,124,46965,67,2817,6117,386,0,0,0,0
GR,Greece,country,Europe and Central Asia,39.074208,21.824312,JP,Japan,country,East Asia and Pacific,36.204824,138.252924,1987,19395,145,0,4,0,0,6,1170,12154,2038,22,0,3,3595,2,41,0,0,0,215,0,0,0,0
GT,Guatemala,country,Latin America and the Caribbean,15.783471,-90.230759,JP,Japan,country,East Asia and Pacific,36.204824,138.252924,1987,8595,0,30,0,0,0,2977,0,0,128,30,0,5107,255,0,0,0,62,0,6,0,0,0,0
HN,Honduras,country,Latin America and the Caribbean,15.199999,-86.241905,JP,Japan,country,East Asia and Pacific,36.204824,138.252924,1987,17569,0,0,0,0,0,363,0,1309,0,0,0,15118,741,0,0,0,38,0,0,0,0,0,0
HU,Hungary,country,Europe and Central Asia,47.162494,19.503304,JP,Japan,country,East Asia and Pacific,36.204824,138.252924,1987,4105,0,0,734,737,0,0,281,365,0,1005,0,0,4,0,404,32,574,1,0,0,0,0,0
IS,Iceland,country,Europe and Central Asia,64.963051,-19.020835,JP,Japan,country,East Asia and Pacific,36.204824,138.252924,1987,3987,0,0,0,0,0,0,0,0,0,0,125,0,0,0,0,0,3862,0,0,0,0,0,0
IN,India,country,South Asia,20.593684,78.96288,JP,Japan,country,East Asia and Pacific,36.204824,138.252924,1987,73493,45,0,0,0,3173,321,516,275,20646,4199,15,8328,31831,4109,35,0,0,0,0,0,0,0,0
ID,Indonesia,country,East Asia and Pacific,-0.789275,113.921327,JP,Japan,country,East Asia and Pacific,36.204824,138.252924,1987,478391,5083,0,217463,0,61,10854,93,219,8,4342,123607,64721,41664,9503,754,0,0,6,12,1,0,0,0
IE,Ireland,country,Europe and Central Asia,53.41291,-8.24389,JP,Japan,country,East Asia and Pacific,36.204824,138.252924,1987,15769,4945,0,37,0,0,0,0,0,0,0,31,154,285,0,4119,0,5914,108,176,0,0,0,0
IL,Israel,country,Middle East and North Africa,31.046051,34.851612,JP,Japan,country,East Asia and Pacific,36.204824,138.252924,1987,4837,0,0,35,0,0,0,332,2984,943,0,167,10,61,0,0,0,60,245,0,0,0,0,0
IT,Italy,country,Europe and Central Asia,41.87194,12.56738,JP,Japan,country,East Asia and Pacific,36.204824,138.252924,1987,63046,38807,2,88,5,291,8,12500,2810,137,5,260,119,2516,1021,2993,0,10,294,1180,0,0,0,0
JO,Jordan,country,Middle East and North Africa,30.585164,36.238414,JP,Japan,country,East Asia and Pacific,36.204824,138.252924,1987,19,0,0,0,0,0,0,0,0,0,0,0,0,0,0,19,0,0,0,0,0,0,0,0
KE,Kenya,country,Sub-Saharan Africa,-0.023559,37.906193,JP,Japan,country,East Asia and Pacific,36.204824,138.252924,1987,3802,0,0,0,0,431,50,0,0,0,0,0,667,1357,1210,0,0,0,51,36,0,0,0,0
MW,Malawi,country,Sub-Saharan Africa,-13.254308,34.301525,JP,Japan,country,East Asia and Pacific,36.204824,138.252924,1987,6479,0,0,0,0,0,0,0,0,0,0,0,0,6479,0,0,0,0,0,0,0,0,0,0
MY,Malaysia,country,East Asia and Pacific,4.210484,101.975766,JP,Japan,country,East Asia and Pacific,36.204824,138.252924,1987,368021,33,4042,45,0,0,637,71,4913,624,3062,3,4119,89675,260570,161,0,66,0,0,0,0,0,0
MT,Malta,country,Middle East and North Africa,35.937496,14.375416,JP,Japan,country,East Asia and Pacific,36.204824,138.252924,1987,606,0,0,0,0,0,0,0,474,0,0,0,0,23,0,109,0,0,0,0,0,0,0,0
MX,Mexico,country,Latin America and the Caribbean,23.634501,-102.552784,JP,Japan,country,East Asia and Pacific,36.204824,138.252924,1987,21601,2,0,210,378,0,35,193,1355,1277,24,0,8514,1377,18,807,0,7411,0,0,0,0,0,0
MA,Morocco,country,Middle East and North Africa,31.791702,-7.09262,JP,Japan,country,East Asia and Pacific,36.204824,138.252924,1987,3946,0,0,0,0,0,0,771,0,212,2489,0,0,474,0,0,0,0,0,0,0,0,0,0
NL,Netherlands,country,Europe and Central Asia,52.132633,5.291266,JP,Japan,country,East Asia and Pacific,36.204824,138.252924,1987,92605,7607,1177,34355,100,0,113,280,391,1,24,189,14753,6771,4457,1863,105,230,20294,0,0,0,0,0
NZ,New Zealand,country,East Asia and Pacific,-40.900557,174.885971,JP,Japan,country,East Asia and Pacific,36.204824,138.252924,1987,322155,6096,18,4006,3099,0,10292,64492,55228,25634,0,38005,8224,0,10674,606,0,45742,42354,7685,0,0,0,0
NO,Norway,country,Europe and Central Asia,60.472024,8.468946,JP,Japan,country,East Asia and Pacific,36.204824,138.252924,1987,5646,28,0,0,0,0,0,0,6,0,0,275,5,2342,0,181,0,384,2425,0,0,0,0,0
PA,Panama,country,Latin America and the Caribbean,8.537981,-80.782127,JP,Japan,country,East Asia and Pacific,36.204824,138.252924,1987,7171,0,0,0,0,0,0,0,7171,0,0,0,0,0,0,0,0,0,0,0,0,0,0,0
PG,Papua New Guinea,country,East Asia and Pacific,-6.314993,143.95555,JP,Japan,country,East Asia and Pacific,36.204824,138.252924,1987,44266,0,0,0,0,0,43077,0,0,0,0,0,666,132,0,0,0,0,0,391,0,0,0,0
PY,Paraguay,country,Latin America and the Caribbean,-23.442503,-58.443832,JP,Japan,country,East Asia and Pacific,36.204824,138.252924,1987,1337,0,0,0,0,0,1015,0,0,300,0,0,0,22,0,0,0,0,0,0,0,0,0,0
PE,Peru,country,Latin America and the Caribbean,-9.189967,-75.015152,JP,Japan,country,East Asia and Pacific,36.204824,138.252924,1987,14802,1009,0,0,0,0,0,75,39,1505,0,0,10638,1536,0,0,0,0,0,0,0,0,0,0
PH,Philippines,country,East Asia and Pacific,12.879721,121.774017,JP,Japan,country,East Asia and Pacific,36.204824,138.252924,1987,935154,27,9,83076,18,0,32676,5017,773908,4170,27,5457,2202,5409,22576,581,0,0,0,1,0,0,0,0
PL,Poland,country,Europe and Central Asia,51.919438,19.145136,JP,Japan,country,East Asia and Pacific,36.204824,138.252924,1987,19845,3000,0,27,0,0,246,23,55,0,0,0,0,60,1342,152,0,51,14160,729,0,0,0,0
PT,Portugal,country,Europe and Central Asia,39.399872,-8.224454,JP,Japan,country,East Asia and Pacific,36.204824,138.252924,1987,11245,0,0,0,376,40,0,8607,0,137,0,0,0,230,26,1829,0,0,0,0,0,0,0,0
KR,"Korea, Rep.",country,East Asia and Pacific,35.907757,127.766922,JP,Japan,country,East Asia and Pacific,36.204824,138.252924,1987,160011,10178,116,4186,2,19974,142,8528,14764,2495,713,1681,12435,57976,4125,7765,0,14595,53,0,283,0,0,0
RE,Reunion,country,Sub-Saharan Africa,-21.115141,55.536384,JP,Japan,country,East Asia and Pacific,36.204824,138.252924,1987,8,0,0,0,0,0,0,0,0,0,0,0,0,0,0,8,0,0,0,0,0,0,0,0
SG,Singapore,country,East Asia and Pacific,1.352083,103.819836,JP,Japan,country,East Asia and Pacific,36.204824,138.252924,1987,140813,1854,0,342,0,181,2111,172,4629,79,2134,13,22166,71044,4336,31044,0,26,682,0,0,0,0,0
SB,Solomon Islands,country,East Asia and Pacific,-9.64571,160.156194,JP,Japan,country,East Asia and Pacific,36.204824,138.252924,1987,10940,0,0,0,0,0,10940,0,0,0,0,0,0,0,0,0,0,0,0,0,0,0,0,0
ES,Spain,country,Europe and Central Asia,40.463667,-3.74922,JP,Japan,country,East Asia and Pacific,36.204824,138.252924,1987,16632,56,24,296,0,51,240,1518,4840,472,1203,370,19,1218,1366,4926,0,12,0,18,3,0,0,0
LK,Sri Lanka,country,South Asia,7.873054,80.771797,JP,Japan,country,East Asia and Pacific,36.204824,138.252924,1987,11450,0,0,0,0,0,514,0,122,0,39,0,3816,6959,0,0,0,0,0,0,0,0,0,0
SE,Sweden,country,Europe and Central Asia,60.128161,18.643501,JP,Japan,country,East Asia and Pacific,36.204824,138.252924,1987,10551,113,0,3644,0,0,0,779,4,0,0,0,20,220,13,38,0,2645,2778,297,0,0,0,0
CH,Switzerland,country,Europe and Central Asia,46.818188,8.227512,JP,Japan,country,East Asia and Pacific,36.204824,138.252924,1987,7994,238,0,1030,0,0,0,234,444,0,0,137,2392,644,0,156,0,44,2659,16,0,0,0,0
SY,Syrian Arab Rep.,country,Middle East and North Africa,34.802075,38.996815,JP,Japan,country,East Asia and Pacific,36.204824,138.252924,1987,4048,0,0,0,0,0,0,0,0,4048,0,0,0,0,0,0,0,0,0,0,0,0,0,0
TH,Thailand,country,East Asia and Pacific,15.870032,100.992541,JP,Japan,country,East Asia and Pacific,36.204824,138.252924,1987,1441209,40791,59405,614540,47995,3,22642,62912,27171,458,211,31257,759,438152,2343,5214,0,87266,43,47,0,0,0,0
TO,Tonga,country,East Asia and Pacific,-21.178986,-175.198242,JP,Japan,country,East Asia and Pacific,36.204824,138.252924,1987,157,0,0,0,0,0,0,157,0,0,0,0,0,0,0,0,0,0,0,0,0,0,0,0
TT,Trinidad and Tobago,country,Latin America and the Caribbean,10.691803,-61.222503,JP,Japan,country,East Asia and Pacific,36.204824,138.252924,1987,59,0,0,0,0,0,0,0,0,0,0,0,57,0,0,2,0,0,0,0,0,0,0,0
TN,Tunisia,country,Middle East and North Africa,33.886917,9.537499,JP,Japan,country,East Asia and Pacific,36.204824,138.252924,1987,37,0,0,0,0,0,0,33,0,0,4,0,0,0,0,0,0,0,0,0,0,0,0,0
TR,Turkey,country,Europe and Central Asia,38.963745,35.243322,JP,Japan,country,East Asia and Pacific,36.204824,138.252924,1987,47611,120,0,1,20,634,661,17152,302,3333,140,0,0,25245,0,0,0,3,0,0,0,0,0,0
GB,United Kingdom,country,Europe and Central Asia,55.378051,-3.435973,JP,Japan,country,East Asia and Pacific,36.204824,138.252924,1987,52008,478,3,826,2886,7,43,9,514,5485,59,460,1515,1766,34,28825,192,510,7963,625,0,0,0,0
US,USA,country,North America,37.09024,-95.712891,JP,Japan,country,East Asia and Pacific,36.204824,138.252924,1987,24952881,18270406,101494,14785,29423,20698,3843081,136444,622975,299020,416,878969,10168,121810,70556,66471,1282,284550,16346,165269,0,0,0,0
UY,Uruguay,country,Latin America and the Caribbean,-32.522779,-55.765835,JP,Japan,country,East Asia and Pacific,36.204824,138.252924,1987,17663,0,0,0,0,0,0,0,0,1324,0,16315,0,18,0,0,0,0,0,6,0,0,0,0
RU,Russian Federation,country,Europe and Central Asia,61.52401,105.318756,JP,Japan,country,East Asia and Pacific,36.204824,138.252924,1987,34707,0,0,2379,0,0,0,0,0,31909,0,0,0,0,0,419,0,0,0,0,0,0,0,0
VE,Venezuela,country,Latin America and the Caribbean,6.42375,-66.58973,JP,Japan,country,East Asia and Pacific,36.204824,138.252924,1987,2391,0,0,0,0,0,0,0,1,866,0,0,1512,12,0,0,0,0,0,0,0,0,0,0
BA,Bosnia & Herzegovina,country,Europe and Central Asia,43.915886,17.679076,JP,Japan,country,East Asia and Pacific,36.204824,138.252924,1987,3303,0,0,14,0,0,0,0,6,0,0,0,3,563,0,2717,0,0,0,0,0,0,0,0
ZW,Zimbabwe,country,Sub-Saharan Africa,-19.015438,29.154857,JP,Japan,country,East Asia and Pacific,36.204824,138.252924,1987,5883,5,0,0,0,0,158,0,0,4269,0,0,678,773,0,0,0,0,0,0,0,0,0,0
DZ,Algeria,country,Middle East and North Africa,28.033886,1.659626,JP,Japan,country,East Asia and Pacific,36.204824,138.252924,1988,2,0,0,0,0,0,0,0,0,0,0,0,0,0,0,2,0,0,0,0,0,0,0,0
AR,Argentina,country,Latin America and the Caribbean,-38.416097,-63.616672,JP,Japan,country,East Asia and Pacific,36.204824,138.252924,1988,1323108,1173723,0,4877,1841,0,1777,313,1909,10143,0,108681,56,848,202,6993,0,11653,92,0,0,0,0,0
AU,Australia,country,East Asia and Pacific,-25.274398,133.775136,JP,Japan,country,East Asia and Pacific,36.204824,138.252924,1988,2905653,2121800,216,40828,1592,304,79273,6891,15185,200181,102,148878,1814,729,26178,5034,4,188817,41691,26140,0,0,0,0
AT,Austria,country,Europe and Central Asia,47.516231,14.550072,JP,Japan,country,East Asia and Pacific,36.204824,138.252924,1988,4695,392,0,26,0,0,0,0,743,0,2,0,2824,55,0,117,0,2,534,0,0,0,0,0
BB,Barbados,country,Latin America and the Caribbean,13.193887,-59.543198,JP,Japan,country,East Asia and Pacific,36.204824,138.252924,1988,118,0,0,0,0,0,0,0,0,118,0,0,0,0,0,0,0,0,0,0,0,0,0,0
BE,Belgium,country,Europe and Central Asia,50.503887,4.469936,JP,Japan,country,East Asia and Pacific,36.204824,138.252924,1988,27592,12006,375,297,0,1,0,689,10,2749,0,241,1786,8845,31,186,0,335,41,0,0,0,0,0
BO,Bolivia,country,Latin America and the Caribbean,-16.290154,-63.588653,JP,Japan,country,East Asia and Pacific,36.204824,138.252924,1988,150,0,0,0,0,0,0,0,0,0,0,0,149,0,0,0,0,0,0,1,0,0,0,0
BR,Brazil,country,Latin America and the Caribbean,-14.235004,-51.92528,JP,Japan,country,East Asia and Pacific,36.204824,138.252924,1988,842695,11,0,85011,0,31,521488,1404,10360,2706,71,51430,101321,10777,13215,4768,0,39244,807,36,15,0,0,0
BG,Bulgaria,country,Europe and Central Asia,42.733883,25.48583,JP,Japan,country,East Asia and Pacific,36.204824,138.252924,1988,4939,0,0,0,0,0,0,364,240,5,0,0,0,4,0,4326,0,0,0,0,0,0,0,0
CM,Cameroon,country,Sub-Saharan Africa,7.369722,12.354722,JP,Japan,country,East Asia and Pacific,36.204824,138.252924,1988,5422,0,0,0,0,0,0,0,0,861,0,0,4546,15,0,0,0,0,0,0,0,0,0,0
CA,Canada,country,North America,56.130366,-106.346771,JP,Japan,country,East Asia and Pacific,36.204824,138.252924,1988,4802013,2380921,14777,4625,7908,0,1719277,1811,1854,311,59,549844,203,1086,56308,14011,83,36911,5012,7095,0,0,0,0
CL,Chile,country,Latin America and the Caribbean,-35.675147,-71.542969,JP,Japan,country,East Asia and Pacific,36.204824,138.252924,1988,138757,20,0,19,0,10,0,9665,4141,152,203,109866,14,8075,6,3066,0,3440,80,0,0,0,0,0
HK,Hong Kong,country,East Asia and Pacific,22.396428,114.109497,JP,Japan,country,East Asia and Pacific,36.204824,138.252924,1988,130212,653,446,490,4844,5124,21904,36511,1214,5092,1105,9721,3889,15317,46,22343,0,1165,21,327,0,0,0,0
CN,China,country,East Asia and Pacific,35.86166,104.195397,JP,Japan,country,East Asia and Pacific,36.204824,138.252924,1988,3806367,1783414,16330,26740,64827,32479,423933,255332,12392,176055,10363,770252,8819,179927,5163,6455,0,33504,325,57,0,0,0,0
TW,Taiwan,country,East Asia and Pacific,23.69781,120.960515,JP,Japan,country,East Asia and Pacific,36.204824,138.252924,1988,621244,3503,134,4960,227,0,4,156706,131179,7280,2628,116262,6442,50865,987,5558,9,134315,109,2,83,0,0,0
CO,Colombia,country,Latin America and the Caribbean,4.570868,-74.297333,JP,Japan,country,East Asia and Pacific,36.204824,138.252924,1988,49762,0,0,402,0,0,0,2,4756,81,0,0,44013,498,0,10,0,0,0,0,0,0,0,0
CR,Costa Rica,country,Latin America and the Caribbean,9.748917,-83.753428,JP,Japan,country,East Asia and Pacific,36.204824,138.252924,1988,8307,0,80,0,0,0,6,0,56,0,0,0,2660,5395,0,3,0,107,0,0,0,0,0,0
DK,Denmark,country,Europe and Central Asia,56.26392,9.501785,JP,Japan,country,East Asia and Pacific,36.204824,138.252924,1988,269046,109556,0,132,0,0,0,15,46,0,0,42,1524,4401,271,559,0,136869,15513,118,0,0,0,0
EC,Ecuador,country,Latin America and the Caribbean,-1.831239,-78.183406,JP,Japan,country,East Asia and Pacific,36.204824,138.252924,1988,96068,0,0,0,0,0,0,0,72235,407,6,17134,6216,70,0,0,0,0,0,0,0,0,0,0
EG,Egypt,country,Middle East and North Africa,26.820553,30.802498,JP,Japan,country,East Asia and Pacific,36.204824,138.252924,1988,23487,0,0,0,0,0,0,135,0,23257,0,0,0,95,0,0,0,0,0,0,0,0,0,0
ET,Ethiopia,country,Sub-Saharan Africa,9.145,40.489673,JP,Japan,country,East Asia and Pacific,36.204824,138.252924,1988,14091,0,0,0,50,0,0,0,0,1430,0,0,11463,0,0,0,0,20,282,846,0,0,0,0
FJ,Fiji,country,East Asia and Pacific,-16.578193,179.414413,JP,Japan,country,East Asia and Pacific,36.204824,138.252924,1988,68473,0,0,67500,0,0,0,0,15,0,0,958,0,0,0,0,0,0,0,0,0,0,0,0
FI,Finland,country,Europe and Central Asia,61.92411,25.748151,JP,Japan,country,East Asia and Pacific,36.204824,138.252924,1988,8518,105,0,5049,0,0,0,0,8,0,0,0,1657,926,0,185,0,393,192,3,0,0,0,0
FR,France,country,Europe and Central Asia,46.227638,2.213749,JP,Japan,country,East Asia and Pacific,36.204824,138.252924,1988,149123,49473,210,2545,1,9,447,1337,2191,9427,66,2177,1793,9926,111,63774,102,3338,1932,366,0,0,0,0
GR,Greece,country,Europe and Central Asia,39.074208,21.824312,JP,Japan,country,East Asia and Pacific,36.204824,138.252924,1988,16627,2,1,0,14,0,3,1569,9144,1812,0,0,0,3868,30,46,0,0,0,138,0,0,0,0
GL,Greenland,country,Europe and Central Asia,71.706936,-42.604303,JP,Japan,country,East Asia and Pacific,36.204824,138.252924,1988,0,0,0,0,0,0,0,0,0,0,0,0,0,0,0,0,0,0,0,0,0,0,0,0
GT,Guatemala,country,Latin America and the Caribbean,15.783471,-90.230759,JP,Japan,country,East Asia and Pacific,36.204824,138.252924,1988,23285,0,0,8576,0,0,6486,0,0,1231,82,0,6124,731,0,0,0,55,0,0,0,0,0,0
HN,Honduras,country,Latin America and the Caribbean,15.199999,-86.241905,JP,Japan,country,East Asia and Pacific,36.204824,138.252924,1988,20221,0,0,0,0,0,385,0,5271,0,0,0,13078,1333,0,0,0,154,0,0,0,0,0,0
HU,Hungary,country,Europe and Central Asia,47.162494,19.503304,JP,Japan,country,East Asia and Pacific,36.204824,138.252924,1988,4267,0,0,398,1467,0,0,588,278,0,765,0,0,0,0,457,5,314,0,0,0,0,0,0
IS,Iceland,country,Europe and Central Asia,64.963051,-19.020835,JP,Japan,country,East Asia and Pacific,36.204824,138.252924,1988,388,0,0,0,0,0,0,0,0,0,0,211,0,0,0,0,0,177,0,0,0,0,0,0
IN,India,country,South Asia,20.593684,78.96288,JP,Japan,country,East Asia and Pacific,36.204824,138.252924,1988,66851,32,40,0,0,3673,5366,781,538,7121,4524,5554,3835,31970,3354,52,0,11,0,0,0,0,0,0
ID,Indonesia,country,East Asia and Pacific,-0.789275,113.921327,JP,Japan,country,East Asia and Pacific,36.204824,138.252924,1988,439756,8726,0,157144,0,114,2354,82,401,53,7424,137985,54547,48951,16982,4927,0,4,62,0,0,0,0,0
IE,Ireland,country,Europe and Central Asia,53.41291,-8.24389,JP,Japan,country,East Asia and Pacific,36.204824,138.252924,1988,19110,8625,0,6,0,0,2,0,0,0,0,262,90,416,0,1909,0,7465,67,268,0,0,0,0
IT,Italy,country,Europe and Central Asia,41.87194,12.56738,JP,Japan,country,East Asia and Pacific,36.204824,138.252924,1988,63421,37031,0,61,3,95,46,13190,1923,148,5,183,87,2687,1332,3135,0,13,448,3034,0,0,0,0
JM,Jamaica,country,Latin America and the Caribbean,18.109581,-77.297508,JP,Japan,country,East Asia and Pacific,36.204824,138.252924,1988,1287,0,0,0,0,0,0,0,0,0,127,0,862,0,0,298,0,0,0,0,0,0,0,0
KE,Kenya,country,Sub-Saharan Africa,-0.023559,37.906193,JP,Japan,country,East Asia and Pacific,36.204824,138.252924,1988,30473,26775,0,0,0,388,0,0,0,0,0,0,741,1460,1088,13,0,0,8,0,0,0,0,0
MW,Malawi,country,Sub-Saharan Africa,-13.254308,34.301525,JP,Japan,country,East Asia and Pacific,36.204824,138.252924,1988,8188,0,0,0,0,12,0,0,0,0,7,0,0,8169,0,0,0,0,0,0,0,0,0,0
MY,Malaysia,country,East Asia and Pacific,4.210484,101.975766,JP,Japan,country,East Asia and Pacific,36.204824,138.252924,1988,407691,37,5682,10293,0,0,23,71,5760,561,4004,323,5523,98061,276017,367,0,969,0,0,0,0,0,0
MT,Malta,country,Middle East and North Africa,35.937496,14.375416,JP,Japan,country,East Asia and Pacific,36.204824,138.252924,1988,67,0,0,0,0,0,0,0,47,0,0,0,0,0,0,20,0,0,0,0,0,0,0,0
MX,Mexico,country,Latin America and the Caribbean,23.634501,-102.552784,JP,Japan,country,East Asia and Pacific,36.204824,138.252924,1988,28657,0,19,199,88,0,1058,567,2250,7272,21,0,7834,1838,59,1811,0,5641,0,0,0,0,0,0
MA,Morocco,country,Middle East and North Africa,31.791702,-7.09262,JP,Japan,country,East Asia and Pacific,36.204824,138.252924,1988,5835,0,0,0,0,0,0,735,0,1477,3264,0,0,359,0,0,0,0,0,0,0,0,0,0
NL,Netherlands,country,Europe and Central Asia,52.132633,5.291266,JP,Japan,country,East Asia and Pacific,36.204824,138.252924,1988,117107,12366,2304,24949,86,0,163,419,497,0,16,570,17128,12689,3221,1983,165,154,40560,2,0,0,0,0
NZ,New Zealand,country,East Asia and Pacific,-40.900557,174.885971,JP,Japan,country,East Asia and Pacific,36.204824,138.252924,1988,376427,8704,23,4301,3759,0,7133,98482,55531,20147,0,34674,10825,3364,2947,1141,0,51724,65263,8409,0,0,0,0
NO,Norway,country,Europe and Central Asia,60.472024,8.468946,JP,Japan,country,East Asia and Pacific,36.204824,138.252924,1988,11424,25,0,0,0,0,0,0,0,0,0,402,3,1979,0,588,0,109,8315,3,0,0,0,0
PA,Panama,country,Latin America and the Caribbean,8.537981,-80.782127,JP,Japan,country,East Asia and Pacific,36.204824,138.252924,1988,10,0,0,0,0,0,0,0,0,0,0,0,0,0,0,10,0,0,0,0,0,0,0,0
PG,Papua New Guinea,country,East Asia and Pacific,-6.314993,143.95555,JP,Japan,country,East Asia and Pacific,36.204824,138.252924,1988,37725,0,0,0,0,0,37014,0,0,0,0,0,624,0,0,0,0,0,0,87,0,0,0,0
PE,Peru,country,Latin America and the Caribbean,-9.189967,-75.015152,JP,Japan,country,East Asia and Pacific,36.204824,138.252924,1988,17726,1294,0,0,0,5,0,222,122,5347,0,0,9998,734,0,4,0,0,0,0,0,0,0,0
PH,Philippines,country,East Asia and Pacific,12.879721,121.774017,JP,Japan,country,East Asia and Pacific,36.204824,138.252924,1988,955773,66,0,66419,0,0,35115,1898,807277,4790,2,6837,3597,3714,25559,499,0,0,0,0,0,0,0,0
PT,Portugal,country,Europe and Central Asia,39.399872,-8.224454,JP,Japan,country,East Asia and Pacific,36.204824,138.252924,1988,12158,0,0,0,250,0,0,9934,0,69,0,0,0,299,2,1604,0,0,0,0,0,0,0,0
KR,"Korea, Rep.",country,East Asia and Pacific,35.907757,127.766922,JP,Japan,country,East Asia and Pacific,36.204824,138.252924,1988,283159,42588,304,9803,4,20741,352,14625,20285,1483,631,13987,19659,94208,1409,20757,19,22141,87,0,95,0,0,0
RE,Reunion,country,Sub-Saharan Africa,-21.115141,55.536384,JP,Japan,country,East Asia and Pacific,36.204824,138.252924,1988,17,0,0,0,0,0,0,0,0,0,0,0,0,0,0,17,0,0,0,0,0,0,0,0
SN,Senegal,country,Sub-Saharan Africa,14.497401,-14.452362,JP,Japan,country,East Asia and Pacific,36.204824,138.252924,1988,495,0,0,0,0,0,0,0,0,495,0,0,0,0,0,0,0,0,0,0,0,0,0,0
SG,Singapore,country,East Asia and Pacific,1.352083,103.819836,JP,Japan,country,East Asia and Pacific,36.204824,138.252924,1988,199203,5892,10,1047,199,218,3254,196,4503,76,1859,157,39853,80418,8092,46789,0,113,6527,0,0,0,0,0
ES,Spain,country,Europe and Central Asia,40.463667,-3.74922,JP,Japan,country,East Asia and Pacific,36.204824,138.252924,1988,18753,119,0,392,0,27,240,4747,2644,353,1281,301,124,1480,1403,5498,0,14,1,116,13,0,0,0
LK,Sri Lanka,country,South Asia,7.873054,80.771797,JP,Japan,country,East Asia and Pacific,36.204824,138.252924,1988,11536,0,0,0,0,3,1343,0,172,0,35,0,4751,5224,0,8,0,0,0,0,0,0,0,0
SE,Sweden,country,Europe and Central Asia,60.128161,18.643501,JP,Japan,country,East Asia and Pacific,36.204824,138.252924,1988,8883,175,15,4446,0,0,0,746,6,0,0,45,42,284,0,59,0,1198,1610,257,0,0,0,0
CH,Switzerland,country,Europe and Central Asia,46.818188,8.227512,JP,Japan,country,East Asia and Pacific,36.204824,138.252924,1988,5038,251,0,981,0,0,0,296,373,5,0,13,2102,396,5,242,0,68,290,16,0,0,0,0
SY,Syrian Arab Rep.,country,Middle East and North Africa,34.802075,38.996815,JP,Japan,country,East Asia and Pacific,36.204824,138.252924,1988,1606,0,0,0,0,0,0,0,0,1606,0,0,0,0,0,0,0,0,0,0,0,0,0,0
TH,Thailand,country,East Asia and Pacific,15.870032,100.992541,JP,Japan,country,East Asia and Pacific,36.204824,138.252924,1988,1778546,22900,333512,590408,53264,1,25340,68960,26512,4599,180,79599,975,477146,1507,5114,0,88416,49,64,0,0,0,0
TT,Trinidad and Tobago,country,Latin America and the Caribbean,10.691803,-61.222503,JP,Japan,country,East Asia and Pacific,36.204824,138.252924,1988,216,0,0,0,0,0,0,0,0,0,0,0,212,0,0,4,0,0,0,0,0,0,0,0
TN,Tunisia,country,Middle East and North Africa,33.886917,9.537499,JP,Japan,country,East Asia and Pacific,36.204824,138.252924,1988,10,0,0,0,0,0,0,0,0,0,10,0,0,0,0,0,0,0,0,0,0,0,0,0
TR,Turkey,country,Europe and Central Asia,38.963745,35.243322,JP,Japan,country,East Asia and Pacific,36.204824,138.252924,1988,51665,56,0,0,71,37,520,22174,575,3595,144,0,0,24392,0,101,0,0,0,0,0,0,0,0
GB,United Kingdom,country,Europe and Central Asia,55.378051,-3.435973,JP,Japan,country,East Asia and Pacific,36.204824,138.252924,1988,64618,1407,12,1254,2447,0,42,345,687,4438,13,2745,1573,1865,286,34095,236,574,11925,910,0,0,0,0
US,USA,country,North America,37.09024,-95.712891,JP,Japan,country,East Asia and Pacific,36.204824,138.252924,1988,27188221,19777031,123749,26827,38786,28323,3710335,210692,696409,309211,289,1241832,15200,81715,112054,190134,1230,395011,34248,196375,0,0,0,0
UY,Uruguay,country,Latin America and the Caribbean,-32.522779,-55.765835,JP,Japan,country,East Asia and Pacific,36.204824,138.252924,1988,40281,15200,0,0,0,0,0,0,0,627,0,24254,0,84,0,2,0,111,0,3,0,0,0,0
RU,Russian Federation,country,Europe and Central Asia,61.52401,105.318756,JP,Japan,country,East Asia and Pacific,36.204824,138.252924,1988,25631,0,0,0,0,0,0,0,0,25219,0,0,0,0,0,412,0,0,0,0,0,0,0,0
VE,Venezuela,country,Latin America and the Caribbean,6.42375,-66.58973,JP,Japan,country,East Asia and Pacific,36.204824,138.252924,1988,2689,2,0,0,0,0,0,0,4,1111,0,0,1568,0,1,3,0,0,0,0,0,0,0,0
BA,Bosnia & Herzegovina,country,Europe and Central Asia,43.915886,17.679076,JP,Japan,country,East Asia and Pacific,36.204824,138.252924,1988,3231,0,0,27,0,0,0,0,41,0,0,0,1,433,0,2729,0,0,0,0,0,0,0,0
DZ,Algeria,country,Middle East and North Africa,28.033886,1.659626,JP,Japan,country,East Asia and Pacific,36.204824,138.252924,1989,2,0,0,0,0,0,0,0,0,0,0,0,0,0,0,2,0,0,0,0,0,0,0,0
AR,Argentina,country,Latin America and the Caribbean,-38.416097,-63.616672,JP,Japan,country,East Asia and Pacific,36.204824,138.252924,1989,370020,197313,0,4260,2161,0,31237,628,2158,4822,0,104642,30,1753,6,7602,0,13295,113,0,0,0,0,0
AU,Australia,country,East Asia and Pacific,-25.274398,133.775136,JP,Japan,country,East Asia and Pacific,36.204824,138.252924,1989,3401726,2247787,88,28317,2416,396,126904,2907,15776,243289,198,338681,1474,469,25574,12734,14,216788,39523,98405,0,0,0,0
AT,Austria,country,Europe and Central Asia,47.516231,14.550072,JP,Japan,country,East Asia and Pacific,36.204824,138.252924,1989,7051,206,0,390,0,7,0,7,596,0,3,1472,3333,25,0,292,0,0,720,0,0,0,0,0
BB,Barbados,country,Latin America and the Caribbean,13.193887,-59.543198,JP,Japan,country,East Asia and Pacific,36.204824,138.252924,1989,68,0,0,0,0,0,0,0,0,68,0,0,0,0,0,0,0,0,0,0,0,0,0,0
BE,Belgium,country,Europe and Central Asia,50.503887,4.469936,JP,Japan,country,East Asia and Pacific,36.204824,138.252924,1989,25290,10895,513,489,0,1,0,997,34,2461,0,210,1550,6652,104,364,0,274,746,0,0,0,0,0
BO,Bolivia,country,Latin America and the Caribbean,-16.290154,-63.588653,JP,Japan,country,East Asia and Pacific,36.204824,138.252924,1989,89,0,0,0,0,0,0,0,0,0,0,0,89,0,0,0,0,0,0,0,0,0,0,0
BR,Brazil,country,Latin America and the Caribbean,-14.235004,-51.92528,JP,Japan,country,East Asia and Pacific,36.204824,138.252924,1989,972790,76,0,116724,0,52,640171,1904,22388,8877,221,53950,55856,13106,3118,8996,0,43740,3521,90,0,0,0,0
CM,Cameroon,country,Sub-Saharan Africa,7.369722,12.354722,JP,Japan,country,East Asia and Pacific,36.204824,138.252924,1989,12863,0,0,0,0,0,0,0,0,4588,0,0,8275,0,0,0,0,0,0,0,0,0,0,0
CA,Canada,country,North America,56.130366,-106.346771,JP,Japan,country,East Asia and Pacific,36.204824,138.252924,1989,4962489,2474939,21743,5189,11310,0,1867905,1448,1821,114,4,444126,167,1492,58199,6267,62,47298,8635,11832,0,0,0,0
CL,Chile,country,Latin America and the Caribbean,-35.675147,-71.542969,JP,Japan,country,East Asia and Pacific,36.204824,138.252924,1989,142553,388,0,1,120,15,0,10675,10670,136,324,105471,28,8098,2,3067,0,3453,105,0,0,0,0,0
HK,Hong Kong,country,East Asia and Pacific,22.396428,114.109497,JP,Japan,country,East Asia and Pacific,36.204824,138.252924,1989,114806,698,165,611,2307,4621,9789,25472,1187,2764,1986,13560,4771,16862,108,28608,0,1162,46,89,0,0,0,0
MO,"Macao SAR, China",country,East Asia and Pacific,22.198745,113.543873,JP,Japan,country,East Asia and Pacific,36.204824,138.252924,1989,3,0,0,0,0,0,0,0,0,0,0,0,0,3,0,0,0,0,0,0,0,0,0,0
CN,China,country,East Asia and Pacific,35.86166,104.195397,JP,Japan,country,East Asia and Pacific,36.204824,138.252924,1989,3457564,1664478,3381,52970,69415,26722,386751,277942,12873,89886,12676,620109,9401,178945,2035,6223,1,43242,456,59,0,0,0,0
TW,Taiwan,country,East Asia and Pacific,23.69781,120.960515,JP,Japan,country,East Asia and Pacific,36.204824,138.252924,1989,539505,2404,216,5225,523,715,85,178912,104053,7684,340,87643,5852,16126,5859,3929,14,119600,174,25,140,0,0,0
CO,Colombia,country,Latin America and the Caribbean,4.570868,-74.297333,JP,Japan,country,East Asia and Pacific,36.204824,138.252924,1989,51914,0,0,26,0,0,0,120,4577,9,0,0,46932,204,0,0,0,46,0,0,0,0,0,0
CR,Costa Rica,country,Latin America and the Caribbean,9.748917,-83.753428,JP,Japan,country,East Asia and Pacific,36.204824,138.252924,1989,8331,0,60,0,0,0,0,0,0,0,0,0,2231,5931,0,4,0,105,0,0,0,0,0,0
CY,Cyprus,country,Europe and Central Asia,35.126413,33.429859,JP,Japan,country,East Asia and Pacific,36.204824,138.252924,1989,2437,0,0,0,0,0,0,0,1644,0,0,39,0,0,0,754,0,0,0,0,0,0,0,0
DK,Denmark,country,Europe and Central Asia,56.26392,9.501785,JP,Japan,country,East Asia and Pacific,36.204824,138.252924,1989,181737,13133,0,286,0,0,0,35,7,0,0,38,1133,859,1286,566,0,147525,16829,40,0,0,0,0
EC,Ecuador,country,Latin America and the Caribbean,-1.831239,-78.183406,JP,Japan,country,East Asia and Pacific,36.204824,138.252924,1989,97393,0,0,0,0,0,0,0,89699,650,0,0,7044,0,0,0,0,0,0,0,0,0,0,0
EG,Egypt,country,Middle East and North Africa,26.820553,30.802498,JP,Japan,country,East Asia and Pacific,36.204824,138.252924,1989,21237,0,18,3500,0,0,0,352,0,17248,0,0,0,119,0,0,0,0,0,0,0,0,0,0
ET,Ethiopia,country,Sub-Saharan Africa,9.145,40.489673,JP,Japan,country,East Asia and Pacific,36.204824,138.252924,1989,15664,0,0,0,0,0,0,0,0,825,0,0,12713,0,0,0,0,0,295,1831,0,0,0,0
FJ,Fiji,country,East Asia and Pacific,-16.578193,179.414413,JP,Japan,country,East Asia and Pacific,36.204824,138.252924,1989,48986,0,0,47250,0,0,0,580,7,0,13,1136,0,0,0,0,0,0,0,0,0,0,0,0
FI,Finland,country,Europe and Central Asia,61.92411,25.748151,JP,Japan,country,East Asia and Pacific,36.204824,138.252924,1989,9797,1148,0,6050,0,0,0,0,0,0,0,1,918,489,0,153,0,580,429,29,0,0,0,0
FR,France,country,Europe and Central Asia,46.227638,2.213749,JP,Japan,country,East Asia and Pacific,36.204824,138.252924,1989,187671,59933,280,3015,8,5,421,1594,3091,10725,148,2876,1786,7739,139,89200,119,3942,2435,334,0,0,0,0
GR,Greece,country,Europe and Central Asia,39.074208,21.824312,JP,Japan,country,East Asia and Pacific,36.204824,138.252924,1989,25847,24,0,0,45,0,2,2708,17359,1929,0,0,5,3579,32,116,0,0,0,48,0,0,0,0
HN,Honduras,country,Latin America and the Caribbean,15.199999,-86.241905,JP,Japan,country,East Asia and Pacific,36.204824,138.252924,1989,19923,0,0,0,0,0,365,0,948,0,0,0,18216,0,0,0,0,394,0,0,0,0,0,0
IS,Iceland,country,Europe and Central Asia,64.963051,-19.020835,JP,Japan,country,East Asia and Pacific,36.204824,138.252924,1989,347,0,0,0,0,0,0,0,0,0,0,252,0,3,0,0,0,92,0,0,0,0,0,0
IN,India,country,South Asia,20.593684,78.96288,JP,Japan,country,East Asia and Pacific,36.204824,138.252924,1989,108755,16,2,0,0,3901,29021,620,728,10333,3629,45963,6719,340,7424,53,0,0,6,0,0,0,0,0
ID,Indonesia,country,East Asia and Pacific,-0.789275,113.921327,JP,Japan,country,East Asia and Pacific,36.204824,138.252924,1989,453759,7145,65,116967,0,141,4720,1799,1544,310,10029,176320,61524,59261,8931,4959,0,42,2,0,0,0,0,0
IE,Ireland,country,Europe and Central Asia,53.41291,-8.24389,JP,Japan,country,East Asia and Pacific,36.204824,138.252924,1989,26323,8430,0,0,0,0,0,80,3,0,0,145,30,720,0,3934,0,9138,3843,0,0,0,0,0
IL,Israel,country,Middle East and North Africa,31.046051,34.851612,JP,Japan,country,East Asia and Pacific,36.204824,138.252924,1989,10232,25,0,46,0,0,121,1618,6258,0,0,0,0,1798,0,59,0,262,45,0,0,0,0,0
IT,Italy,country,Europe and Central Asia,41.87194,12.56738,JP,Japan,country,East Asia and Pacific,36.204824,138.252924,1989,78700,47168,0,36,0,559,54,15570,2550,243,18,78,62,3058,2287,4459,0,8,503,2047,0,0,0,0
MW,Malawi,country,Sub-Saharan Africa,-13.254308,34.301525,JP,Japan,country,East Asia and Pacific,36.204824,138.252924,1989,8957,0,0,0,0,0,0,0,0,0,0,0,0,8957,0,0,0,0,0,0,0,0,0,0
MY,Malaysia,country,East Asia and Pacific,4.210484,101.975766,JP,Japan,country,East Asia and Pacific,36.204824,138.252924,1989,442515,48,4284,46,0,0,22,27,5424,1175,3740,1066,4809,96410,324497,442,0,525,0,0,0,0,0,0
MX,Mexico,country,Latin America and the Caribbean,23.634501,-102.552784,JP,Japan,country,East Asia and Pacific,36.204824,138.252924,1989,24994,0,0,539,180,0,213,769,1565,5108,31,0,5602,1912,3,4154,0,4918,0,0,0,0,0,0
MA,Morocco,country,Middle East and North Africa,31.791702,-7.09262,JP,Japan,country,East Asia and Pacific,36.204824,138.252924,1989,5668,0,0,0,0,0,0,838,0,1683,2669,0,0,460,0,18,0,0,0,0,0,0,0,0
NL,Netherlands,country,Europe and Central Asia,52.132633,5.291266,JP,Japan,country,East Asia and Pacific,36.204824,138.252924,1989,120887,14351,3271,30972,113,0,143,577,639,2,19,4138,15462,15086,4322,3234,83,250,28307,1,0,0,0,0
NZ,New Zealand,country,East Asia and Pacific,-40.900557,174.885971,JP,Japan,country,East Asia and Pacific,36.204824,138.252924,1989,376418,8704,23,4301,3759,0,7133,98473,55531,20147,0,34674,10825,3364,2947,1141,0,51724,65263,8409,0,0,0,0
NO,Norway,country,Europe and Central Asia,60.472024,8.468946,JP,Japan,country,East Asia and Pacific,36.204824,138.252924,1989,9883,32,0,0,0,0,0,0,0,0,0,295,4,2198,0,511,0,0,6841,2,0,0,0,0
PK,Pakistan,country,South Asia,30.375321,69.345116,JP,Japan,country,East Asia and Pacific,36.204824,138.252924,1989,7599,10,0,406,0,0,648,867,152,5508,3,0,0,5,0,0,0,0,0,0,0,0,0,0
PA,Panama,country,Latin America and the Caribbean,8.537981,-80.782127,JP,Japan,country,East Asia and Pacific,36.204824,138.252924,1989,2485,0,0,0,0,0,0,0,2417,0,0,0,40,0,0,28,0,0,0,0,0,0,0,0
PG,Papua New Guinea,country,East Asia and Pacific,-6.314993,143.95555,JP,Japan,country,East Asia and Pacific,36.204824,138.252924,1989,37415,0,0,0,0,0,36105,0,0,0,0,0,954,0,0,0,0,0,0,356,0,0,0,0
PY,Paraguay,country,Latin America and the Caribbean,-23.442503,-58.443832,JP,Japan,country,East Asia and Pacific,36.204824,138.252924,1989,2198,0,0,0,0,0,1352,0,3,825,0,0,0,18,0,0,0,0,0,0,0,0,0,0
PE,Peru,country,Latin America and the Caribbean,-9.189967,-75.015152,JP,Japan,country,East Asia and Pacific,36.204824,138.252924,1989,20795,1024,0,0,0,0,32,629,30,4418,10,0,13321,672,0,18,0,641,0,0,0,0,0,0
PH,Philippines,country,East Asia and Pacific,12.879721,121.774017,JP,Japan,country,East Asia and Pacific,36.204824,138.252924,1989,1091887,73,0,190821,89,0,16496,3838,819168,5451,0,10163,2698,1075,41548,464,0,0,0,3,0,0,0,0
PT,Portugal,country,Europe and Central Asia,39.399872,-8.224454,JP,Japan,country,East Asia and Pacific,36.204824,138.252924,1989,10661,0,0,0,442,0,0,8320,89,63,0,0,0,3,1,1743,0,0,0,0,0,0,0,0
KR,"Korea, Rep.",country,East Asia and Pacific,35.907757,127.766922,JP,Japan,country,East Asia and Pacific,36.204824,138.252924,1989,314132,54355,243,14551,14,18080,301,10548,14346,703,975,34038,11668,108225,984,18264,27,26711,68,0,58,0,0,0
RE,Reunion,country,Sub-Saharan Africa,-21.115141,55.536384,JP,Japan,country,East Asia and Pacific,36.204824,138.252924,1989,3,0,0,0,0,0,0,0,0,0,1,0,0,0,0,2,0,0,0,0,0,0,0,0
RO,Romania,country,Europe and Central Asia,45.943161,24.96676,JP,Japan,country,East Asia and Pacific,36.204824,138.252924,1989,1980,0,0,0,0,0,0,70,0,35,0,0,0,0,0,1650,0,225,0,0,0,0,0,0
SN,Senegal,country,Sub-Saharan Africa,14.497401,-14.452362,JP,Japan,country,East Asia and Pacific,36.204824,138.252924,1989,200,0,0,0,0,0,0,0,0,200,0,0,0,0,0,0,0,0,0,0,0,0,0,0
SG,Singapore,country,East Asia and Pacific,1.352083,103.819836,JP,Japan,country,East Asia and Pacific,36.204824,138.252924,1989,224718,10098,0,1977,9,98,1755,54,4908,569,1950,160,43666,99437,5913,43633,0,412,10079,0,0,0,0,0
ES,Spain,country,Europe and Central Asia,40.463667,-3.74922,JP,Japan,country,East Asia and Pacific,36.204824,138.252924,1989,19992,73,0,673,0,46,212,2699,2844,811,804,491,4031,299,1268,5540,0,10,7,184,0,0,0,0
LK,Sri Lanka,country,South Asia,7.873054,80.771797,JP,Japan,country,East Asia and Pacific,36.204824,138.252924,1989,8552,0,0,0,0,7,95,56,68,0,53,0,5117,3143,0,0,0,0,13,0,0,0,0,0
SE,Sweden,country,Europe and Central Asia,60.128161,18.643501,JP,Japan,country,East Asia and Pacific,36.204824,138.252924,1989,9554,105,0,2993,0,0,0,1435,5,0,0,9,140,368,394,91,0,2000,1479,535,0,0,0,0
CH,Switzerland,country,Europe and Central Asia,46.818188,8.227512,JP,Japan,country,East Asia and Pacific,36.204824,138.252924,1989,5922,313,0,1132,0,0,0,309,350,0,0,15,2618,524,34,237,0,83,307,0,0,0,0,0
SY,Syrian Arab Rep.,country,Middle East and North Africa,34.802075,38.996815,JP,Japan,country,East Asia and Pacific,36.204824,138.252924,1989,5455,0,0,0,0,0,0,0,0,5455,0,0,0,0,0,0,0,0,0,0,0,0,0,0
TH,Thailand,country,East Asia and Pacific,15.870032,100.992541,JP,Japan,country,East Asia and Pacific,36.204824,138.252924,1989,1843334,40845,304282,666244,46116,64,6224,81443,25351,7564,66,102875,1367,456645,1913,6737,0,94520,1032,46,0,0,0,0
TO,Tonga,country,East Asia and Pacific,-21.178986,-175.198242,JP,Japan,country,East Asia and Pacific,36.204824,138.252924,1989,3967,0,0,0,0,0,0,3967,0,0,0,0,0,0,0,0,0,0,0,0,0,0,0,0
TT,Trinidad and Tobago,country,Latin America and the Caribbean,10.691803,-61.222503,JP,Japan,country,East Asia and Pacific,36.204824,138.252924,1989,180,0,0,0,0,0,0,0,0,0,0,0,177,0,0,3,0,0,0,0,0,0,0,0
TN,Tunisia,country,Middle East and North Africa,33.886917,9.537499,JP,Japan,country,East Asia and Pacific,36.204824,138.252924,1989,8,0,0,0,0,0,0,0,0,0,0,0,0,0,0,8,0,0,0,0,0,0,0,0
TR,Turkey,country,Europe and Central Asia,38.963745,35.243322,JP,Japan,country,East Asia and Pacific,36.204824,138.252924,1989,44310,54,0,1,80,291,862,28217,783,4319,279,20,0,8425,0,979,0,0,0,0,0,0,0,0
GB,United Kingdom,country,Europe and Central Asia,55.378051,-3.435973,JP,Japan,country,East Asia and Pacific,36.204824,138.252924,1989,70006,919,100,1246,3582,0,42,237,693,4843,31,1766,1737,2102,494,43513,512,419,7863,419,0,0,0,0
US,USA,country,North America,37.09024,-95.712891,JP,Japan,country,East Asia and Pacific,36.204824,138.252924,1989,26785912,19258842,129147,23443,32512,31260,3309937,188810,730771,374333,217,1359164,16060,99955,121729,327497,1693,580573,20463,181025,174,0,0,0
UY,Uruguay,country,Latin America and the Caribbean,-32.522779,-55.765835,JP,Japan,country,East Asia and Pacific,36.204824,138.252924,1989,28583,0,0,0,0,0,0,0,0,749,0,27663,0,39,0,3,0,129,0,0,0,0,0,0
RU,Russian Federation,country,Europe and Central Asia,61.52401,105.318756,JP,Japan,country,East Asia and Pacific,36.204824,138.252924,1989,38212,0,0,0,0,0,0,0,0,38212,0,0,0,0,0,0,0,0,0,0,0,0,0,0
VE,Venezuela,country,Latin America and the Caribbean,6.42375,-66.58973,JP,Japan,country,East Asia and Pacific,36.204824,138.252924,1989,2965,0,0,0,0,0,0,0,2,1205,0,0,1394,28,336,0,0,0,0,0,0,0,0,0
BA,Bosnia & Herzegovina,country,Europe and Central Asia,43.915886,17.679076,JP,Japan,country,East Asia and Pacific,36.204824,138.252924,1989,3401,0,0,0,0,0,0,0,94,0,0,0,0,584,0,2723,0,0,0,0,0,0,0,0
DZ,Algeria,country,Middle East and North Africa,28.033886,1.659626,JP,Japan,country,East Asia and Pacific,36.204824,138.252924,1990,9,0,0,0,0,0,0,0,0,0,0,0,0,0,0,9,0,0,0,0,0,0,0,0
AR,Argentina,country,Latin America and the Caribbean,-38.416097,-63.616672,JP,Japan,country,East Asia and Pacific,36.204824,138.252924,1990,959728,766358,0,5712,1778,0,25891,116,2015,7086,0,126504,25,815,1027,10465,0,11364,572,0,0,0,0,0
AU,Australia,country,East Asia and Pacific,-25.274398,133.775136,JP,Japan,country,East Asia and Pacific,36.204824,138.252924,1990,2592335,1685978,567,9107,2438,184,149452,4624,14278,190407,68,152995,1128,1073,11396,7011,0,240257,49339,72033,0,0,0,0
AT,Austria,country,Europe and Central Asia,47.516231,14.550072,JP,Japan,country,East Asia and Pacific,36.204824,138.252924,1990,5965,571,0,0,0,2,0,0,935,0,5,166,3530,18,0,407,0,0,331,0,0,0,0,0
BB,Barbados,country,Latin America and the Caribbean,13.193887,-59.543198,JP,Japan,country,East Asia and Pacific,36.204824,138.252924,1990,2,0,0,0,0,0,0,0,0,0,0,0,0,0,0,2,0,0,0,0,0,0,0,0
BE,Belgium,country,Europe and Central Asia,50.503887,4.469936,JP,Japan,country,East Asia and Pacific,36.204824,138.252924,1990,37092,21886,448,518,0,0,0,1221,26,2330,0,203,1687,5833,1063,306,0,268,1303,0,0,0,0,0
BO,Bolivia,country,Latin America and the Caribbean,-16.290154,-63.588653,JP,Japan,country,East Asia and Pacific,36.204824,138.252924,1990,105,0,0,0,35,0,0,0,0,0,0,0,70,0,0,0,0,0,0,0,0,0,0,0
BR,Brazil,country,Latin America and the Caribbean,-14.235004,-51.92528,JP,Japan,country,East Asia and Pacific,36.204824,138.252924,1990,933808,57,0,107,0,6,724378,0,24357,4403,1915,92,76220,34138,10154,13088,0,43415,1466,12,0,0,0,0
CM,Cameroon,country,Sub-Saharan Africa,7.369722,12.354722,JP,Japan,country,East Asia and Pacific,36.204824,138.252924,1990,600,0,0,0,0,0,0,0,0,0,0,0,446,154,0,0,0,0,0,0,0,0,0,0
CA,Canada,country,North America,56.130366,-106.346771,JP,Japan,country,East Asia and Pacific,36.204824,138.252924,1990,5577165,2857694,13345,4038,10268,0,2031403,635,2031,137,0,534789,209,852,62698,3386,51,39449,4386,11845,0,0,0,0
CL,Chile,country,Latin America and the Caribbean,-35.675147,-71.542969,JP,Japan,country,East Asia and Pacific,36.204824,138.252924,1990,118149,1249,0,2,40,0,0,9754,14069,23,504,76101,0,10429,1,3158,0,2729,90,0,0,0,0,0
HK,Hong Kong,country,East Asia and Pacific,22.396428,114.109497,JP,Japan,country,East Asia and Pacific,36.204824,138.252924,1990,118319,1850,534,556,3115,4543,13831,17236,1818,1669,1695,11278,4930,16899,233,36129,0,1237,14,752,0,0,0,0
MO,"Macao SAR, China",country,East Asia and Pacific,22.198745,113.543873,JP,Japan,country,East Asia and Pacific,36.204824,138.252924,1990,3,0,0,0,0,0,0,0,0,0,0,0,0,3,0,0,0,0,0,0,0,0,0,0
CN,China,country,East Asia and Pacific,35.86166,104.195397,JP,Japan,country,East Asia and Pacific,36.204824,138.252924,1990,3076726,1145437,4671,62102,61005,27837,372842,264851,16208,73319,11479,800529,11919,164952,2091,10701,0,46427,243,113,0,0,0,0
TW,Taiwan,country,East Asia and Pacific,23.69781,120.960515,JP,Japan,country,East Asia and Pacific,36.204824,138.252924,1990,530934,2793,583,4471,270,1459,39,157451,66125,5766,493,105033,4680,11390,5380,2420,26,161833,310,21,417,0,0,0
CO,Colombia,country,Latin America and the Caribbean,4.570868,-74.297333,JP,Japan,country,East Asia and Pacific,36.204824,138.252924,1990,66326,14,0,0,0,0,1081,3,0,1021,9,0,63912,108,0,0,0,178,0,0,0,0,0,0
CY,Cyprus,country,Europe and Central Asia,35.126413,33.429859,JP,Japan,country,East Asia and Pacific,36.204824,138.252924,1990,1841,0,0,0,0,0,0,0,1112,0,0,35,0,0,0,682,0,0,0,12,0,0,0,0
DK,Denmark,country,Europe and Central Asia,56.26392,9.501785,JP,Japan,country,East Asia and Pacific,36.204824,138.252924,1990,144409,11217,0,111,0,0,0,0,16,0,0,94,1646,1050,392,556,0,115489,13781,57,0,0,0,0
EC,Ecuador,country,Latin America and the Caribbean,-1.831239,-78.183406,JP,Japan,country,East Asia and Pacific,36.204824,138.252924,1990,134961,0,0,0,0,0,0,0,125791,793,13,0,8364,0,0,0,0,0,0,0,0,0,0,0
EG,Egypt,country,Middle East and North Africa,26.820553,30.802498,JP,Japan,country,East Asia and Pacific,36.204824,138.252924,1990,8829,0,0,1,0,0,0,104,0,8661,0,0,0,61,2,0,0,0,0,0,0,0,0,0
ET,Ethiopia,country,Sub-Saharan Africa,9.145,40.489673,JP,Japan,country,East Asia and Pacific,36.204824,138.252924,1990,12914,0,0,0,0,0,0,0,0,0,0,0,11506,0,0,0,0,0,124,1284,0,0,0,0
FJ,Fiji,country,East Asia and Pacific,-16.578193,179.414413,JP,Japan,country,East Asia and Pacific,36.204824,138.252924,1990,60555,0,0,59477,0,0,0,255,4,0,205,614,0,0,0,0,0,0,0,0,0,0,0,0
FI,Finland,country,Europe and Central Asia,61.92411,25.748151,JP,Japan,country,East Asia and Pacific,36.204824,138.252924,1990,10696,1612,0,6264,0,0,0,0,43,0,0,2,996,472,0,137,0,396,754,20,0,0,0,0
FR,France,country,Europe and Central Asia,46.227638,2.213749,JP,Japan,country,East Asia and Pacific,36.204824,138.252924,1990,196771,62799,155,2549,23,16,422,1596,3353,7996,144,4583,1981,3097,71,97668,111,3434,6686,198,0,0,0,0
GR,Greece,country,Europe and Central Asia,39.074208,21.824312,JP,Japan,country,East Asia and Pacific,36.204824,138.252924,1990,16450,9,0,0,0,0,4,463,10680,470,0,0,26,4696,17,76,0,0,0,9,0,0,0,0
GT,Guatemala,country,Latin America and the Caribbean,15.783471,-90.230759,JP,Japan,country,East Asia and Pacific,36.204824,138.252924,1990,22348,0,0,0,0,0,2805,17,0,8417,103,0,10291,644,0,4,0,67,0,0,0,0,0,0
IS,Iceland,country,Europe and Central Asia,64.963051,-19.020835,JP,Japan,country,East Asia and Pacific,36.204824,138.252924,1990,1474,0,0,0,0,0,0,0,0,0,0,332,0,2,0,0,0,1140,0,0,0,0,0,0
IN,India,country,South Asia,20.593684,78.96288,JP,Japan,country,East Asia and Pacific,36.204824,138.252924,1990,106946,51,18,0,0,3833,8249,438,252,31433,5981,11304,2983,35972,6334,74,0,24,0,0,0,0,0,0
ID,Indonesia,country,East Asia and Pacific,-0.789275,113.921327,JP,Japan,country,East Asia and Pacific,36.204824,138.252924,1990,464117,12328,292,136767,0,99,19042,1328,2160,479,2858,156813,65606,51663,9223,5223,0,175,61,0,0,0,0,0
IE,Ireland,country,Europe and Central Asia,53.41291,-8.24389,JP,Japan,country,East Asia and Pacific,36.204824,138.252924,1990,18741,7502,0,0,0,0,0,0,2,7,0,92,151,797,0,2672,0,5069,2400,49,0,0,0,0
IT,Italy,country,Europe and Central Asia,41.87194,12.56738,JP,Japan,country,East Asia and Pacific,36.204824,138.252924,1990,73459,38855,18,72,0,834,60,15002,1833,71,8,451,91,4492,2683,6368,0,1,728,1892,0,0,0,0
KE,Kenya,country,Sub-Saharan Africa,-0.023559,37.906193,JP,Japan,country,East Asia and Pacific,36.204824,138.252924,1990,1160,0,0,0,0,260,0,0,0,0,0,0,896,0,0,4,0,0,0,0,0,0,0,0
MG,Madagascar,country,Sub-Saharan Africa,-18.766947,46.869107,JP,Japan,country,East Asia and Pacific,36.204824,138.252924,1990,497,0,0,0,0,0,0,0,0,0,61,0,418,18,0,0,0,0,0,0,0,0,0,0
MY,Malaysia,country,East Asia and Pacific,4.210484,101.975766,JP,Japan,country,East Asia and Pacific,36.204824,138.252924,1990,476589,44,3788,10485,0,0,1008,54,17142,1817,4339,534,4586,102758,329847,185,2,2,0,0,0,0,0,0
MU,Mauritius,country,Sub-Saharan Africa,-20.348404,57.552152,JP,Japan,country,East Asia and Pacific,36.204824,138.252924,1990,63,0,0,0,0,0,0,0,0,0,0,0,0,63,0,0,0,0,0,0,0,0,0,0
MX,Mexico,country,Latin America and the Caribbean,23.634501,-102.552784,JP,Japan,country,East Asia and Pacific,36.204824,138.252924,1990,31727,0,0,55,0,0,88,1398,3188,6046,14,0,2982,1971,3,7528,0,8454,0,0,0,0,0,0
NL,Netherlands,country,Europe and Central Asia,52.132633,5.291266,JP,Japan,country,East Asia and Pacific,36.204824,138.252924,1990,103125,14130,3207,28722,106,1,487,567,845,0,20,2532,12423,14492,2369,3778,62,156,19229,61,0,0,0,0
NZ,New Zealand,country,East Asia and Pacific,-40.900557,174.885971,JP,Japan,country,East Asia and Pacific,36.204824,138.252924,1990,357674,10335,215,3126,3787,1,5316,105209,71480,25669,0,21971,13180,727,1391,1713,0,42181,44383,6990,0,0,0,0
NO,Norway,country,Europe and Central Asia,60.472024,8.468946,JP,Japan,country,East Asia and Pacific,36.204824,138.252924,1990,8380,32,0,0,0,0,0,0,0,0,0,3,2,8,0,1027,0,0,7308,0,0,0,0,0
OM,Oman,country,Middle East and North Africa,21.512583,55.923255,JP,Japan,country,East Asia and Pacific,36.204824,138.252924,1990,16,0,0,0,0,0,0,0,0,0,0,0,0,0,0,0,0,0,16,0,0,0,0,0
PK,Pakistan,country,South Asia,30.375321,69.345116,JP,Japan,country,East Asia and Pacific,36.204824,138.252924,1990,38140,12,0,0,0,0,7376,60,538,30123,11,0,0,20,0,0,0,0,0,0,0,0,0,0
PA,Panama,country,Latin America and the Caribbean,8.537981,-80.782127,JP,Japan,country,East Asia and Pacific,36.204824,138.252924,1990,9900,0,0,0,0,0,0,0,9795,0,0,0,98,0,0,7,0,0,0,0,0,0,0,0
PG,Papua New Guinea,country,East Asia and Pacific,-6.314993,143.95555,JP,Japan,country,East Asia and Pacific,36.204824,138.252924,1990,30331,0,0,0,0,0,28653,0,0,0,0,0,1076,0,0,0,0,1,0,601,0,0,0,0
PY,Paraguay,country,Latin America and the Caribbean,-23.442503,-58.443832,JP,Japan,country,East Asia and Pacific,36.204824,138.252924,1990,1036,0,0,0,0,0,1008,0,0,0,0,0,0,15,0,13,0,0,0,0,0,0,0,0
PE,Peru,country,Latin America and the Caribbean,-9.189967,-75.015152,JP,Japan,country,East Asia and Pacific,36.204824,138.252924,1990,19366,1506,0,0,18,0,0,572,60,1051,0,0,13452,919,0,33,0,1755,0,0,0,0,0,0
PH,Philippines,country,East Asia and Pacific,12.879721,121.774017,JP,Japan,country,East Asia and Pacific,36.204824,138.252924,1990,1067330,73,55,198336,18,0,13948,2662,787407,5878,2,5782,1849,952,49770,582,0,11,4,1,0,0,0,0
PT,Portugal,country,Europe and Central Asia,39.399872,-8.224454,JP,Japan,country,East Asia and Pacific,36.204824,138.252924,1990,6374,0,0,0,528,0,1,4421,0,28,0,0,0,73,4,1319,0,0,0,0,0,0,0,0
KR,"Korea, Rep.",country,East Asia and Pacific,35.907757,127.766922,JP,Japan,country,East Asia and Pacific,36.204824,138.252924,1990,291831,57272,133,19503,121,18777,418,6866,12985,210,570,34643,32641,75088,791,11348,0,19323,62,1066,14,0,0,0
RO,Romania,country,Europe and Central Asia,45.943161,24.96676,JP,Japan,country,East Asia and Pacific,36.204824,138.252924,1990,1131,0,0,0,0,0,0,60,0,0,0,0,0,0,0,1040,0,31,0,0,0,0,0,0
SC,Seychelles,country,Sub-Saharan Africa,-4.679574,55.491977,JP,Japan,country,East Asia and Pacific,36.204824,138.252924,1990,0,0,0,0,0,0,0,0,0,0,0,0,0,0,0,0,0,0,0,0,0,0,0,0
SG,Singapore,country,East Asia and Pacific,1.352083,103.819836,JP,Japan,country,East Asia and Pacific,36.204824,138.252924,1990,121886,10017,0,916,12,421,1867,44,16471,2,1919,206,44409,5190,3702,32449,0,351,3907,3,0,0,0,0
ES,Spain,country,Europe and Central Asia,40.463667,-3.74922,JP,Japan,country,East Asia and Pacific,36.204824,138.252924,1990,16950,100,0,902,0,14,242,1500,2482,356,702,496,2509,199,1681,5643,0,0,2,122,0,0,0,0
LK,Sri Lanka,country,South Asia,7.873054,80.771797,JP,Japan,country,East Asia and Pacific,36.204824,138.252924,1990,11598,0,50,0,0,5,2255,228,68,1,37,0,5448,3501,0,2,0,3,0,0,0,0,0,0
SE,Sweden,country,Europe and Central Asia,60.128161,18.643501,JP,Japan,country,East Asia and Pacific,36.204824,138.252924,1990,9474,570,0,3082,0,0,0,505,16,0,0,18,59,216,0,154,0,1023,3303,528,0,0,0,0
CH,Switzerland,country,Europe and Central Asia,46.818188,8.227512,JP,Japan,country,East Asia and Pacific,36.204824,138.252924,1990,4208,298,0,825,0,0,0,309,323,0,0,19,1370,360,0,291,0,86,308,19,0,0,0,0
TH,Thailand,country,East Asia and Pacific,15.870032,100.992541,JP,Japan,country,East Asia and Pacific,36.204824,138.252924,1990,1758949,18324,239931,655210,49580,36,8037,80906,40011,5132,501,115020,1485,424159,1919,4094,0,111190,3394,20,0,0,0,0
TT,Trinidad and Tobago,country,Latin America and the Caribbean,10.691803,-61.222503,JP,Japan,country,East Asia and Pacific,36.204824,138.252924,1990,125,0,0,0,0,0,0,0,0,0,0,0,100,0,0,25,0,0,0,0,0,0,0,0
TN,Tunisia,country,Middle East and North Africa,33.886917,9.537499,JP,Japan,country,East Asia and Pacific,36.204824,138.252924,1990,2,0,0,0,0,0,0,0,0,0,0,0,0,2,0,0,0,0,0,0,0,0,0,0
TR,Turkey,country,Europe and Central Asia,38.963745,35.243322,JP,Japan,country,East Asia and Pacific,36.204824,138.252924,1990,46322,0,0,0,46,332,595,29573,745,4829,253,8,48,7965,0,1928,0,0,0,0,0,0,0,0
GB,United Kingdom,country,Europe and Central Asia,55.378051,-3.435973,JP,Japan,country,East Asia and Pacific,36.204824,138.252924,1990,71806,1547,672,1093,3087,0,32,150,680,5917,12,1311,1810,2677,1294,40954,474,300,9152,1117,1,0,0,0
US,USA,country,North America,37.09024,-95.712891,JP,Japan,country,East Asia and Pacific,36.204824,138.252924,1990,27158123,19790370,127333,25321,32640,25470,3483209,200087,605424,348792,209,1408627,12131,92066,124450,246171,2501,424620,18884,192179,140,0,0,0
UY,Uruguay,country,Latin America and the Caribbean,-32.522779,-55.765835,JP,Japan,country,East Asia and Pacific,36.204824,138.252924,1990,25368,0,0,0,0,0,0,0,17,718,0,23813,0,6,0,6,0,660,130,18,0,0,0,0
VE,Venezuela,country,Latin America and the Caribbean,6.42375,-66.58973,JP,Japan,country,East Asia and Pacific,36.204824,138.252924,1990,8185,0,0,0,0,0,4901,0,0,0,0,0,1810,14,1387,52,0,15,0,6,0,0,0,0
BA,Bosnia & Herzegovina,country,Europe and Central Asia,43.915886,17.679076,JP,Japan,country,East Asia and Pacific,36.204824,138.252924,1990,3093,0,0,0,0,0,0,1,37,0,0,0,0,230,0,2824,0,1,0,0,0,0,0,0
ZW,Zimbabwe,country,Sub-Saharan Africa,-19.015438,29.154857,JP,Japan,country,East Asia and Pacific,36.204824,138.252924,1990,9979,0,0,0,0,0,17,0,0,3073,0,0,4978,1905,0,0,0,0,0,6,0,0,0,0
DZ,Algeria,country,Middle East and North Africa,28.033886,1.659626,JP,Japan,country,East Asia and Pacific,36.204824,138.252924,1991,12,0,0,0,0,0,0,3,0,0,0,0,0,0,0,9,0,0,0,0,0,0,0,0
AR,Argentina,country,Latin America and the Caribbean,-38.416097,-63.616672,JP,Japan,country,East Asia and Pacific,36.204824,138.252924,1991,1898351,1728489,0,1942,2109,0,23625,247,1502,3097,0,116187,6,987,2551,5976,0,11156,477,0,0,0,0,0
AU,Australia,country,East Asia and Pacific,-25.274398,133.775136,JP,Japan,country,East Asia and Pacific,36.204824,138.252924,1991,2967360,1880524,480,12473,1295,356,153970,8964,19331,261361,263,234549,2040,106,4426,8012,0,247429,79624,52157,0,0,0,0
AT,Austria,country,Europe and Central Asia,47.516231,14.550072,JP,Japan,country,East Asia and Pacific,36.204824,138.252924,1991,6117,194,0,49,0,0,0,0,1101,0,1,818,2902,86,0,590,0,0,376,0,0,0,0,0
BB,Barbados,country,Latin America and the Caribbean,13.193887,-59.543198,JP,Japan,country,East Asia and Pacific,36.204824,138.252924,1991,22,0,0,0,0,0,0,0,0,22,0,0,0,0,0,0,0,0,0,0,0,0,0,0
BE,Belgium,country,Europe and Central Asia,50.503887,4.469936,JP,Japan,country,East Asia and Pacific,36.204824,138.252924,1991,50300,28645,440,176,0,1,0,1294,14,2242,0,186,2583,8578,149,590,0,163,5239,0,0,0,0,0
BO,Bolivia,country,Latin America and the Caribbean,-16.290154,-63.588653,JP,Japan,country,East Asia and Pacific,36.204824,138.252924,1991,42,0,0,0,17,0,0,0,0,0,0,0,0,17,0,8,0,0,0,0,0,0,0,0
BR,Brazil,country,Latin America and the Caribbean,-14.235004,-51.92528,JP,Japan,country,East Asia and Pacific,36.204824,138.252924,1991,480723,38,72,53,15,26,243313,42,28501,7554,195,221,101764,19779,2740,14264,0,59540,2605,1,0,0,0,0
CM,Cameroon,country,Sub-Saharan Africa,7.369722,12.354722,JP,Japan,country,East Asia and Pacific,36.204824,138.252924,1991,369,0,0,0,0,0,0,0,0,369,0,0,0,0,0,0,0,0,0,0,0,0,0,0
CA,Canada,country,North America,56.130366,-106.346771,JP,Japan,country,East Asia and Pacific,36.204824,138.252924,1991,5331678,2712254,15420,3960,11950,0,1884753,1107,1627,25,0,586650,221,442,61038,2352,26,33950,9435,6494,0,0,0,0
CL,Chile,country,Latin America and the Caribbean,-35.675147,-71.542969,JP,Japan,country,East Asia and Pacific,36.204824,138.252924,1991,130404,501,0,0,0,0,0,11002,11084,6,880,89137,0,9695,0,3289,0,4718,92,0,0,0,0,0
HK,Hong Kong,country,East Asia and Pacific,22.396428,114.109497,JP,Japan,country,East Asia and Pacific,36.204824,138.252924,1991,153911,1258,810,438,10875,4027,11715,32810,3073,1376,2672,12045,7189,18684,300,45701,0,921,16,1,0,0,0,0
MO,"Macao SAR, China",country,East Asia and Pacific,22.198745,113.543873,JP,Japan,country,East Asia and Pacific,36.204824,138.252924,1991,2,0,0,0,0,0,0,0,0,0,0,0,0,2,0,0,0,0,0,0,0,0,0,0
CN,China,country,East Asia and Pacific,35.86166,104.195397,JP,Japan,country,East Asia and Pacific,36.204824,138.252924,1991,4513993,2151281,7684,29620,62805,28496,390290,354429,31295,75865,13032,1103206,16063,170405,1609,26534,13,50979,330,70,0,0,0,0
TW,Taiwan,country,East Asia and Pacific,23.69781,120.960515,JP,Japan,country,East Asia and Pacific,36.204824,138.252924,1991,631880,17538,382,2114,116,510,30,157687,81776,5087,262,129046,4267,7912,694,2605,38,221112,402,0,340,0,0,0
CO,Colombia,country,Latin America and the Caribbean,4.570868,-74.297333,JP,Japan,country,East Asia and Pacific,36.204824,138.252924,1991,61654,0,0,0,0,0,5748,0,11,4446,21,0,51148,230,0,13,0,0,37,0,0,0,0,0
CR,Costa Rica,country,Latin America and the Caribbean,9.748917,-83.753428,JP,Japan,country,East Asia and Pacific,36.204824,138.252924,1991,7314,0,0,0,0,0,0,0,58,0,0,0,7150,0,0,9,0,97,0,0,0,0,0,0
DK,Denmark,country,Europe and Central Asia,56.26392,9.501785,JP,Japan,country,East Asia and Pacific,36.204824,138.252924,1991,186191,14254,0,250,0,0,0,0,9,0,4,287,3430,464,1493,260,0,150174,15525,41,0,0,0,0
DJ,Djibouti,country,Middle East and North Africa,11.825138,42.590275,JP,Japan,country,East Asia and Pacific,36.204824,138.252924,1991,0,0,0,0,0,0,0,0,0,0,0,0,0,0,0,0,0,0,0,0,0,0,0,0
EC,Ecuador,country,Latin America and the Caribbean,-1.831239,-78.183406,JP,Japan,country,East Asia and Pacific,36.204824,138.252924,1991,148332,0,0,0,0,0,0,0,139018,911,5,0,8398,0,0,0,0,0,0,0,0,0,0,0
EG,Egypt,country,Middle East and North Africa,26.820553,30.802498,JP,Japan,country,East Asia and Pacific,36.204824,138.252924,1991,5738,0,0,0,0,0,0,104,0,5634,0,0,0,0,0,0,0,0,0,0,0,0,0,0
SV,El Salvador,country,Latin America and the Caribbean,13.794185,-88.89653,JP,Japan,country,East Asia and Pacific,36.204824,138.252924,1991,10293,0,0,0,0,0,3650,0,0,0,0,0,6643,0,0,0,0,0,0,0,0,0,0,0
ET,Ethiopia,country,Sub-Saharan Africa,9.145,40.489673,JP,Japan,country,East Asia and Pacific,36.204824,138.252924,1991,13319,0,0,0,0,0,17,0,0,0,0,0,12749,0,0,0,0,0,50,503,0,0,0,0
FJ,Fiji,country,East Asia and Pacific,-16.578193,179.414413,JP,Japan,country,East Asia and Pacific,36.204824,138.252924,1991,78180,0,0,76968,0,0,0,284,7,0,432,487,0,0,0,0,0,2,0,0,0,0,0,0
FI,Finland,country,Europe and Central Asia,61.92411,25.748151,JP,Japan,country,East Asia and Pacific,36.204824,138.252924,1991,11730,2105,0,7784,0,0,0,0,6,0,0,2,736,564,0,74,0,288,171,0,0,0,0,0
FR,France,country,Europe and Central Asia,46.227638,2.213749,JP,Japan,country,East Asia and Pacific,36.204824,138.252924,1991,200506,65975,285,2403,7,13,457,1902,3143,10465,91,5526,2460,3611,71,95969,136,4376,3383,369,0,0,0,0
DE,Germany,country,Europe and Central Asia,51.165691,10.451526,JP,Japan,country,East Asia and Pacific,36.204824,138.252924,1991,231206,177694,0,10697,0,52,108,1542,366,382,70,2188,5282,5086,1993,15555,11,119,9672,400,0,0,0,0
GR,Greece,country,Europe and Central Asia,39.074208,21.824312,JP,Japan,country,East Asia and Pacific,36.204824,138.252924,1991,21486,10,1,0,0,0,5,542,14510,0,0,0,6,6348,25,36,0,0,0,3,0,0,0,0
GD,Grenada,country,Latin America and the Caribbean,12.262776,-61.604171,JP,Japan,country,East Asia and Pacific,36.204824,138.252924,1991,335,0,0,0,0,0,0,0,0,0,0,0,335,0,0,0,0,0,0,0,0,0,0,0
GT,Guatemala,country,Latin America and the Caribbean,15.783471,-90.230759,JP,Japan,country,East Asia and Pacific,36.204824,138.252924,1991,23944,0,0,0,0,0,3696,0,1,5893,32,0,13754,491,35,2,0,40,0,0,0,0,0,0
HN,Honduras,country,Latin America and the Caribbean,15.199999,-86.241905,JP,Japan,country,East Asia and Pacific,36.204824,138.252924,1991,29114,0,22,0,0,0,589,0,8775,0,0,0,19671,0,0,0,0,57,0,0,0,0,0,0
HU,Hungary,country,Europe and Central Asia,47.162494,19.503304,JP,Japan,country,East Asia and Pacific,36.204824,138.252924,1991,6559,0,0,198,3439,0,29,199,457,0,105,0,0,0,0,301,8,335,1496,0,0,0,0,0
IS,Iceland,country,Europe and Central Asia,64.963051,-19.020835,JP,Japan,country,East Asia and Pacific,36.204824,138.252924,1991,713,0,0,0,0,0,0,0,0,0,0,292,0,0,0,0,0,421,0,0,0,0,0,0
IN,India,country,South Asia,20.593684,78.96288,JP,Japan,country,East Asia and Pacific,36.204824,138.252924,1991,76667,44,0,0,0,4498,6371,777,100,15400,4827,32403,3435,192,8423,193,0,4,0,0,0,0,0,0
ID,Indonesia,country,East Asia and Pacific,-0.789275,113.921327,JP,Japan,country,East Asia and Pacific,36.204824,138.252924,1991,466770,11012,521,87274,0,41,3752,2488,2854,611,3262,194183,71235,74266,11495,3394,0,368,14,0,0,0,0,0
IE,Ireland,country,Europe and Central Asia,53.41291,-8.24389,JP,Japan,country,East Asia and Pacific,36.204824,138.252924,1991,16460,4676,0,0,0,0,1,0,0,0,0,165,46,1141,0,2187,0,4354,3871,19,0,0,0,0
IT,Italy,country,Europe and Central Asia,41.87194,12.56738,JP,Japan,country,East Asia and Pacific,36.204824,138.252924,1991,84037,43895,4,66,2,583,30,18264,8189,20,3,474,77,1831,2196,6816,0,0,1046,541,0,0,0,0
KE,Kenya,country,Sub-Saharan Africa,-0.023559,37.906193,JP,Japan,country,East Asia and Pacific,36.204824,138.252924,1991,3171,0,0,0,0,361,160,0,0,0,0,0,1113,1452,14,56,0,0,0,15,0,0,0,0
MG,Madagascar,country,Sub-Saharan Africa,-18.766947,46.869107,JP,Japan,country,East Asia and Pacific,36.204824,138.252924,1991,240,0,0,0,0,0,0,0,0,201,30,0,0,9,0,0,0,0,0,0,0,0,0,0
MY,Malaysia,country,East Asia and Pacific,4.210484,101.975766,JP,Japan,country,East Asia and Pacific,36.204824,138.252924,1991,515397,251,3854,41,0,51,871,29,19667,1266,4620,515,5037,104838,374080,200,0,27,34,0,16,0,0,0
MU,Mauritius,country,Sub-Saharan Africa,-20.348404,57.552152,JP,Japan,country,East Asia and Pacific,36.204824,138.252924,1991,122,0,0,0,0,0,0,0,0,0,2,0,0,120,0,0,0,0,0,0,0,0,0,0
MX,Mexico,country,Latin America and the Caribbean,23.634501,-102.552784,JP,Japan,country,East Asia and Pacific,36.204824,138.252924,1991,25605,19,0,0,123,0,573,1576,2672,3854,40,175,2392,1083,0,7031,0,6067,0,0,0,0,0,0
MA,Morocco,country,Middle East and North Africa,31.791702,-7.09262,JP,Japan,country,East Asia and Pacific,36.204824,138.252924,1991,3997,0,0,0,0,0,0,767,0,0,2564,0,0,607,0,59,0,0,0,0,0,0,0,0
NL,Netherlands,country,Europe and Central Asia,52.132633,5.291266,JP,Japan,country,East Asia and Pacific,36.204824,138.252924,1991,106825,13937,1885,27137,83,1,337,529,579,0,20,948,10454,17839,4287,3520,46,334,24935,0,0,0,0,0
NZ,New Zealand,country,East Asia and Pacific,-40.900557,174.885971,JP,Japan,country,East Asia and Pacific,36.204824,138.252924,1991,320696,9625,159,4671,4035,0,0,83779,49862,23193,0,20252,11722,56,1321,2864,0,36279,68370,4508,0,0,0,0
NI,Nicaragua,country,Latin America and the Caribbean,12.865416,-85.207229,JP,Japan,country,East Asia and Pacific,36.204824,138.252924,1991,22729,0,0,0,0,0,861,0,19,21617,0,0,70,0,0,0,0,162,0,0,0,0,0,0
NO,Norway,country,Europe and Central Asia,60.472024,8.468946,JP,Japan,country,East Asia and Pacific,36.204824,138.252924,1991,8846,38,0,0,0,0,0,0,0,0,0,3,0,0,0,1387,0,0,7418,0,0,0,0,0
OM,Oman,country,Middle East and North Africa,21.512583,55.923255,JP,Japan,country,East Asia and Pacific,36.204824,138.252924,1991,123,0,0,0,0,0,0,0,123,0,0,0,0,0,0,0,0,0,0,0,0,0,0,0
PK,Pakistan,country,South Asia,30.375321,69.345116,JP,Japan,country,East Asia and Pacific,36.204824,138.252924,1991,52702,1748,0,1329,0,0,6732,7,361,42185,296,0,0,44,0,0,0,0,0,0,0,0,0,0
PA,Panama,country,Latin America and the Caribbean,8.537981,-80.782127,JP,Japan,country,East Asia and Pacific,36.204824,138.252924,1991,18002,0,0,0,0,0,0,0,17951,0,0,0,0,51,0,0,0,0,0,0,0,0,0,0
PG,Papua New Guinea,country,East Asia and Pacific,-6.314993,143.95555,JP,Japan,country,East Asia and Pacific,36.204824,138.252924,1991,23568,0,0,0,0,0,22663,0,0,0,0,16,209,0,0,0,0,5,0,675,0,0,0,0
PY,Paraguay,country,Latin America and the Caribbean,-23.442503,-58.443832,JP,Japan,country,East Asia and Pacific,36.204824,138.252924,1991,756,0,0,0,0,0,700,0,0,0,0,0,0,56,0,0,0,0,0,0,0,0,0,0
PE,Peru,country,Latin America and the Caribbean,-9.189967,-75.015152,JP,Japan,country,East Asia and Pacific,36.204824,138.252924,1991,27337,1041,0,0,0,0,0,329,43,1776,6,18,12771,1577,50,8151,0,1575,0,0,0,0,0,0
PH,Philippines,country,East Asia and Pacific,12.879721,121.774017,JP,Japan,country,East Asia and Pacific,36.204824,138.252924,1991,1109872,33,82,184370,35,0,14618,5549,834646,5198,14,8710,1875,1300,52784,634,0,0,22,2,0,0,0,0
PT,Portugal,country,Europe and Central Asia,39.399872,-8.224454,JP,Japan,country,East Asia and Pacific,36.204824,138.252924,1991,7074,0,0,0,473,12,1,5118,20,20,0,0,0,158,1,1271,0,0,0,0,0,0,0,0
KR,"Korea, Rep.",country,East Asia and Pacific,35.907757,127.766922,JP,Japan,country,East Asia and Pacific,36.204824,138.252924,1991,253763,57327,213,22327,35,17453,304,17040,10742,500,570,53781,17845,32457,670,6906,0,15483,0,110,0,0,0,0
RE,Reunion,country,Sub-Saharan Africa,-21.115141,55.536384,JP,Japan,country,East Asia and Pacific,36.204824,138.252924,1991,31,0,0,0,0,0,0,0,0,0,4,0,0,0,0,27,0,0,0,0,0,0,0,0
RO,Romania,country,Europe and Central Asia,45.943161,24.96676,JP,Japan,country,East Asia and Pacific,36.204824,138.252924,1991,1806,0,0,0,0,0,0,200,0,0,0,0,0,0,0,1594,0,12,0,0,0,0,0,0
SN,Senegal,country,Sub-Saharan Africa,14.497401,-14.452362,JP,Japan,country,East Asia and Pacific,36.204824,138.252924,1991,499,0,0,0,0,0,0,0,0,499,0,0,0,0,0,0,0,0,0,0,0,0,0,0
SG,Singapore,country,East Asia and Pacific,1.352083,103.819836,JP,Japan,country,East Asia and Pacific,36.204824,138.252924,1991,206318,12688,3,1545,0,5,9353,73,16942,0,1536,273,45449,69955,6097,36484,0,199,5716,0,0,0,0,0
ES,Spain,country,Europe and Central Asia,40.463667,-3.74922,JP,Japan,country,East Asia and Pacific,36.204824,138.252924,1991,18678,103,0,883,0,24,274,2277,4558,529,877,1003,1374,266,1935,4443,0,0,2,130,0,0,0,0
LK,Sri Lanka,country,South Asia,7.873054,80.771797,JP,Japan,country,East Asia and Pacific,36.204824,138.252924,1991,13238,0,0,0,0,0,211,1176,125,15,50,0,7227,4418,0,16,0,0,0,0,0,0,0,0
SE,Sweden,country,Europe and Central Asia,60.128161,18.643501,JP,Japan,country,East Asia and Pacific,36.204824,138.252924,1991,9412,2415,0,2805,0,0,0,567,59,0,0,18,42,269,450,80,0,133,2522,52,0,0,0,0
CH,Switzerland,country,Europe and Central Asia,46.818188,8.227512,JP,Japan,country,East Asia and Pacific,36.204824,138.252924,1991,4036,275,0,763,0,0,0,274,316,0,0,19,1392,408,10,153,0,72,354,0,0,0,0,0
TH,Thailand,country,East Asia and Pacific,15.870032,100.992541,JP,Japan,country,East Asia and Pacific,36.204824,138.252924,1991,1862582,34631,193094,658598,36964,19,4349,105476,47675,7666,1260,142165,3192,473069,1637,5825,0,143869,3063,30,0,0,0,0
TT,Trinidad and Tobago,country,Latin America and the Caribbean,10.691803,-61.222503,JP,Japan,country,East Asia and Pacific,36.204824,138.252924,1991,225,0,0,0,0,0,0,0,0,0,0,0,191,0,0,34,0,0,0,0,0,0,0,0
TR,Turkey,country,Europe and Central Asia,38.963745,35.243322,JP,Japan,country,East Asia and Pacific,36.204824,138.252924,1991,41134,48,40,0,0,369,717,27151,620,3350,254,22,0,8359,0,204,0,0,0,0,0,0,0,0
GB,United Kingdom,country,Europe and Central Asia,55.378051,-3.435973,JP,Japan,country,East Asia and Pacific,36.204824,138.252924,1991,180861,106926,0,1023,8390,0,40,196,587,4388,17,651,1342,1986,1545,38466,375,118,14053,1133,0,0,0,0
US,USA,country,North America,37.09024,-95.712891,JP,Japan,country,East Asia and Pacific,36.204824,138.252924,1991,26604723,18676533,140490,31707,33867,26891,3841621,218672,624078,295364,270,1678313,9923,54367,110603,238082,2206,467067,26794,129970,111,0,0,0
UY,Uruguay,country,Latin America and the Caribbean,-32.522779,-55.765835,JP,Japan,country,East Asia and Pacific,36.204824,138.252924,1991,15671,950,0,0,0,0,0,0,0,417,0,13707,0,3,0,0,0,411,120,63,0,0,0,0
VE,Venezuela,country,Latin America and the Caribbean,6.42375,-66.58973,JP,Japan,country,East Asia and Pacific,36.204824,138.252924,1991,6011,0,0,0,0,0,100,0,0,0,0,0,3914,159,1804,34,0,0,0,0,0,0,0,0
ZW,Zimbabwe,country,Sub-Saharan Africa,-19.015438,29.154857,JP,Japan,country,East Asia and Pacific,36.204824,138.252924,1991,5731,6,0,0,0,0,0,0,0,793,0,0,504,4425,0,0,0,0,0,3,0,0,0,0
AR,Argentina,country,Latin America and the Caribbean,-38.416097,-63.616672,JP,Japan,country,East Asia and Pacific,36.204824,138.252924,1992,1481928,1167851,0,1441,1259,0,28940,363,1470,2196,0,262215,1,513,77,6921,0,8589,0,92,0,0,0,0
AU,Australia,country,East Asia and Pacific,-25.274398,133.775136,JP,Japan,country,East Asia and Pacific,36.204824,138.252924,1992,2088571,938424,181,28796,2359,479,167658,11114,18364,252993,317,259776,2576,21,11580,9101,11,277131,75080,32621,0,0,0,0
AT,Austria,country,Europe and Central Asia,47.516231,14.550072,JP,Japan,country,East Asia and Pacific,36.204824,138.252924,1992,6758,233,0,710,0,0,0,0,1004,0,0,955,3291,98,0,257,0,0,210,0,0,0,0,0
BB,Barbados,country,Latin America and the Caribbean,13.193887,-59.543198,JP,Japan,country,East Asia and Pacific,36.204824,138.252924,1992,26,0,0,0,0,0,0,0,0,26,0,0,0,0,0,0,0,0,0,0,0,0,0,0
BE,Belgium,country,Europe and Central Asia,50.503887,4.469936,JP,Japan,country,East Asia and Pacific,36.204824,138.252924,1992,51770,28574,424,3199,0,1,102,1110,112,2077,0,193,2960,11056,84,696,0,178,985,19,0,0,0,0
BZ,Belize,country,Latin America and the Caribbean,17.189877,-88.49765,JP,Japan,country,East Asia and Pacific,36.204824,138.252924,1992,0,0,0,0,0,0,0,0,0,0,0,0,0,0,0,0,0,0,0,0,0,0,0,0
BJ,Benin,country,Sub-Saharan Africa,9.30769,2.315834,JP,Japan,country,East Asia and Pacific,36.204824,138.252924,1992,460,0,0,0,0,0,0,0,0,0,0,0,0,0,460,0,0,0,0,0,0,0,0,0
BO,Bolivia,country,Latin America and the Caribbean,-16.290154,-63.588653,JP,Japan,country,East Asia and Pacific,36.204824,138.252924,1992,134,0,0,0,9,0,0,75,14,0,0,0,18,0,0,18,0,0,0,0,0,0,0,0
BW,Botswana,country,Sub-Saharan Africa,-22.328474,24.684866,JP,Japan,country,East Asia and Pacific,36.204824,138.252924,1992,0,0,0,0,0,0,0,0,0,0,0,0,0,0,0,0,0,0,0,0,0,0,0,0
BR,Brazil,country,Latin America and the Caribbean,-14.235004,-51.92528,JP,Japan,country,East Asia and Pacific,36.204824,138.252924,1992,861759,83,2,68,324,90,426888,244,48231,2520,415,188426,94571,21542,3496,1726,0,71881,1143,108,1,0,0,0
CA,Canada,country,North America,56.130366,-106.346771,JP,Japan,country,East Asia and Pacific,36.204824,138.252924,1992,5277763,2645140,17149,4612,15796,0,1796318,1169,1253,0,0,666649,131,550,65059,5353,36,42426,12356,3802,0,0,0,0
CL,Chile,country,Latin America and the Caribbean,-35.675147,-71.542969,JP,Japan,country,East Asia and Pacific,36.204824,138.252924,1992,127811,0,0,1,0,0,0,13735,16198,20,598,81105,3,9833,9,2072,0,4179,58,0,0,0,0,0
HK,Hong Kong,country,East Asia and Pacific,22.396428,114.109497,JP,Japan,country,East Asia and Pacific,36.204824,138.252924,1992,149925,949,1717,486,17182,3957,8653,32286,3351,757,3605,11002,7595,25511,298,32368,0,206,2,0,0,0,0,0
CN,China,country,East Asia and Pacific,35.86166,104.195397,JP,Japan,country,East Asia and Pacific,36.204824,138.252924,1992,4387711,2506446,20950,51034,90766,23872,374311,399360,53264,50325,15697,476715,15566,193288,4216,30023,0,81581,200,97,0,0,0,0
TW,Taiwan,country,East Asia and Pacific,23.69781,120.960515,JP,Japan,country,East Asia and Pacific,36.204824,138.252924,1992,585042,2898,232,1550,74,870,19,112444,92425,7218,2331,124552,4381,8205,845,2732,78,223702,158,24,382,0,0,0
CO,Colombia,country,Latin America and the Caribbean,4.570868,-74.297333,JP,Japan,country,East Asia and Pacific,36.204824,138.252924,1992,67563,2,0,0,0,0,2850,4,0,2,10,0,64681,0,0,14,0,0,0,0,0,0,0,0
CR,Costa Rica,country,Latin America and the Caribbean,9.748917,-83.753428,JP,Japan,country,East Asia and Pacific,36.204824,138.252924,1992,8992,0,0,0,0,10,3,0,5733,0,0,0,3207,0,0,0,0,39,0,0,0,0,0,0
HR,Croatia,country,Europe and Central Asia,45.1,15.2,JP,Japan,country,East Asia and Pacific,36.204824,138.252924,1992,231,0,0,0,0,0,0,0,0,0,0,0,0,0,0,231,0,0,0,0,0,0,0,0
DK,Denmark,country,Europe and Central Asia,56.26392,9.501785,JP,Japan,country,East Asia and Pacific,36.204824,138.252924,1992,295543,113237,21,278,0,0,0,7,10,0,0,453,1115,13,581,242,0,165907,13658,21,0,0,0,0
EC,Ecuador,country,Latin America and the Caribbean,-1.831239,-78.183406,JP,Japan,country,East Asia and Pacific,36.204824,138.252924,1992,163236,0,0,0,0,0,0,0,154469,1080,4,0,7680,3,0,0,0,0,0,0,0,0,0,0
EG,Egypt,country,Middle East and North Africa,26.820553,30.802498,JP,Japan,country,East Asia and Pacific,36.204824,138.252924,1992,6339,0,1,0,0,0,0,84,0,6254,0,0,0,0,0,0,0,0,0,0,0,0,0,0
SV,El Salvador,country,Latin America and the Caribbean,13.794185,-88.89653,JP,Japan,country,East Asia and Pacific,36.204824,138.252924,1992,2998,0,0,0,0,0,118,0,0,0,0,0,2875,0,0,5,0,0,0,0,0,0,0,0
ET,Ethiopia,country,Sub-Saharan Africa,9.145,40.489673,JP,Japan,country,East Asia and Pacific,36.204824,138.252924,1992,17048,0,0,0,0,0,0,0,0,0,0,0,16531,6,0,0,0,0,130,381,0,0,0,0
FI,Finland,country,Europe and Central Asia,61.92411,25.748151,JP,Japan,country,East Asia and Pacific,36.204824,138.252924,1992,12110,1101,0,8345,0,0,0,88,14,0,0,2,523,506,0,67,0,1422,2,40,0,0,0,0
FR,France,country,Europe and Central Asia,46.227638,2.213749,JP,Japan,country,East Asia and Pacific,36.204824,138.252924,1992,258578,99820,107,2498,15,30,21478,1816,2988,9845,42,5780,2969,3756,101,99884,145,3982,2716,751,0,0,0,0
DE,Germany,country,Europe and Central Asia,51.165691,10.451526,JP,Japan,country,East Asia and Pacific,36.204824,138.252924,1992,260764,203908,7,11226,2,73,260,424,417,288,76,1421,5198,6666,5183,16774,10,136,8357,348,0,0,0,0
GR,Greece,country,Europe and Central Asia,39.074208,21.824312,JP,Japan,country,East Asia and Pacific,36.204824,138.252924,1992,28663,0,0,0,0,0,5,607,16380,655,0,0,0,10871,43,98,0,0,0,4,0,0,0,0
GT,Guatemala,country,Latin America and the Caribbean,15.783471,-90.230759,JP,Japan,country,East Asia and Pacific,36.204824,138.252924,1992,17313,0,0,0,0,0,3579,33,0,1917,26,0,11681,72,0,5,0,0,0,0,0,0,0,0
HN,Honduras,country,Latin America and the Caribbean,15.199999,-86.241905,JP,Japan,country,East Asia and Pacific,36.204824,138.252924,1992,18041,0,120,0,0,0,447,0,11113,0,0,0,6337,0,0,0,0,24,0,0,0,0,0,0
HU,Hungary,country,Europe and Central Asia,47.162494,19.503304,JP,Japan,country,East Asia and Pacific,36.204824,138.252924,1992,5873,9,0,238,2304,0,0,163,422,2,105,16,0,0,0,388,0,233,1993,0,0,0,0,0
IS,Iceland,country,Europe and Central Asia,64.963051,-19.020835,JP,Japan,country,East Asia and Pacific,36.204824,138.252924,1992,920,0,0,0,0,0,0,0,0,0,0,765,0,0,0,0,0,155,0,0,0,0,0,0
IN,India,country,South Asia,20.593684,78.96288,JP,Japan,country,East Asia and Pacific,36.204824,138.252924,1992,104358,121,20,0,0,3843,3675,871,1135,14392,4854,56050,8205,794,10279,98,0,21,0,0,0,0,0,0
ID,Indonesia,country,East Asia and Pacific,-0.789275,113.921327,JP,Japan,country,East Asia and Pacific,36.204824,138.252924,1992,417212,14339,1041,84954,0,171,3061,2106,4600,1041,11539,159630,59178,56313,16611,2086,0,539,3,0,0,0,0,0
IE,Ireland,country,Europe and Central Asia,53.41291,-8.24389,JP,Japan,country,East Asia and Pacific,36.204824,138.252924,1992,20285,7869,0,0,0,0,0,18,2,1,0,35,62,1493,8,2634,0,6500,1509,154,0,0,0,0
IT,Italy,country,Europe and Central Asia,41.87194,12.56738,JP,Japan,country,East Asia and Pacific,36.204824,138.252924,1992,81225,45232,1,78,0,942,43,20017,2378,4,4,404,150,1954,3276,5869,0,72,564,237,0,0,0,0
KE,Kenya,country,Sub-Saharan Africa,-0.023559,37.906193,JP,Japan,country,East Asia and Pacific,36.204824,138.252924,1992,5999,0,0,0,0,581,1631,0,0,0,7,0,1283,2388,49,55,0,0,0,5,0,0,0,0
MG,Madagascar,country,Sub-Saharan Africa,-18.766947,46.869107,JP,Japan,country,East Asia and Pacific,36.204824,138.252924,1992,84,0,0,0,0,0,0,0,0,0,45,0,0,0,0,39,0,0,0,0,0,0,0,0
MW,Malawi,country,Sub-Saharan Africa,-13.254308,34.301525,JP,Japan,country,East Asia and Pacific,36.204824,138.252924,1992,14359,0,0,0,0,0,0,0,0,0,0,0,72,14287,0,0,0,0,0,0,0,0,0,0
MY,Malaysia,country,East Asia and Pacific,4.210484,101.975766,JP,Japan,country,East Asia and Pacific,36.204824,138.252924,1992,482650,487,3762,44,0,26,2293,41,12534,1458,4553,765,6230,74436,375340,210,7,189,265,0,17,0,0,0
MU,Mauritius,country,Sub-Saharan Africa,-20.348404,57.552152,JP,Japan,country,East Asia and Pacific,36.204824,138.252924,1992,145,2,0,0,0,0,0,12,3,0,3,0,0,119,0,2,0,2,2,0,0,0,0,0
MX,Mexico,country,Latin America and the Caribbean,23.634501,-102.552784,JP,Japan,country,East Asia and Pacific,36.204824,138.252924,1992,16163,2,0,14,0,0,264,1177,3397,420,30,821,1344,234,0,4396,0,4064,0,0,0,0,0,0
MA,Morocco,country,Middle East and North Africa,31.791702,-7.09262,JP,Japan,country,East Asia and Pacific,36.204824,138.252924,1992,4900,0,0,0,0,0,0,927,0,0,3405,0,0,568,0,0,0,0,0,0,0,0,0,0
NL,Netherlands,country,Europe and Central Asia,52.132633,5.291266,JP,Japan,country,East Asia and Pacific,36.204824,138.252924,1992,59082,17334,1849,212,235,1,176,1127,436,0,18,189,9466,4448,2408,2679,26,520,17931,53,0,0,0,0
NZ,New Zealand,country,East Asia and Pacific,-40.900557,174.885971,JP,Japan,country,East Asia and Pacific,36.204824,138.252924,1992,310504,14670,216,6256,2354,0,14,105180,56111,18513,0,6381,5307,68,994,1301,0,33755,50721,8663,0,0,0,0
NI,Nicaragua,country,Latin America and the Caribbean,12.865416,-85.207229,JP,Japan,country,East Asia and Pacific,36.204824,138.252924,1992,18951,0,0,0,0,0,1277,0,0,17491,0,0,22,0,0,0,0,161,0,0,0,0,0,0
NO,Norway,country,Europe and Central Asia,60.472024,8.468946,JP,Japan,country,East Asia and Pacific,36.204824,138.252924,1992,10154,36,0,0,0,0,0,0,0,0,0,3,0,0,0,928,0,0,9167,20,0,0,0,0
OM,Oman,country,Middle East and North Africa,21.512583,55.923255,JP,Japan,country,East Asia and Pacific,36.204824,138.252924,1992,190,0,0,0,0,0,0,0,190,0,0,0,0,0,0,0,0,0,0,0,0,0,0,0
PK,Pakistan,country,South Asia,30.375321,69.345116,JP,Japan,country,East Asia and Pacific,36.204824,138.252924,1992,81062,8127,0,1,0,0,6213,0,2694,63390,177,0,0,61,0,0,3,0,399,0,0,0,0,0
PA,Panama,country,Latin America and the Caribbean,8.537981,-80.782127,JP,Japan,country,East Asia and Pacific,36.204824,138.252924,1992,2100,0,0,0,0,0,0,0,1996,0,0,0,0,104,0,0,0,0,0,0,0,0,0,0
PG,Papua New Guinea,country,East Asia and Pacific,-6.314993,143.95555,JP,Japan,country,East Asia and Pacific,36.204824,138.252924,1992,26779,0,0,0,0,0,25111,0,0,0,0,518,488,0,0,17,0,0,0,645,0,0,0,0
PY,Paraguay,country,Latin America and the Caribbean,-23.442503,-58.443832,JP,Japan,country,East Asia and Pacific,36.204824,138.252924,1992,3496,0,0,0,0,0,3458,0,0,23,0,0,0,15,0,0,0,0,0,0,0,0,0,0
PE,Peru,country,Latin America and the Caribbean,-9.189967,-75.015152,JP,Japan,country,East Asia and Pacific,36.204824,138.252924,1992,14904,732,0,0,5,0,0,317,22,823,0,0,10939,1930,0,44,0,92,0,0,0,0,0,0
PH,Philippines,country,East Asia and Pacific,12.879721,121.774017,JP,Japan,country,East Asia and Pacific,36.204824,138.252924,1992,1008621,19,172,162628,88,10,18503,5113,756707,5514,10,8491,1492,748,48206,827,0,1,63,29,0,0,0,0
PL,Poland,country,Europe and Central Asia,51.919438,19.145136,JP,Japan,country,East Asia and Pacific,36.204824,138.252924,1992,107327,93275,8122,0,0,0,286,53,0,175,0,0,0,19,0,0,0,442,4911,44,0,0,0,0
PT,Portugal,country,Europe and Central Asia,39.399872,-8.224454,JP,Japan,country,East Asia and Pacific,36.204824,138.252924,1992,5697,0,0,0,443,0,0,4390,0,12,0,0,0,172,1,676,0,3,0,0,0,0,0,0
KR,"Korea, Rep.",country,East Asia and Pacific,35.907757,127.766922,JP,Japan,country,East Asia and Pacific,36.204824,138.252924,1992,272603,54667,267,29958,124,17068,308,10143,7339,1314,629,58515,24290,32581,7249,7758,8,20325,0,68,0,0,0,0
RE,Reunion,country,Sub-Saharan Africa,-21.115141,55.536384,JP,Japan,country,East Asia and Pacific,36.204824,138.252924,1992,23,0,0,0,0,0,0,0,0,0,2,0,0,0,0,21,0,0,0,0,0,0,0,0
RO,Romania,country,Europe and Central Asia,45.943161,24.96676,JP,Japan,country,East Asia and Pacific,36.204824,138.252924,1992,1139,0,0,0,0,0,0,230,0,0,0,0,0,0,0,909,0,0,0,0,0,0,0,0
SN,Senegal,country,Sub-Saharan Africa,14.497401,-14.452362,JP,Japan,country,East Asia and Pacific,36.204824,138.252924,1992,1800,0,0,0,0,0,0,0,0,1730,0,0,0,0,0,0,0,0,0,70,0,0,0,0
RS,Serbia,country,Europe and Central Asia,44.016521,21.005859,JP,Japan,country,East Asia and Pacific,36.204824,138.252924,1992,210,0,0,0,0,0,0,0,0,0,0,0,0,0,0,210,0,0,0,0,0,0,0,0
SG,Singapore,country,East Asia and Pacific,1.352083,103.819836,JP,Japan,country,East Asia and Pacific,36.204824,138.252924,1992,186469,8424,0,1278,34,10,3120,40,10389,4,2220,2530,52347,57881,6110,35009,0,190,6883,0,0,0,0,0
SI,Slovenia,country,Europe and Central Asia,46.151241,14.995463,JP,Japan,country,East Asia and Pacific,36.204824,138.252924,1992,1197,0,0,0,0,0,0,0,0,0,0,4,0,87,0,736,0,0,370,0,0,0,0,0
ZA,S. Africa,country,Sub-Saharan Africa,-30.559482,22.937506,JP,Japan,country,East Asia and Pacific,36.204824,138.252924,1992,0,0,0,0,0,0,0,0,0,0,0,0,0,0,0,0,0,0,0,0,0,0,0,0
ES,Spain,country,Europe and Central Asia,40.463667,-3.74922,JP,Japan,country,East Asia and Pacific,36.204824,138.252924,1992,21682,197,0,1458,4,33,233,1380,5200,641,822,955,1902,370,3368,4853,0,0,157,109,0,0,0,0
LK,Sri Lanka,country,South Asia,7.873054,80.771797,JP,Japan,country,East Asia and Pacific,36.204824,138.252924,1992,9682,0,0,0,0,9,24,285,101,9,35,0,5665,3554,0,0,0,0,0,0,0,0,0,0
SE,Sweden,country,Europe and Central Asia,60.128161,18.643501,JP,Japan,country,East Asia and Pacific,36.204824,138.252924,1992,5210,365,0,3115,0,0,0,316,57,0,0,3,129,285,1,164,0,149,259,367,0,0,0,0
CH,Switzerland,country,Europe and Central Asia,46.818188,8.227512,JP,Japan,country,East Asia and Pacific,36.204824,138.252924,1992,4305,291,0,627,0,0,0,323,369,0,0,19,1643,443,0,192,0,67,331,0,0,0,0,0
SY,Syrian Arab Rep.,country,Middle East and North Africa,34.802075,38.996815,JP,Japan,country,East Asia and Pacific,36.204824,138.252924,1992,9406,0,0,0,0,0,0,0,0,9406,0,0,0,0,0,0,0,0,0,0,0,0,0,0
TH,Thailand,country,East Asia and Pacific,15.870032,100.992541,JP,Japan,country,East Asia and Pacific,36.204824,138.252924,1992,2260647,33804,199912,1015357,26981,10,3214,92638,43708,7974,4213,151974,8171,505025,3981,4318,4,156294,3063,10,0,0,0,0
TT,Trinidad and Tobago,country,Latin America and the Caribbean,10.691803,-61.222503,JP,Japan,country,East Asia and Pacific,36.204824,138.252924,1992,300,0,0,0,0,0,0,0,0,0,0,0,187,0,0,63,0,50,0,0,0,0,0,0
TN,Tunisia,country,Middle East and North Africa,33.886917,9.537499,JP,Japan,country,East Asia and Pacific,36.204824,138.252924,1992,1,0,0,0,0,0,0,0,0,0,1,0,0,0,0,0,0,0,0,0,0,0,0,0
TR,Turkey,country,Europe and Central Asia,38.963745,35.243322,JP,Japan,country,East Asia and Pacific,36.204824,138.252924,1992,37329,12,0,0,0,304,777,22770,951,1150,241,70,0,9070,0,1984,0,0,0,0,0,0,0,0
GB,United Kingdom,country,Europe and Central Asia,55.378051,-3.435973,JP,Japan,country,East Asia and Pacific,36.204824,138.252924,1992,192312,112973,0,976,3299,0,16896,68,626,4078,15,429,1796,874,1165,40460,665,488,7511,658,0,0,0,0
