sourceCode,sourceName,sourceGrouping,sourceRegion,sourceLat,sourceLong,destCode,destName,destGrouping,destRegion,destLat,destLong,distance,year,totalTons,cereals,roots,sugarCrops,pulses,nuts,oilCrops,vegetables,fruits,fibers,spices,fodderCrops,coffeeTea,tobaccoRubber,oilsFats,beverages,livestock,animalMeats,animalProducts,animalHides,nimalOther,pesticides,fertilizers,machinery
AF,Afghanistan,country,South Asia,33.93911,67.709953,JP,Japan,country,East Asia and Pacific,36.204824,138.252924,6283.180182728,1986,904,0,0,0,0,0,0,0,0,0,0,0,0,904,0,0,0,0,0,0,0,0,0,0
AL,Albania,country,Europe and Central Asia,41.153332,20.168331,JP,Japan,country,East Asia and Pacific,36.204824,138.252924,9362.67476048682,1986,69,0,0,0,0,0,0,0,0,0,4,0,0,65,0,0,0,0,0,0,0,0,0,0
DZ,Algeria,country,Middle East and North Africa,28.033886,1.659626,JP,Japan,country,East Asia and Pacific,36.204824,138.252924,11563.4288431421,1986,0,0,0,0,0,0,0,0,0,0,0,0,0,0,0,0,0,0,0,0,0,0,0,0
AG,Antigua & Barbuda,country,Latin America and the Caribbean,17.060816,-61.796428,JP,Japan,country,East Asia and Pacific,36.204824,138.252924,13743.5229849878,1986,0,0,0,0,0,0,0,0,0,0,0,0,0,0,0,0,0,0,0,0,0,0,0,0
AR,Argentina,country,Latin America and the Caribbean,-38.416097,-63.616672,JP,Japan,country,East Asia and Pacific,36.204824,138.252924,18090.252730722,1986,2952052,2857660,0,4784,1388,0,1074,1,168,1111,0,71304,8,1418,241,1496,0,11353,42,4,0,0,0,0
AU,Australia,country,East Asia and Pacific,-25.274398,133.775136,JP,Japan,country,East Asia and Pacific,36.204824,138.252924,6859.99185912851,1986,3840871,2563826,0,510931,1486,227,74446,2754,11841,235939,0,67249,6753,122817,17363,1662,0,163893,39497,20187,0,0,0,0
AT,Austria,country,Europe and Central Asia,47.516231,14.550072,JP,Japan,country,East Asia and Pacific,36.204824,138.252924,9166.61613037669,1986,3790,71,0,77,0,0,0,0,619,0,0,0,1732,347,0,33,0,0,911,0,0,0,0,0
BS,The Bahamas,country,Latin America and the Caribbean,25.03428,-77.39628,JP,Japan,country,East Asia and Pacific,36.204824,138.252924,12259.5844288455,1986,4,0,0,0,0,0,0,0,0,0,0,0,0,0,0,4,0,0,0,0,0,0,0,0
BD,Bangladesh,country,South Asia,23.684994,90.356331,JP,Japan,country,East Asia and Pacific,36.204824,138.252924,4773.96736698547,1986,7603,0,0,0,0,0,0,0,0,4523,0,0,54,2982,0,0,0,0,21,23,0,0,0,0
BB,Barbados,country,Latin America and the Caribbean,13.193887,-59.543198,JP,Japan,country,East Asia and Pacific,36.204824,138.252924,14228.9950150676,1986,161,0,0,0,0,0,0,0,2,159,0,0,0,0,0,0,0,0,0,0,0,0,0,0
BE,Belgium,country,Europe and Central Asia,50.503887,4.469936,JP,Japan,country,East Asia and Pacific,36.204824,138.252924,9375.41858049945,1986,38358,6706,167,179,0,1,0,399,20,5220,0,93,2019,16316,66,83,0,223,6850,0,16,0,0,0
BZ,Belize,country,Latin America and the Caribbean,17.189877,-88.49765,JP,Japan,country,East Asia and Pacific,36.204824,138.252924,12324.0004543956,1986,51,0,0,0,0,0,0,0,0,0,0,0,0,51,0,0,0,0,0,0,0,0,0,0
BJ,Benin,country,Sub-Saharan Africa,9.30769,2.315834,JP,Japan,country,East Asia and Pacific,36.204824,138.252924,13187.738629957,1986,1098,0,0,0,0,0,0,0,0,0,0,0,49,0,1049,0,0,0,0,0,0,0,0,0
BO,Bolivia,country,Latin America and the Caribbean,-16.290154,-63.588653,JP,Japan,country,East Asia and Pacific,36.204824,138.252924,16943.1300067501,1986,109,0,0,0,0,0,0,0,0,0,0,0,109,0,0,0,0,0,0,0,0,0,0,0
BW,Botswana,country,Sub-Saharan Africa,-22.328474,24.684866,JP,Japan,country,East Asia and Pacific,36.204824,138.252924,13527.9410992584,1986,15,0,0,0,0,0,0,0,0,0,0,0,0,14,0,0,0,0,0,1,0,0,0,0
BR,Brazil,country,Latin America and the Caribbean,-14.235004,-51.92528,JP,Japan,country,East Asia and Pacific,36.204824,138.252924,17389.8886348546,1986,481182,6,0,10164,0,56,128186,72,11417,2191,27,104268,89127,107079,2517,2258,0,21855,1887,0,72,0,0,0
VG,British Virgin Islands,country,Latin America and the Caribbean,18.420695,-64.639968,JP,Japan,country,East Asia and Pacific,36.204824,138.252924,13496.3243256814,1986,0,0,0,0,0,0,0,0,0,0,0,0,0,0,0,0,0,0,0,0,0,0,0,0
BN,Brunei Darussalam,country,,4.535277,114.727669,JP,Japan,country,East Asia and Pacific,36.204824,138.252924,4269.1223572903,1986,204,204,0,0,0,0,0,0,0,0,0,0,0,0,0,0,0,0,0,0,0,0,0,0
BG,Bulgaria,country,Europe and Central Asia,42.733883,25.48583,JP,Japan,country,East Asia and Pacific,36.204824,138.252924,8919.68832970306,1986,4083,0,0,0,0,0,0,499,298,84,0,0,0,409,0,2744,0,0,49,0,0,0,0,0
BF,Burkina Faso,country,Sub-Saharan Africa,12.238333,-1.561593,JP,Japan,country,East Asia and Pacific,36.204824,138.252924,13191.8595412222,1986,813,0,0,0,0,0,613,0,0,0,0,0,0,0,200,0,0,0,0,0,0,0,0,0
BI,Burundi,country,Sub-Saharan Africa,-3.373056,29.918886,JP,Japan,country,East Asia and Pacific,36.204824,138.252924,11882.9317190369,1986,382,0,0,0,0,0,0,0,0,0,0,0,382,0,0,0,0,0,0,0,0,0,0,0
KH,Cambodia,country,East Asia and Pacific,12.565679,104.990963,JP,Japan,country,East Asia and Pacific,36.204824,138.252924,4239.97422183195,1986,183,0,0,0,0,0,0,0,0,0,0,0,0,183,0,0,0,0,0,0,0,0,0,0
CM,Cameroon,country,Sub-Saharan Africa,7.369722,12.354722,JP,Japan,country,East Asia and Pacific,36.204824,138.252924,12597.9841879944,1986,11521,0,0,0,0,0,0,0,0,4979,0,0,6529,13,0,0,0,0,0,0,0,0,0,0
CA,Canada,country,North America,56.130366,-106.346771,JP,Japan,country,East Asia and Pacific,36.204824,138.252924,8091.76666885355,1986,5224735,2426732,7889,1799,8688,0,1500635,868,1758,772,0,516087,53,663558,44881,3450,16,32000,9284,6281,0,0,0,0
KY,Cayman Islands,country,Latin America and the Caribbean,19.513469,-80.566956,JP,Japan,country,East Asia and Pacific,36.204824,138.252924,12610.5800985492,1986,3,0,0,0,0,0,0,0,0,0,0,0,0,0,3,0,0,0,0,0,0,0,0,0
CF,Central African Rep.,country,Sub-Saharan Africa,6.611111,20.939444,JP,Japan,country,East Asia and Pacific,36.204824,138.252924,11960.7329583865,1986,2169,0,0,0,0,0,0,0,0,2120,0,0,19,30,0,0,0,0,0,0,0,0,0,0
TD,Chad,country,Sub-Saharan Africa,15.454166,18.732207,JP,Japan,country,East Asia and Pacific,36.204824,138.252924,11471.6283546104,1986,1386,0,0,0,0,0,0,0,0,1386,0,0,0,0,0,0,0,0,0,0,0,0,0,0
CL,Chile,country,Latin America and the Caribbean,-35.675147,-71.542969,JP,Japan,country,East Asia and Pacific,36.204824,138.252924,17362.0430059053,1986,130983,0,0,7,0,0,0,3299,1148,56,0,114221,0,10717,0,1399,0,81,55,0,0,0,0,0
HK,Hong Kong,country,East Asia and Pacific,22.396428,114.109497,JP,Japan,country,East Asia and Pacific,36.204824,138.252924,2790.06002661141,1986,1766309,91,0,18,86,0,1018,267,58,1829,78,6311,93,1754022,4,2277,0,157,0,0,0,0,0,0
MO,"Macao SAR, China",country,East Asia and Pacific,22.198745,113.543873,JP,Japan,country,East Asia and Pacific,36.204824,138.252924,2849.269236333,1986,103,0,0,0,0,0,0,0,0,4,0,0,0,99,0,0,0,0,0,0,0,0,0,0
CN,China,country,East Asia and Pacific,35.86166,104.195397,JP,Japan,country,East Asia and Pacific,36.204824,138.252924,3050.17107828729,1986,45140224,3277553,560,32160,49141,39274,464551,154230,11174,146813,13011,450192,12048,40442546,11623,6502,6,25981,1901,964,0,0,0,0
TW,Taiwan,country,East Asia and Pacific,23.69781,120.960515,JP,Japan,country,East Asia and Pacific,36.204824,138.252924,2166.30779012163,1986,1905631,3284,92,48440,858,5,261,215851,117586,2425,14898,105835,12718,1290642,1076,1849,0,89503,106,3,199,0,0,0
CO,Colombia,country,Latin America and the Caribbean,4.570868,-74.297333,JP,Japan,country,East Asia and Pacific,36.204824,138.252924,14373.4001368361,1986,50310,0,0,50,0,0,18,15,4557,3000,0,0,42298,294,0,0,0,72,0,6,0,0,0,0
KM,Comoros,country,Sub-Saharan Africa,-11.875001,43.872219,JP,Japan,country,East Asia and Pacific,36.204824,138.252924,11185.1897463702,1986,2,0,0,0,0,0,0,0,0,0,0,0,0,2,0,0,0,0,0,0,0,0,0,0
CG,"Congo, Rep.",country,Sub-Saharan Africa,-0.228021,15.827659,JP,Japan,country,East Asia and Pacific,36.204824,138.252924,12889.2447743235,1986,5,0,0,0,0,0,0,0,0,0,0,0,0,5,0,0,0,0,0,0,0,0,0,0
CK,Cook Islands,country,East Asia and Pacific,-21.236736,-159.777671,JP,Japan,country,East Asia and Pacific,36.204824,138.252924,9126.11920693926,1986,112,0,0,0,0,0,0,0,0,0,0,0,0,112,0,0,0,0,0,0,0,0,0,0
CR,Costa Rica,country,Latin America and the Caribbean,9.748917,-83.753428,JP,Japan,country,East Asia and Pacific,36.204824,138.252924,13291.6202972089,1986,1995159,0,0,0,0,0,0,0,0,0,0,0,2478,1992552,0,0,0,129,0,0,0,0,0,0
CI,Ivory Coast,country,Sub-Saharan Africa,7.539989,-5.54708,JP,Japan,country,East Asia and Pacific,36.204824,138.252924,13871.6786958923,1986,22824,0,0,0,0,0,0,0,0,5362,0,0,11001,6003,458,0,0,0,0,0,0,0,0,0
CU,Cuba,country,Latin America and the Caribbean,21.521757,-77.781167,JP,Japan,country,East Asia and Pacific,36.204824,138.252924,12576.3638581276,1986,579283,0,0,577015,0,0,0,0,645,0,0,0,1561,12,0,43,0,7,0,0,0,0,0,0
CY,Cyprus,country,Europe and Central Asia,35.126413,33.429859,JP,Japan,country,East Asia and Pacific,36.204824,138.252924,8922.56110404362,1986,341,0,0,0,0,0,0,0,0,0,0,0,0,298,0,43,0,0,0,0,0,0,0,0
CZ,Czech Republic,country,Europe and Central Asia,49.817492,15.472962,JP,Japan,country,East Asia and Pacific,36.204824,138.252924,8933.13048344174,1986,46748,34205,0,0,0,0,0,16,2,1,0,0,7,1384,0,129,0,0,11004,0,0,0,0,0
KP,"Korea, Dem. Rep.",country,East Asia and Pacific,40.339852,127.510093,JP,Japan,country,East Asia and Pacific,36.204824,138.252924,1044.63145122605,1986,6586,0,0,27,389,86,0,2457,5,945,75,0,0,2534,0,66,0,2,0,0,0,0,0,0
CD,"Congo, Dem. Rep.",country,Sub-Saharan Africa,-4.038333,21.758664,JP,Japan,country,East Asia and Pacific,36.204824,138.252924,12648.1503628369,1986,563,0,0,0,0,0,0,0,0,0,0,0,558,5,0,0,0,0,0,0,0,0,0,0
DK,Denmark,country,Europe and Central Asia,56.26392,9.501785,JP,Japan,country,East Asia and Pacific,36.204824,138.252924,8664.71183472864,1986,171316,12995,0,1206,0,0,0,0,48,0,0,0,151,57666,270,643,0,88161,10176,0,0,0,0,0
DM,Dominica,country,Latin America and the Caribbean,15.414999,-61.370976,JP,Japan,country,East Asia and Pacific,36.204824,138.252924,13931.4485094987,1986,243,0,0,0,0,0,0,0,0,0,0,0,243,0,0,0,0,0,0,0,0,0,0,0
DO,Dominican Republic,country,Latin America and the Caribbean,18.735693,-70.162651,JP,Japan,country,East Asia and Pacific,36.204824,138.252924,13229.1757100189,1986,0,0,0,0,0,0,0,0,0,0,0,0,0,0,0,0,0,0,0,0,0,0,0,0
EC,Ecuador,country,Latin America and the Caribbean,-1.831239,-78.183406,JP,Japan,country,East Asia and Pacific,36.204824,138.252924,14682.054333694,1986,63238,0,0,0,0,0,0,0,57043,458,0,0,5665,38,0,0,0,0,0,34,0,0,0,0
EG,Egypt,country,Middle East and North Africa,26.820553,30.802498,JP,Japan,country,East Asia and Pacific,36.204824,138.252924,9696.1079625791,1986,26403,0,0,0,0,0,19,130,0,26232,0,0,0,22,0,0,0,0,0,0,0,0,0,0
SV,El Salvador,country,Latin America and the Caribbean,13.794185,-88.89653,JP,Japan,country,East Asia and Pacific,36.204824,138.252924,12588.6312198778,1986,10823,0,0,0,0,0,1489,0,0,2866,0,0,6438,0,0,0,0,0,0,30,0,0,0,0
ET,Ethiopia,country,Sub-Saharan Africa,9.145,40.489673,JP,Japan,country,East Asia and Pacific,36.204824,138.252924,10106.3560024324,1986,8782,0,0,0,0,0,0,0,0,715,0,297,6954,0,0,0,0,40,184,592,0,0,0,0
FK,Falkland Islands,country,,-51.796253,-59.523613,JP,Japan,country,East Asia and Pacific,36.204824,138.252924,17805.217540199,1986,71,0,0,0,0,0,0,0,0,71,0,0,0,0,0,0,0,0,0,0,0,0,0,0
FJ,Fiji,country,East Asia and Pacific,-16.578193,179.414413,JP,Japan,country,East Asia and Pacific,36.204824,138.252924,7298.36585683368,1986,32816,0,0,31403,0,0,0,2,82,0,0,1157,0,172,0,0,0,0,0,0,0,0,0,0
FI,Finland,country,Europe and Central Asia,61.92411,25.748151,JP,Japan,country,East Asia and Pacific,36.204824,138.252924,7561.46476705014,1986,6617,552,0,3074,0,0,0,0,1,0,0,0,540,334,0,26,0,674,1416,0,0,0,0,0
FR,France,country,Europe and Central Asia,46.227638,2.213749,JP,Japan,country,East Asia and Pacific,36.204824,138.252924,9861.13829749916,1986,3518838,38898,47,3869,0,29,299,388,1832,8684,66,1377,1774,3428754,114,26113,68,2968,3538,88,0,0,0,0
GH,Ghana,country,Sub-Saharan Africa,7.946527,-1.023194,JP,Japan,country,East Asia and Pacific,36.204824,138.252924,13536.5191108546,1986,24090,0,0,0,0,0,0,0,0,0,0,0,24090,0,0,0,0,0,0,0,0,0,0,0
GR,Greece,country,Europe and Central Asia,39.074208,21.824312,JP,Japan,country,East Asia and Pacific,36.204824,138.252924,9421.49654129133,1986,15736,23,0,2525,0,0,0,2555,6378,0,11,0,1,4020,1,33,0,0,0,189,0,0,0,0
GL,Greenland,country,Europe and Central Asia,71.706936,-42.604303,JP,Japan,country,East Asia and Pacific,36.204824,138.252924,8024.63616320793,1986,6,0,0,0,0,0,0,0,0,0,0,0,0,1,0,5,0,0,0,0,0,0,0,0
GD,Grenada,country,Latin America and the Caribbean,12.262776,-61.604171,JP,Japan,country,East Asia and Pacific,36.204824,138.252924,14252.942446543,1986,46,0,0,0,0,0,0,0,0,0,0,0,46,0,0,0,0,0,0,0,0,0,0,0
GU,Guam,country,East Asia and Pacific,13.444304,144.793731,JP,Japan,country,East Asia and Pacific,36.204824,138.252924,2616.62204167965,1986,1,0,0,0,0,0,0,0,0,0,0,0,1,0,0,0,0,0,0,0,0,0,0,0
GT,Guatemala,country,Latin America and the Caribbean,15.783471,-90.230759,JP,Japan,country,East Asia and Pacific,36.204824,138.252924,12326.7633794206,1986,1662649,0,0,0,0,0,2942,0,0,8630,33,0,8606,1642388,0,0,0,48,0,2,0,0,0,0
HT,Haiti,country,Latin America and the Caribbean,18.971187,-72.285215,JP,Japan,country,East Asia and Pacific,36.204824,138.252924,13104.9638022615,1986,537,0,0,0,0,0,0,0,0,0,0,0,509,28,0,0,0,0,0,0,0,0,0,0
HN,Honduras,country,Latin America and the Caribbean,15.199999,-86.241905,JP,Japan,country,East Asia and Pacific,36.204824,138.252924,12647.4763789551,1986,151378,0,0,0,0,0,382,0,1133,164,0,0,19126,130573,0,0,0,0,0,0,0,0,0,0
HU,Hungary,country,Europe and Central Asia,47.162494,19.503304,JP,Japan,country,East Asia and Pacific,36.204824,138.252924,8934.04871790706,1986,9727,0,0,686,836,0,182,221,479,28,855,0,0,4208,0,258,46,505,1469,0,0,0,0,0
IS,Iceland,country,Europe and Central Asia,64.963051,-19.020835,JP,Japan,country,East Asia and Pacific,36.204824,138.252924,8602.70359236856,1986,1705,0,0,0,0,0,8,0,0,16,0,64,0,156,0,0,0,1461,0,0,0,0,0,0
IN,India,country,South Asia,20.593684,78.96288,JP,Japan,country,East Asia and Pacific,36.204824,138.252924,5965.97997747552,1986,87219,15,0,0,0,3112,37,475,31,23355,4169,1035,4994,47190,2745,41,0,20,0,0,0,0,0,0
ID,Indonesia,country,East Asia and Pacific,-0.789275,113.921327,JP,Japan,country,East Asia and Pacific,36.204824,138.252924,4827.02443872358,1986,416917,4223,0,154364,0,250,8960,51,0,649,1593,100849,50469,88075,7243,113,0,1,6,71,0,0,0,0
IR,Iran,country,Middle East and North Africa,32.427908,53.688046,JP,Japan,country,East Asia and Pacific,36.204824,138.252924,7523.93653191863,1986,1497,0,0,0,0,623,0,3,2,0,751,0,0,115,0,0,0,0,0,3,0,0,0,0
IQ,Iraq,country,Middle East and North Africa,33.223191,43.679291,JP,Japan,country,East Asia and Pacific,36.204824,138.252924,8276.30545596119,1986,1653,0,0,0,0,0,0,0,1653,0,0,0,0,0,0,0,0,0,0,0,0,0,0,0
IE,Ireland,country,Europe and Central Asia,53.41291,-8.24389,JP,Japan,country,East Asia and Pacific,36.204824,138.252924,9551.2243151296,1986,9793,1703,0,10,0,0,0,0,0,0,0,63,123,1488,0,278,0,5168,960,0,0,0,0,0
IL,Israel,country,Middle East and North Africa,31.046051,34.851612,JP,Japan,country,East Asia and Pacific,36.204824,138.252924,9094.53196820569,1986,403347,0,0,2,0,2,0,217,6538,174,0,0,3,395105,0,8,0,37,1261,0,0,0,0,0
IT,Italy,country,Europe and Central Asia,41.87194,12.56738,JP,Japan,country,East Asia and Pacific,36.204824,138.252924,9739.59490027946,1986,648740,33672,0,33,0,291,6,7067,1788,10,4,70,101,602356,1111,1873,0,11,331,16,0,0,0,0
JM,Jamaica,country,Latin America and the Caribbean,18.109581,-77.297508,JP,Japan,country,East Asia and Pacific,36.204824,138.252924,12927.3431063077,1986,1805,0,0,0,0,0,0,0,0,0,86,0,1180,4,0,535,0,0,0,0,0,0,0,0
KE,Kenya,country,Sub-Saharan Africa,-0.023559,37.906193,JP,Japan,country,East Asia and Pacific,36.204824,138.252924,10947.9371057567,1986,26066,13853,0,0,0,353,0,0,0,0,0,0,574,11254,10,0,0,0,22,0,0,0,0,0
LB,Lebanon,country,Middle East and North Africa,33.854721,35.862285,JP,Japan,country,East Asia and Pacific,36.204824,138.252924,8830.20793287448,1986,0,0,0,0,0,0,0,0,0,0,0,0,0,0,0,0,0,0,0,0,0,0,0,0
MG,Madagascar,country,Sub-Saharan Africa,-18.766947,46.869107,JP,Japan,country,East Asia and Pacific,36.204824,138.252924,11358.3068519105,1986,3304,0,0,0,0,0,0,0,0,0,109,0,1658,1537,0,0,0,0,0,0,0,0,0,0
MW,Malawi,country,Sub-Saharan Africa,-13.254308,34.301525,JP,Japan,country,East Asia and Pacific,36.204824,138.252924,12128.56732402,1986,3525,0,0,0,0,0,0,0,0,0,0,0,0,3525,0,0,0,0,0,0,0,0,0,0
MY,Malaysia,country,East Asia and Pacific,4.210484,101.975766,JP,Japan,country,East Asia and Pacific,36.204824,138.252924,5143.2143318209,1986,357886,14,16451,24,0,26,9216,0,3411,396,3901,74,4162,110636,209552,0,0,0,0,23,0,0,0,0
MV,Maldives,country,South Asia,3.202778,73.22068,JP,Japan,country,East Asia and Pacific,36.204824,138.252924,7580.27549651898,1986,2,0,0,0,0,0,0,0,0,0,0,0,0,2,0,0,0,0,0,0,0,0,0,0
ML,Mali,country,Sub-Saharan Africa,17.570692,-3.996166,JP,Japan,country,East Asia and Pacific,36.204824,138.252924,12853.2808045785,1986,1049,0,0,0,0,0,0,0,0,0,0,0,0,0,1049,0,0,0,0,0,0,0,0,0
MT,Malta,country,Middle East and North Africa,35.937496,14.375416,JP,Japan,country,East Asia and Pacific,36.204824,138.252924,10130.4167210413,1986,41,0,0,0,0,0,0,0,0,0,0,0,0,0,0,41,0,0,0,0,0,0,0,0
MU,Mauritius,country,Sub-Saharan Africa,-20.348404,57.552152,JP,Japan,country,East Asia and Pacific,36.204824,138.252924,10549.6544726242,1986,5,0,0,0,0,0,0,0,0,0,0,0,0,3,0,2,0,0,0,0,0,0,0,0
MX,Mexico,country,Latin America and the Caribbean,23.634501,-102.552784,JP,Japan,country,East Asia and Pacific,36.204824,138.252924,10810.2301635132,1986,55739,0,0,67,0,0,3358,10874,3926,24239,31,24,4788,2531,0,205,0,5696,0,0,0,0,0,0
MC,Monaco,country,Europe and Central Asia,43.750298,7.412841,JP,Japan,country,East Asia and Pacific,36.204824,138.252924,9844.69748105774,1986,0,0,0,0,0,0,0,0,0,0,0,0,0,0,0,0,0,0,0,0,0,0,0,0
MN,Mongolia,country,East Asia and Pacific,46.862496,103.846656,JP,Japan,country,East Asia and Pacific,36.204824,138.252924,3072.10798165946,1986,536,95,0,0,0,0,0,0,0,177,0,219,0,45,0,0,0,0,0,0,0,0,0,0
MA,Morocco,country,Middle East and North Africa,31.791702,-7.09262,JP,Japan,country,East Asia and Pacific,36.204824,138.252924,11650.0917676843,1986,3590,0,0,0,0,0,0,807,3,0,2639,0,0,141,0,0,0,0,0,0,0,0,0,0
MZ,Mozambique,country,Sub-Saharan Africa,-18.665695,35.529562,JP,Japan,country,East Asia and Pacific,36.204824,138.252924,12349.9353844953,1986,1,0,0,0,0,0,0,0,0,0,0,0,0,1,0,0,0,0,0,0,0,0,0,0
MM,Myanmar,country,East Asia and Pacific,21.913965,95.956223,JP,Japan,country,East Asia and Pacific,36.204824,138.252924,4371.53379602396,1986,26620,0,0,0,24222,0,0,6,0,452,0,0,0,1933,0,0,0,0,0,7,0,0,0,0
NA,Namibia,country,Sub-Saharan Africa,-22.95764,18.49041,JP,Japan,country,East Asia and Pacific,36.204824,138.252924,14116.8861243141,1986,0,0,0,0,0,0,0,0,0,0,0,0,0,0,0,0,0,0,0,0,0,0,0,0
NP,Nepal,country,South Asia,28.394857,84.124008,JP,Japan,country,East Asia and Pacific,36.204824,138.252924,5101.4332242701,1986,477,0,0,0,0,0,0,0,0,0,0,0,0,13,464,0,0,0,0,0,0,0,0,0
NL,Netherlands,country,Europe and Central Asia,52.132633,5.291266,JP,Japan,country,East Asia and Pacific,36.204824,138.252924,9195.35225352267,1986,7553917,8098,1969,32241,229,0,99,447,237,0,12,220,11560,7479398,1868,1098,74,188,14800,1393,60,0,0,0
NC,New Caledonia,country,East Asia and Pacific,-20.904305,165.618042,JP,Japan,country,East Asia and Pacific,36.204824,138.252924,6979.46176793118,1986,58,0,0,0,0,0,0,0,0,0,0,0,0,58,0,0,0,0,0,0,0,0,0,0
NZ,New Zealand,country,East Asia and Pacific,-40.900557,174.885971,JP,Japan,country,East Asia and Pacific,36.204824,138.252924,9362.64636961408,1986,588226,46842,34,5128,2107,0,2589,61104,34354,28146,0,21894,6876,259798,703,251,0,50426,62943,5031,0,0,0,0
NI,Nicaragua,country,Latin America and the Caribbean,12.865416,-85.207229,JP,Japan,country,East Asia and Pacific,36.204824,138.252924,12920.8930617658,1986,33286,0,0,0,0,0,758,0,0,29069,0,0,3362,33,0,0,0,64,0,0,0,0,0,0
NE,Niger,country,Sub-Saharan Africa,17.607789,8.081666,JP,Japan,country,East Asia and Pacific,36.204824,138.252924,12079.1589883354,1986,0,0,0,0,0,0,0,0,0,0,0,0,0,0,0,0,0,0,0,0,0,0,0,0
NG,Nigeria,country,Sub-Saharan Africa,9.081999,8.675277,JP,Japan,country,East Asia and Pacific,36.204824,138.252924,12744.1662676694,1986,233,0,0,0,0,2,0,0,0,0,0,0,200,31,0,0,0,0,0,0,0,0,0,0
NO,Norway,country,Europe and Central Asia,60.472024,8.468946,JP,Japan,country,East Asia and Pacific,36.204824,138.252924,8344.6121931756,1986,6838,234,0,0,0,0,0,0,0,0,0,150,4,1594,29,114,0,592,4121,0,0,0,0,0
OM,Oman,country,Middle East and North Africa,21.512583,55.923255,JP,Japan,country,East Asia and Pacific,36.204824,138.252924,7962.72854447021,1986,5,0,0,0,0,0,0,0,0,0,0,0,0,5,0,0,0,0,0,0,0,0,0,0
PK,Pakistan,country,South Asia,30.375321,69.345116,JP,Japan,country,East Asia and Pacific,36.204824,138.252924,6310.43555597532,1986,111023,1,0,0,0,1,274,0,2,103408,459,91,0,6787,0,0,0,0,0,0,0,0,0,0
PA,Panama,country,Latin America and the Caribbean,8.537981,-80.782127,JP,Japan,country,East Asia and Pacific,36.204824,138.252924,13597.6637557309,1986,5,0,0,0,0,0,0,0,0,0,0,0,0,0,0,5,0,0,0,0,0,0,0,0
PG,Papua New Guinea,country,East Asia and Pacific,-6.314993,143.95555,JP,Japan,country,East Asia and Pacific,36.204824,138.252924,4770.62341495119,1986,48756,0,0,0,0,0,47947,0,0,0,0,0,508,290,0,0,0,0,0,11,0,0,0,0
PY,Paraguay,country,Latin America and the Caribbean,-23.442503,-58.443832,JP,Japan,country,East Asia and Pacific,36.204824,138.252924,17894.4827453123,1986,8659,0,0,0,0,0,8636,0,0,0,0,0,1,17,0,0,0,0,0,5,0,0,0,0
PE,Peru,country,Latin America and the Caribbean,-9.189967,-75.015152,JP,Japan,country,East Asia and Pacific,36.204824,138.252924,15528.4619541812,1986,20119,1076,0,0,0,0,0,9,21,2342,0,0,15269,1402,0,0,0,0,0,0,0,0,0,0
PH,Philippines,country,East Asia and Pacific,12.879721,121.774017,JP,Japan,country,East Asia and Pacific,36.204824,138.252924,3075.73619699701,1986,1652372,2,0,169371,0,141,18399,2511,774097,4840,0,3640,1520,653935,22870,635,0,411,0,0,0,0,0,0
PL,Poland,country,Europe and Central Asia,51.919438,19.145136,JP,Japan,country,East Asia and Pacific,36.204824,138.252924,8585.36265168796,1986,36255,27040,0,15,0,0,0,73,57,0,0,421,4,858,0,210,0,0,7537,40,0,0,0,0
PT,Portugal,country,Europe and Central Asia,39.399872,-8.224454,JP,Japan,country,East Asia and Pacific,36.204824,138.252924,10946.1966061878,1986,10010,0,0,0,1186,0,0,6404,48,24,0,0,2,838,0,1508,0,0,0,0,0,0,0,0
KR,"Korea, Rep.",country,East Asia and Pacific,35.907757,127.766922,JP,Japan,country,East Asia and Pacific,36.204824,138.252924,943.807690475197,1986,168091,1639,102,1931,0,1316,12,5689,24921,1406,662,13648,1635,105707,4748,3232,0,1093,0,0,350,0,0,0
RE,Reunion,country,Sub-Saharan Africa,-21.115141,55.536384,JP,Japan,country,East Asia and Pacific,36.204824,138.252924,10768.9957628981,1986,0,0,0,0,0,0,0,0,0,0,0,0,0,0,0,0,0,0,0,0,0,0,0,0
RO,Romania,country,Europe and Central Asia,45.943161,24.96676,JP,Japan,country,East Asia and Pacific,36.204824,138.252924,8717.07639116952,1986,1183,0,0,50,0,0,0,40,17,23,0,0,0,3,0,759,0,209,82,0,0,0,0,0
RW,Rwanda,country,Sub-Saharan Africa,-1.940278,29.873888,JP,Japan,country,East Asia and Pacific,36.204824,138.252924,11790.8178114398,1986,428,0,0,0,0,0,0,0,0,0,0,0,428,0,0,0,0,0,0,0,0,0,0,0
VC,St. Vincent & Grenadines,country,Latin America and the Caribbean,12.984305,-61.287228,JP,Japan,country,East Asia and Pacific,36.204824,138.252924,14189.3679851117,1986,0,0,0,0,0,0,0,0,0,0,0,0,0,0,0,0,0,0,0,0,0,0,0,0
WS,Samoa,country,East Asia and Pacific,-13.759029,-172.104629,JP,Japan,country,East Asia and Pacific,36.204824,138.252924,7621.68911293582,1986,99,0,0,0,0,0,0,0,0,0,0,99,0,0,0,0,0,0,0,0,0,0,0,0
SN,Senegal,country,Sub-Saharan Africa,14.497401,-14.452362,JP,Japan,country,East Asia and Pacific,36.204824,138.252924,13705.4678671087,1986,1929,0,0,0,0,0,0,0,0,1921,0,0,0,8,0,0,0,0,0,0,0,0,0,0
SG,Singapore,country,East Asia and Pacific,1.352083,103.819836,JP,Japan,country,East Asia and Pacific,36.204824,138.252924,5255.66692867614,1986,164173,457,0,33,0,0,0,0,0,0,133,22,11484,142553,1397,8088,0,0,0,6,0,0,0,0
SB,Solomon Islands,country,East Asia and Pacific,-9.64571,160.156194,JP,Japan,country,East Asia and Pacific,36.204824,138.252924,5596.54060164651,1986,12146,0,0,0,0,0,11580,0,0,0,0,0,0,566,0,0,0,0,0,0,0,0,0,0
SO,Somalia,country,Sub-Saharan Africa,5.152149,46.199616,JP,Japan,country,East Asia and Pacific,36.204824,138.252924,9864.07726313018,1986,0,0,0,0,0,0,0,0,0,0,0,0,0,0,0,0,0,0,0,0,0,0,0,0
ZA,S. Africa,country,Sub-Saharan Africa,-30.559482,22.937506,JP,Japan,country,East Asia and Pacific,36.204824,138.252924,14102.6171157721,1986,1752214,1327276,0,331913,298,0,4699,227,24239,2563,7,765,83,49482,0,1761,0,3,8523,375,0,0,0,0
ES,Spain,country,Europe and Central Asia,40.463667,-3.74922,JP,Japan,country,East Asia and Pacific,36.204824,138.252924,10660.5609647911,1986,173702,199,24,474,0,43,0,969,1161,0,1288,120,32,163201,1192,4663,0,290,16,30,0,0,0,0
LK,Sri Lanka,country,South Asia,7.873054,80.771797,JP,Japan,country,East Asia and Pacific,36.204824,138.252924,6600.83867955461,1986,85348,0,0,0,0,8,12,0,133,0,40,43956,4036,37163,0,0,0,0,0,0,0,0,0,0
SD,Sudan,country,Sub-Saharan Africa,12.862807,30.217636,JP,Japan,country,East Asia and Pacific,36.204824,138.252924,10734.9827289386,1986,17284,0,0,0,0,0,0,0,0,15841,10,95,0,1333,0,0,0,0,0,5,0,0,0,0
SR,Suriname,country,Latin America and the Caribbean,3.919305,-56.027783,JP,Japan,country,East Asia and Pacific,36.204824,138.252924,15330.0475936758,1986,6,0,0,0,0,0,0,0,0,0,0,0,6,0,0,0,0,0,0,0,0,0,0,0
SZ,Swaziland,country,Sub-Saharan Africa,-26.522503,31.465866,JP,Japan,country,East Asia and Pacific,36.204824,138.252924,13156.0547783061,1986,2,0,0,0,0,0,0,0,0,0,0,0,0,2,0,0,0,0,0,0,0,0,0,0
SE,Sweden,country,Europe and Central Asia,60.128161,18.643501,JP,Japan,country,East Asia and Pacific,36.204824,138.252924,7984.04668722803,1986,48190,173,50,4270,0,0,35144,758,2,0,0,0,4,2233,0,23,0,4148,1370,15,0,0,0,0
CH,Switzerland,country,Europe and Central Asia,46.818188,8.227512,JP,Japan,country,East Asia and Pacific,36.204824,138.252924,9536.18437813669,1986,13912,325,0,1224,0,1,0,326,270,0,0,101,2045,2326,0,100,0,31,7147,16,0,0,0,0
SY,Syrian Arab Rep.,country,Middle East and North Africa,34.802075,38.996815,JP,Japan,country,East Asia and Pacific,36.204824,138.252924,8534.93324271182,1986,5427,0,0,0,0,0,0,0,0,5414,0,0,0,13,0,0,0,0,0,0,0,0,0,0
TH,Thailand,country,East Asia and Pacific,15.870032,100.992541,JP,Japan,country,East Asia and Pacific,36.204824,138.252924,4320.00069575782,1986,3890645,112634,256360,634575,56843,7,22943,11007,22921,1094,20617,46644,445,2632573,6051,2121,0,63679,7,124,0,0,0,0
TG,Togo,country,Sub-Saharan Africa,8.619543,0.824782,JP,Japan,country,East Asia and Pacific,36.204824,138.252924,13350.9417167677,1986,7465,0,0,0,0,0,4854,0,0,2609,0,0,0,2,0,0,0,0,0,0,0,0,0,0
TO,Tonga,country,East Asia and Pacific,-21.178986,-175.198242,JP,Japan,country,East Asia and Pacific,36.204824,138.252924,8048.22781679113,1986,20,0,0,0,0,0,0,0,0,0,0,0,0,20,0,0,0,0,0,0,0,0,0,0
TT,Trinidad and Tobago,country,Latin America and the Caribbean,10.691803,-61.222503,JP,Japan,country,East Asia and Pacific,36.204824,138.252924,14431.3657483464,1986,49,0,0,4,0,0,0,0,0,0,0,0,45,0,0,0,0,0,0,0,0,0,0,0
TN,Tunisia,country,Middle East and North Africa,33.886917,9.537499,JP,Japan,country,East Asia and Pacific,36.204824,138.252924,10591.1639660583,1986,0,0,0,0,0,0,0,0,0,0,0,0,0,0,0,0,0,0,0,0,0,0,0,0
TR,Turkey,country,Europe and Central Asia,38.963745,35.243322,JP,Japan,country,East Asia and Pacific,36.204824,138.252924,8537.2610571626,1986,19940,32,0,0,0,0,508,11881,380,1129,287,0,1,5688,0,20,0,14,0,0,0,0,0,0
UG,Uganda,country,Sub-Saharan Africa,1.373333,32.290275,JP,Japan,country,East Asia and Pacific,36.204824,138.252924,11353.1337668166,1986,5461,0,0,0,0,0,0,0,0,0,0,0,5448,13,0,0,0,0,0,0,0,0,0,0
AE,United Arab Emirates,country,Middle East and North Africa,23.424076,53.847818,JP,Japan,country,East Asia and Pacific,36.204824,138.252924,8028.53645683057,1986,55,0,0,0,0,0,0,0,0,0,49,0,0,0,0,0,0,0,0,6,0,0,0,0
GB,United Kingdom,country,Europe and Central Asia,55.378051,-3.435973,JP,Japan,country,East Asia and Pacific,36.204824,138.252924,9210.72985386697,1986,182850,71775,0,1608,7510,0,32,5,386,3571,7,87,1764,51912,127,38702,151,716,4360,288,0,0,0,0
TZ,Tanzania,country,Sub-Saharan Africa,-6.369028,34.888822,JP,Japan,country,East Asia and Pacific,36.204824,138.252924,11636.1896727597,1986,4731,0,0,0,0,0,0,0,0,9,120,0,3495,1081,0,0,0,0,26,0,0,0,0,0
US,USA,country,North America,37.09024,-95.712891,JP,Japan,country,East Asia and Pacific,36.204824,138.252924,10161.8071431089,1986,44118636,14660152,75338,12237,33547,2932,4359802,67589,504939,215931,109,1420169,6286,22207161,94521,24784,442,235416,15866,181320,537,0,0,0
UY,Uruguay,country,Latin America and the Caribbean,-32.522779,-55.765835,JP,Japan,country,East Asia and Pacific,36.204824,138.252924,18687.1619801919,1986,23701,0,0,0,0,0,0,0,0,673,0,22859,0,138,0,0,0,31,0,0,0,0,0,0
RU,Russian Federation,country,Europe and Central Asia,61.52401,105.318756,JP,Japan,country,East Asia and Pacific,36.204824,138.252924,3633.04187416608,1986,61914,0,0,3647,0,0,0,3252,1329,48527,0,904,13,3133,200,398,0,459,13,39,0,0,0,0
VU,Vanuatu,country,East Asia and Pacific,-15.376706,166.959158,JP,Japan,country,East Asia and Pacific,36.204824,138.252924,6487.64250126615,1986,2499,0,0,0,0,0,1957,0,0,0,0,0,0,6,0,0,0,519,0,17,0,0,0,0
VE,Venezuela,country,Latin America and the Caribbean,6.42375,-66.58973,JP,Japan,country,East Asia and Pacific,36.204824,138.252924,14629.4974054713,1986,1926,0,0,0,0,0,0,0,0,888,0,0,1032,0,0,0,0,0,0,6,0,0,0,0
VN,Vietnam,country,East Asia and Pacific,14.058324,108.277199,JP,Japan,country,East Asia and Pacific,36.204824,138.252924,3869.76019773838,1986,10446,417,3350,10,0,0,3967,188,394,34,114,0,311,1531,129,1,0,0,0,0,0,0,0,0
EH,Western Sahara,country,,24.215527,-12.885834,JP,Japan,country,East Asia and Pacific,36.204824,138.252924,12658.9681896019,1986,396,0,0,0,0,0,0,0,0,0,0,0,0,396,0,0,0,0,0,0,0,0,0,0
BA,Bosnia & Herzegovina,country,Europe and Central Asia,43.915886,17.679076,JP,Japan,country,East Asia and Pacific,36.204824,138.252924,9289.85368193954,1986,2832,0,0,0,0,0,21,0,13,0,0,0,0,390,0,2408,0,0,0,0,0,0,0,0
ZM,Zambia,country,Sub-Saharan Africa,-13.133897,27.849332,JP,Japan,country,East Asia and Pacific,36.204824,138.252924,12700.4500723335,1986,24,0,0,0,0,0,0,0,0,0,0,1,0,17,0,0,0,0,0,6,0,0,0,0
ZW,Zimbabwe,country,Sub-Saharan Africa,-19.015438,29.154857,JP,Japan,country,East Asia and Pacific,36.204824,138.252924,12939.2507122754,1986,2795,10,0,0,0,0,0,0,0,2324,0,0,215,246,0,0,0,0,0,0,0,0,0,0
AF,Afghanistan,country,South Asia,33.93911,67.709953,JP,Japan,country,East Asia and Pacific,36.204824,138.252924,6283.180182728,1987,2310,0,0,0,0,0,0,0,0,0,0,0,0,2310,0,0,0,0,0,0,0,0,0,0
AL,Albania,country,Europe and Central Asia,41.153332,20.168331,JP,Japan,country,East Asia and Pacific,36.204824,138.252924,9362.67476048682,1987,119,0,0,0,0,0,0,0,0,0,5,0,0,114,0,0,0,0,0,0,0,0,0,0
DZ,Algeria,country,Middle East and North Africa,28.033886,1.659626,JP,Japan,country,East Asia and Pacific,36.204824,138.252924,11563.4288431421,1987,0,0,0,0,0,0,0,0,0,0,0,0,0,0,0,0,0,0,0,0,0,0,0,0
WS,Samoa,country,East Asia and Pacific,-13.759029,-172.104629,JP,Japan,country,East Asia and Pacific,36.204824,138.252924,7621.68911293582,1987,222,0,0,0,0,4,0,0,0,42,0,101,20,5,0,0,0,0,50,0,0,0,0,0
AG,Antigua & Barbuda,country,Latin America and the Caribbean,17.060816,-61.796428,JP,Japan,country,East Asia and Pacific,36.204824,138.252924,13743.5229849878,1987,0,0,0,0,0,0,0,0,0,0,0,0,0,0,0,0,0,0,0,0,0,0,0,0
AR,Argentina,country,Latin America and the Caribbean,-38.416097,-63.616672,JP,Japan,country,East Asia and Pacific,36.204824,138.252924,18090.252730722,1987,1169349,1073321,0,4855,2341,0,2062,0,37,1008,0,71092,25,1054,139,3224,0,10110,68,13,0,0,0,0
AU,Australia,country,East Asia and Pacific,-25.274398,133.775136,JP,Japan,country,East Asia and Pacific,36.204824,138.252924,6859.99185912851,1987,3882099,2312471,0,688682,2190,363,57240,2239,14721,227987,209,109628,5891,178538,40282,7468,0,175545,32668,25977,0,0,0,0
AT,Austria,country,Europe and Central Asia,47.516231,14.550072,JP,Japan,country,East Asia and Pacific,36.204824,138.252924,9166.61613037669,1987,6279,59,0,125,0,0,0,0,843,0,4,0,2015,459,0,162,0,0,2567,45,0,0,0,0
BS,The Bahamas,country,Latin America and the Caribbean,25.03428,-77.39628,JP,Japan,country,East Asia and Pacific,36.204824,138.252924,12259.5844288455,1987,19,0,0,0,0,0,0,0,0,0,0,0,0,0,0,19,0,0,0,0,0,0,0,0
BD,Bangladesh,country,South Asia,23.684994,90.356331,JP,Japan,country,East Asia and Pacific,36.204824,138.252924,4773.96736698547,1987,7319,0,0,0,0,0,0,0,0,3523,0,0,32,3713,0,0,0,0,31,20,0,0,0,0
BB,Barbados,country,Latin America and the Caribbean,13.193887,-59.543198,JP,Japan,country,East Asia and Pacific,36.204824,138.252924,14228.9950150676,1987,213,0,0,0,0,0,0,0,9,204,0,0,0,0,0,0,0,0,0,0,0,0,0,0
BE,Belgium,country,Europe and Central Asia,50.503887,4.469936,JP,Japan,country,East Asia and Pacific,36.204824,138.252924,9375.41858049945,1987,98340,12349,257,231,0,4,0,462,16,6448,0,68,2325,65430,42,108,0,273,10296,0,31,0,0,0
BZ,Belize,country,Latin America and the Caribbean,17.189877,-88.49765,JP,Japan,country,East Asia and Pacific,36.204824,138.252924,12324.0004543956,1987,95,0,0,0,0,0,0,0,0,0,0,0,0,95,0,0,0,0,0,0,0,0,0,0
BJ,Benin,country,Sub-Saharan Africa,9.30769,2.315834,JP,Japan,country,East Asia and Pacific,36.204824,138.252924,13187.738629957,1987,12743,0,0,0,0,0,12743,0,0,0,0,0,0,0,0,0,0,0,0,0,0,0,0,0
BM,Bermuda,country,North America,32.321384,-64.75737,JP,Japan,country,East Asia and Pacific,36.204824,138.252924,12041.3173795805,1987,1,0,0,0,0,0,0,0,0,0,0,0,0,0,0,1,0,0,0,0,0,0,0,0
BO,Bolivia,country,Latin America and the Caribbean,-16.290154,-63.588653,JP,Japan,country,East Asia and Pacific,36.204824,138.252924,16943.1300067501,1987,57,0,0,0,0,0,0,0,0,0,0,0,57,0,0,0,0,0,0,0,0,0,0,0
BW,Botswana,country,Sub-Saharan Africa,-22.328474,24.684866,JP,Japan,country,East Asia and Pacific,36.204824,138.252924,13527.9410992584,1987,19,0,0,0,0,0,0,0,0,0,0,0,0,19,0,0,0,0,0,0,0,0,0,0
BR,Brazil,country,Latin America and the Caribbean,-14.235004,-51.92528,JP,Japan,country,East Asia and Pacific,36.204824,138.252924,17389.8886348546,1987,688286,16,0,20548,0,34,306783,26,9649,8421,16,59282,96846,158683,1532,2913,0,22521,886,0,130,0,0,0
BN,Brunei Darussalam,country,,4.535277,114.727669,JP,Japan,country,East Asia and Pacific,36.204824,138.252924,4269.1223572903,1987,50,50,0,0,0,0,0,0,0,0,0,0,0,0,0,0,0,0,0,0,0,0,0,0
BG,Bulgaria,country,Europe and Central Asia,42.733883,25.48583,JP,Japan,country,East Asia and Pacific,36.204824,138.252924,8919.68832970306,1987,4626,0,0,0,0,0,0,106,403,42,0,0,0,412,0,3661,0,2,0,0,0,0,0,0
BF,Burkina Faso,country,Sub-Saharan Africa,12.238333,-1.561593,JP,Japan,country,East Asia and Pacific,36.204824,138.252924,13191.8595412222,1987,571,0,0,0,0,0,193,0,0,378,0,0,0,0,0,0,0,0,0,0,0,0,0,0
BI,Burundi,country,Sub-Saharan Africa,-3.373056,29.918886,JP,Japan,country,East Asia and Pacific,36.204824,138.252924,11882.9317190369,1987,1119,0,0,0,0,0,0,0,0,0,0,0,1100,19,0,0,0,0,0,0,0,0,0,0
KH,Cambodia,country,East Asia and Pacific,12.565679,104.990963,JP,Japan,country,East Asia and Pacific,36.204824,138.252924,4239.97422183195,1987,146,0,0,0,0,0,0,0,0,0,0,0,0,146,0,0,0,0,0,0,0,0,0,0
CM,Cameroon,country,Sub-Saharan Africa,7.369722,12.354722,JP,Japan,country,East Asia and Pacific,36.204824,138.252924,12597.9841879944,1987,5576,0,0,0,0,0,0,0,0,1523,0,0,4053,0,0,0,0,0,0,0,0,0,0,0
CA,Canada,country,North America,56.130366,-106.346771,JP,Japan,country,East Asia and Pacific,36.204824,138.252924,8091.76666885355,1987,4803726,2374728,12764,2593,7892,0,1742542,1290,1605,2231,4,530487,63,29627,46994,9793,24,31304,6526,3283,0,0,0,0
KY,Cayman Islands,country,Latin America and the Caribbean,19.513469,-80.566956,JP,Japan,country,East Asia and Pacific,36.204824,138.252924,12610.5800985492,1987,0,0,0,0,0,0,0,0,0,0,0,0,0,0,0,0,0,0,0,0,0,0,0,0
CF,Central African Rep.,country,Sub-Saharan Africa,6.611111,20.939444,JP,Japan,country,East Asia and Pacific,36.204824,138.252924,11960.7329583865,1987,2,0,0,0,0,0,0,0,0,0,0,0,0,2,0,0,0,0,0,0,0,0,0,0
CL,Chile,country,Latin America and the Caribbean,-35.675147,-71.542969,JP,Japan,country,East Asia and Pacific,36.204824,138.252924,17362.0430059053,1987,102833,2,0,2,56,0,0,7265,1317,50,75,83243,13,8385,0,1953,0,437,35,0,0,0,0,0
HK,Hong Kong,country,East Asia and Pacific,22.396428,114.109497,JP,Japan,country,East Asia and Pacific,36.204824,138.252924,2790.06002661141,1987,19868,133,0,36,0,24,0,1138,0,1885,179,8034,147,2577,108,5178,0,429,0,0,0,0,0,0
MO,"Macao SAR, China",country,East Asia and Pacific,22.198745,113.543873,JP,Japan,country,East Asia and Pacific,36.204824,138.252924,2849.269236333,1987,270,0,0,0,0,0,0,0,0,0,0,0,0,67,0,203,0,0,0,0,0,0,0,0
CN,China,country,East Asia and Pacific,35.86166,104.195397,JP,Japan,country,East Asia and Pacific,36.204824,138.252924,3050.17107828729,1987,9500518,1928065,1325,36079,50719,34942,447783,207822,15350,221156,15093,416308,12392,6059195,6802,21593,4,23833,1284,777,0,0,0,0
TW,Taiwan,country,East Asia and Pacific,23.69781,120.960515,JP,Japan,country,East Asia and Pacific,36.204824,138.252924,2166.30779012163,1987,2012019,4833,109,4201,555,11,1735,202162,141999,5914,17496,93139,9601,1383452,375,4829,23,141134,108,0,366,0,0,0
CO,Colombia,country,Latin America and the Caribbean,4.570868,-74.297333,JP,Japan,country,East Asia and Pacific,36.204824,138.252924,14373.4001368361,1987,53506,0,0,31,0,0,0,95,8973,0,0,0,44279,98,0,0,0,0,0,30,0,0,0,0
KM,Comoros,country,Sub-Saharan Africa,-11.875001,43.872219,JP,Japan,country,East Asia and Pacific,36.204824,138.252924,11185.1897463702,1987,19,0,0,0,0,0,0,0,0,0,10,0,0,9,0,0,0,0,0,0,0,0,0,0
CG,"Congo, Rep.",country,Sub-Saharan Africa,-0.228021,15.827659,JP,Japan,country,East Asia and Pacific,36.204824,138.252924,12889.2447743235,1987,52,0,0,0,0,0,0,0,0,0,0,0,0,52,0,0,0,0,0,0,0,0,0,0
CK,Cook Islands,country,East Asia and Pacific,-21.236736,-159.777671,JP,Japan,country,East Asia and Pacific,36.204824,138.252924,9126.11920693926,1987,129,0,0,0,0,0,0,0,0,0,0,0,0,129,0,0,0,0,0,0,0,0,0,0
CR,Costa Rica,country,Latin America and the Caribbean,9.748917,-83.753428,JP,Japan,country,East Asia and Pacific,36.204824,138.252924,13291.6202972089,1987,2748863,0,0,0,0,0,0,0,35,0,0,0,3468,2745188,0,2,0,170,0,0,0,0,0,0
CI,Ivory Coast,country,Sub-Saharan Africa,7.539989,-5.54708,JP,Japan,country,East Asia and Pacific,36.204824,138.252924,13871.6786958923,1987,8672,0,0,0,0,0,0,0,0,2533,0,0,6137,2,0,0,0,0,0,0,0,0,0,0
CU,Cuba,country,Latin America and the Caribbean,21.521757,-77.781167,JP,Japan,country,East Asia and Pacific,36.204824,138.252924,12576.3638581276,1987,305011,0,0,299904,0,0,0,0,989,0,0,0,4020,19,0,76,0,3,0,0,0,0,0,0
CY,Cyprus,country,Europe and Central Asia,35.126413,33.429859,JP,Japan,country,East Asia and Pacific,36.204824,138.252924,8922.56110404362,1987,504,0,0,0,0,0,0,0,0,0,0,0,0,67,0,437,0,0,0,0,0,0,0,0
CZ,Czech Republic,country,Europe and Central Asia,49.817492,15.472962,JP,Japan,country,East Asia and Pacific,36.204824,138.252924,8933.13048344174,1987,58450,30493,0,0,0,0,0,53,5,0,0,0,0,1559,0,110,0,5,26225,0,0,0,0,0
KP,"Korea, Dem. Rep.",country,East Asia and Pacific,40.339852,127.510093,JP,Japan,country,East Asia and Pacific,36.204824,138.252924,1044.63145122605,1987,7825,0,0,5,246,126,0,2391,89,886,7,1920,0,2112,0,42,0,1,0,0,0,0,0,0
CD,"Congo, Dem. Rep.",country,Sub-Saharan Africa,-4.038333,21.758664,JP,Japan,country,East Asia and Pacific,36.204824,138.252924,12648.1503628369,1987,1125,0,0,0,0,0,0,0,0,0,0,0,1123,2,0,0,0,0,0,0,0,0,0,0
DK,Denmark,country,Europe and Central Asia,56.26392,9.501785,JP,Japan,country,East Asia and Pacific,36.204824,138.252924,8664.71183472864,1987,255546,42817,0,1236,0,0,1,3,52,0,0,16,748,94144,185,660,0,103818,11849,17,0,0,0,0
DM,Dominica,country,Latin America and the Caribbean,15.414999,-61.370976,JP,Japan,country,East Asia and Pacific,36.204824,138.252924,13931.4485094987,1987,7485,0,0,0,0,0,0,0,0,0,0,0,484,7001,0,0,0,0,0,0,0,0,0,0
DO,Dominican Republic,country,Latin America and the Caribbean,18.735693,-70.162651,JP,Japan,country,East Asia and Pacific,36.204824,138.252924,13229.1757100189,1987,0,0,0,0,0,0,0,0,0,0,0,0,0,0,0,0,0,0,0,0,0,0,0,0
EC,Ecuador,country,Latin America and the Caribbean,-1.831239,-78.183406,JP,Japan,country,East Asia and Pacific,36.204824,138.252924,14682.054333694,1987,86236,0,0,0,0,0,0,0,80197,857,0,0,4948,221,0,0,0,0,0,13,0,0,0,0
EG,Egypt,country,Middle East and North Africa,26.820553,30.802498,JP,Japan,country,East Asia and Pacific,36.204824,138.252924,9696.1079625791,1987,30750,0,0,3430,0,0,0,78,0,27191,10,0,0,41,0,0,0,0,0,0,0,0,0,0
SV,El Salvador,country,Latin America and the Caribbean,13.794185,-88.89653,JP,Japan,country,East Asia and Pacific,36.204824,138.252924,12588.6312198778,1987,105684,0,0,0,0,0,647,0,0,0,0,0,10452,94585,0,0,0,0,0,0,0,0,0,0
ET,Ethiopia,country,Sub-Saharan Africa,9.145,40.489673,JP,Japan,country,East Asia and Pacific,36.204824,138.252924,10106.3560024324,1987,13794,0,0,0,0,0,0,0,0,2501,0,0,10591,13,0,0,0,60,101,528,0,0,0,0
FK,Falkland Islands,country,,-51.796253,-59.523613,JP,Japan,country,East Asia and Pacific,36.204824,138.252924,17805.217540199,1987,665,0,0,0,0,0,0,0,0,118,0,0,0,547,0,0,0,0,0,0,0,0,0,0
FJ,Fiji,country,East Asia and Pacific,-16.578193,179.414413,JP,Japan,country,East Asia and Pacific,36.204824,138.252924,7298.36585683368,1987,41187,0,0,39602,0,0,0,115,62,0,0,1248,0,160,0,0,0,0,0,0,0,0,0,0
FI,Finland,country,Europe and Central Asia,61.92411,25.748151,JP,Japan,country,East Asia and Pacific,36.204824,138.252924,7561.46476705014,1987,7901,1072,0,3813,0,0,0,0,5,0,0,0,918,300,0,126,0,587,1080,0,0,0,0,0
FR,France,country,Europe and Central Asia,46.227638,2.213749,JP,Japan,country,East Asia and Pacific,36.204824,138.252924,9861.13829749916,1987,3381791,41267,43,3782,0,40,361,465,1943,11687,119,2616,1632,3270990,110,37506,65,2712,6199,319,0,0,0,0
GA,Gabon,country,Sub-Saharan Africa,-0.803689,11.609444,JP,Japan,country,East Asia and Pacific,36.204824,138.252924,13283.684323831,1987,2,0,0,0,0,0,0,0,0,0,0,0,0,2,0,0,0,0,0,0,0,0,0,0
GH,Ghana,country,Sub-Saharan Africa,7.946527,-1.023194,JP,Japan,country,East Asia and Pacific,36.204824,138.252924,13536.5191108546,1987,24710,0,0,0,0,0,0,0,0,0,0,0,24710,0,0,0,0,0,0,0,0,0,0,0
GR,Greece,country,Europe and Central Asia,39.074208,21.824312,JP,Japan,country,East Asia and Pacific,36.204824,138.252924,9421.49654129133,1987,15620,0,0,3,0,0,0,1759,7037,1137,49,0,1,5393,5,45,0,0,0,191,0,0,0,0
GL,Greenland,country,Europe and Central Asia,71.706936,-42.604303,JP,Japan,country,East Asia and Pacific,36.204824,138.252924,8024.63616320793,1987,77,0,0,0,0,0,0,0,0,0,0,0,0,0,0,77,0,0,0,0,0,0,0,0
GD,Grenada,country,Latin America and the Caribbean,12.262776,-61.604171,JP,Japan,country,East Asia and Pacific,36.204824,138.252924,14252.942446543,1987,132,0,0,0,0,0,0,0,0,0,0,0,132,0,0,0,0,0,0,0,0,0,0,0
GU,Guam,country,East Asia and Pacific,13.444304,144.793731,JP,Japan,country,East Asia and Pacific,36.204824,138.252924,2616.62204167965,1987,0,0,0,0,0,0,0,0,0,0,0,0,0,0,0,0,0,0,0,0,0,0,0,0
GT,Guatemala,country,Latin America and the Caribbean,15.783471,-90.230759,JP,Japan,country,East Asia and Pacific,36.204824,138.252924,12326.7633794206,1987,2732178,0,0,0,0,0,2782,0,0,554,20,190,5301,2723221,0,0,0,110,0,0,0,0,0,0
GN,Guinea,country,Sub-Saharan Africa,9.945587,-9.696645,JP,Japan,country,East Asia and Pacific,36.204824,138.252924,13899.7748047173,1987,2,0,0,0,0,0,0,0,0,0,0,0,0,2,0,0,0,0,0,0,0,0,0,0
GY,Guyana,country,Latin America and the Caribbean,4.860416,-58.93018,JP,Japan,country,East Asia and Pacific,36.204824,138.252924,15127.8536716989,1987,6,0,0,0,0,0,0,0,0,0,0,0,0,0,0,0,0,0,0,6,0,0,0,0
HT,Haiti,country,Latin America and the Caribbean,18.971187,-72.285215,JP,Japan,country,East Asia and Pacific,36.204824,138.252924,13104.9638022615,1987,724,0,0,0,0,0,0,0,3,0,0,0,694,27,0,0,0,0,0,0,0,0,0,0
HN,Honduras,country,Latin America and the Caribbean,15.199999,-86.241905,JP,Japan,country,East Asia and Pacific,36.204824,138.252924,12647.4763789551,1987,828768,0,0,0,0,0,354,1,933,0,0,0,16288,811173,0,0,0,19,0,0,0,0,0,0
HU,Hungary,country,Europe and Central Asia,47.162494,19.503304,JP,Japan,country,East Asia and Pacific,36.204824,138.252924,8934.04871790706,1987,9415,10,0,669,310,0,104,240,291,15,886,0,0,4151,0,277,40,576,1886,0,0,0,0,0
IS,Iceland,country,Europe and Central Asia,64.963051,-19.020835,JP,Japan,country,East Asia and Pacific,36.204824,138.252924,8602.70359236856,1987,3411,0,0,0,0,0,0,0,0,0,0,62,0,144,0,0,0,3205,0,0,0,0,0,0
IN,India,country,South Asia,20.593684,78.96288,JP,Japan,country,East Asia and Pacific,36.204824,138.252924,5965.97997747552,1987,92749,0,0,0,0,2673,572,538,21,36554,4250,14,6612,37071,4333,39,0,71,0,1,0,0,0,0
ID,Indonesia,country,East Asia and Pacific,-0.789275,113.921327,JP,Japan,country,East Asia and Pacific,36.204824,138.252924,4827.02443872358,1987,493089,5184,0,182675,0,57,12650,181,24,867,2266,127857,63104,87961,9162,1020,0,0,7,74,0,0,0,0
IR,Iran,country,Middle East and North Africa,32.427908,53.688046,JP,Japan,country,East Asia and Pacific,36.204824,138.252924,7523.93653191863,1987,3506,0,0,0,0,2526,0,0,5,0,908,0,0,67,0,0,0,0,0,0,0,0,0,0
IQ,Iraq,country,Middle East and North Africa,33.223191,43.679291,JP,Japan,country,East Asia and Pacific,36.204824,138.252924,8276.30545596119,1987,456,0,0,0,0,0,0,0,456,0,0,0,0,0,0,0,0,0,0,0,0,0,0,0
IE,Ireland,country,Europe and Central Asia,53.41291,-8.24389,JP,Japan,country,East Asia and Pacific,36.204824,138.252924,9551.2243151296,1987,14589,4291,0,37,0,0,0,0,0,5,0,27,144,1373,0,3522,0,5043,34,113,0,0,0,0
IL,Israel,country,Middle East and North Africa,31.046051,34.851612,JP,Japan,country,East Asia and Pacific,36.204824,138.252924,9094.53196820569,1987,368438,0,0,0,0,0,0,214,7162,1093,5,0,7,359582,0,211,0,57,107,0,0,0,0,0
IT,Italy,country,Europe and Central Asia,41.87194,12.56738,JP,Japan,country,East Asia and Pacific,36.204824,138.252924,9739.59490027946,1987,720454,38792,0,64,4,311,3,9499,1898,178,4,545,165,664341,1280,2362,0,12,298,698,0,0,0,0
JM,Jamaica,country,Latin America and the Caribbean,18.109581,-77.297508,JP,Japan,country,East Asia and Pacific,36.204824,138.252924,12927.3431063077,1987,1691,0,0,0,0,0,0,0,0,0,81,0,1048,7,0,555,0,0,0,0,0,0,0,0
KE,Kenya,country,Sub-Saharan Africa,-0.023559,37.906193,JP,Japan,country,East Asia and Pacific,36.204824,138.252924,10947.9371057567,1987,18911,14915,0,0,0,406,0,0,0,0,0,0,717,2782,10,0,0,0,51,30,0,0,0,0
KW,Kuwait,country,Middle East and North Africa,29.31166,47.481766,JP,Japan,country,East Asia and Pacific,36.204824,138.252924,8210.66649133886,1987,0,0,0,0,0,0,0,0,0,0,0,0,0,0,0,0,0,0,0,0,0,0,0,0
LA,Lao PDR,country,East Asia and Pacific,19.85627,102.495496,JP,Japan,country,East Asia and Pacific,36.204824,138.252924,3925.51010787283,1987,0,0,0,0,0,0,0,0,0,0,0,0,0,0,0,0,0,0,0,0,0,0,0,0
LB,Lebanon,country,Middle East and North Africa,33.854721,35.862285,JP,Japan,country,East Asia and Pacific,36.204824,138.252924,8830.20793287448,1987,7,0,0,0,0,0,0,0,0,0,0,0,0,7,0,0,0,0,0,0,0,0,0,0
LR,Liberia,country,Sub-Saharan Africa,6.428055,-9.429499,JP,Japan,country,East Asia and Pacific,36.204824,138.252924,14215.2984993198,1987,2,0,0,0,0,0,0,0,0,0,0,0,0,2,0,0,0,0,0,0,0,0,0,0
MG,Madagascar,country,Sub-Saharan Africa,-18.766947,46.869107,JP,Japan,country,East Asia and Pacific,36.204824,138.252924,11358.3068519105,1987,7400,0,0,0,0,0,485,0,0,1807,47,0,3487,1574,0,0,0,0,0,0,0,0,0,0
MW,Malawi,country,Sub-Saharan Africa,-13.254308,34.301525,JP,Japan,country,East Asia and Pacific,36.204824,138.252924,12128.56732402,1987,5493,0,0,0,0,0,0,0,0,0,19,0,0,5474,0,0,0,0,0,0,0,0,0,0
MY,Malaysia,country,East Asia and Pacific,4.210484,101.975766,JP,Japan,country,East Asia and Pacific,36.204824,138.252924,5143.2143318209,1987,384443,15,8406,41,0,55,647,59,4243,433,4044,7,4474,116553,245098,299,0,66,0,3,0,0,0,0
MV,Maldives,country,South Asia,3.202778,73.22068,JP,Japan,country,East Asia and Pacific,36.204824,138.252924,7580.27549651898,1987,4,0,0,0,0,0,0,0,0,0,0,0,0,4,0,0,0,0,0,0,0,0,0,0
ML,Mali,country,Sub-Saharan Africa,17.570692,-3.996166,JP,Japan,country,East Asia and Pacific,36.204824,138.252924,12853.2808045785,1987,1392,0,0,0,0,0,0,0,0,1392,0,0,0,0,0,0,0,0,0,0,0,0,0,0
MT,Malta,country,Middle East and North Africa,35.937496,14.375416,JP,Japan,country,East Asia and Pacific,36.204824,138.252924,10130.4167210413,1987,141,0,0,0,0,0,0,0,0,0,0,0,0,23,0,118,0,0,0,0,0,0,0,0
MU,Mauritius,country,Sub-Saharan Africa,-20.348404,57.552152,JP,Japan,country,East Asia and Pacific,36.204824,138.252924,10549.6544726242,1987,20,0,0,17,0,0,0,0,0,0,0,0,0,0,0,3,0,0,0,0,0,0,0,0
MX,Mexico,country,Latin America and the Caribbean,23.634501,-102.552784,JP,Japan,country,East Asia and Pacific,36.204824,138.252924,10810.2301635132,1987,65313,0,0,128,0,0,17,21893,4350,17990,24,31,9630,1985,18,554,0,8693,0,0,0,0,0,0
MN,Mongolia,country,East Asia and Pacific,46.862496,103.846656,JP,Japan,country,East Asia and Pacific,36.204824,138.252924,3072.10798165946,1987,1065,0,0,0,0,0,0,4,0,68,0,991,0,1,0,1,0,0,0,0,0,0,0,0
MA,Morocco,country,Middle East and North Africa,31.791702,-7.09262,JP,Japan,country,East Asia and Pacific,36.204824,138.252924,11650.0917676843,1987,3657,0,0,0,0,0,0,825,1,92,2338,0,0,399,0,2,0,0,0,0,0,0,0,0
MM,Myanmar,country,East Asia and Pacific,21.913965,95.956223,JP,Japan,country,East Asia and Pacific,36.204824,138.252924,4371.53379602396,1987,17150,0,0,0,15106,0,0,0,0,525,0,0,0,1516,0,0,0,0,0,3,0,0,0,0
NA,Namibia,country,Sub-Saharan Africa,-22.95764,18.49041,JP,Japan,country,East Asia and Pacific,36.204824,138.252924,14116.8861243141,1987,4,0,0,0,0,0,0,0,0,0,0,0,0,0,0,0,0,0,0,4,0,0,0,0
NP,Nepal,country,South Asia,28.394857,84.124008,JP,Japan,country,East Asia and Pacific,36.204824,138.252924,5101.4332242701,1987,460,0,0,0,0,0,0,0,0,0,0,0,0,17,443,0,0,0,0,0,0,0,0,0
NL,Netherlands,country,Europe and Central Asia,52.132633,5.291266,JP,Japan,country,East Asia and Pacific,36.204824,138.252924,9195.35225352267,1987,10151319,9371,791,32469,103,0,72,337,299,96,26,373,13789,10068082,1491,2084,91,219,16002,5715,0,0,0,0
NC,New Caledonia,country,East Asia and Pacific,-20.904305,165.618042,JP,Japan,country,East Asia and Pacific,36.204824,138.252924,6979.46176793118,1987,21,0,0,0,0,0,0,0,0,0,0,0,0,17,0,4,0,0,0,0,0,0,0,0
NZ,New Zealand,country,East Asia and Pacific,-40.900557,174.885971,JP,Japan,country,East Asia and Pacific,36.204824,138.252924,9362.64636961408,1987,406308,5496,0,3814,2951,0,10267,60381,53704,26895,0,38973,8427,87980,26,580,0,52604,47563,6647,0,0,0,0
NI,Nicaragua,country,Latin America and the Caribbean,12.865416,-85.207229,JP,Japan,country,East Asia and Pacific,36.204824,138.252924,12920.8930617658,1987,28743,0,0,0,0,0,630,0,0,27455,0,0,573,19,0,0,0,66,0,0,0,0,0,0
NG,Nigeria,country,Sub-Saharan Africa,9.081999,8.675277,JP,Japan,country,East Asia and Pacific,36.204824,138.252924,12744.1662676694,1987,1,0,0,0,0,0,0,0,0,0,0,0,0,0,0,0,0,0,0,1,0,0,0,0
NU,Niue,country,East Asia and Pacific,-19.054445,-169.867233,JP,Japan,country,East Asia and Pacific,36.204824,138.252924,8222.03582624815,1987,1,0,0,0,0,0,0,0,0,0,0,0,0,1,0,0,0,0,0,0,0,0,0,0
NO,Norway,country,Europe and Central Asia,60.472024,8.468946,JP,Japan,country,East Asia and Pacific,36.204824,138.252924,8344.6121931756,1987,6396,32,0,0,0,2,0,0,1,0,0,198,5,1632,31,172,0,470,3853,0,0,0,0,0
OM,Oman,country,Middle East and North Africa,21.512583,55.923255,JP,Japan,country,East Asia and Pacific,36.204824,138.252924,7962.72854447021,1987,21,0,0,0,0,0,0,0,0,0,0,0,0,21,0,0,0,0,0,0,0,0,0,0
PK,Pakistan,country,South Asia,30.375321,69.345116,JP,Japan,country,East Asia and Pacific,36.204824,138.252924,6310.43555597532,1987,109367,0,0,0,0,0,240,0,0,103516,118,95,0,5398,0,0,0,0,0,0,0,0,0,0
PA,Panama,country,Latin America and the Caribbean,8.537981,-80.782127,JP,Japan,country,East Asia and Pacific,36.204824,138.252924,13597.6637557309,1987,7224,0,0,0,0,0,0,0,7224,0,0,0,0,0,0,0,0,0,0,0,0,0,0,0
PG,Papua New Guinea,country,East Asia and Pacific,-6.314993,143.95555,JP,Japan,country,East Asia and Pacific,36.204824,138.252924,4770.62341495119,1987,42858,0,0,0,0,0,41986,0,0,0,4,0,589,250,0,0,0,0,0,29,0,0,0,0
PY,Paraguay,country,Latin America and the Caribbean,-23.442503,-58.443832,JP,Japan,country,East Asia and Pacific,36.204824,138.252924,17894.4827453123,1987,64781,0,0,0,0,0,63873,0,0,791,0,0,89,18,0,0,0,0,0,10,0,0,0,0
PE,Peru,country,Latin America and the Caribbean,-9.189967,-75.015152,JP,Japan,country,East Asia and Pacific,36.204824,138.252924,15528.4619541812,1987,16602,864,0,0,0,46,0,50,41,1914,0,0,11179,2508,0,0,0,0,0,0,0,0,0,0
PH,Philippines,country,East Asia and Pacific,12.879721,121.774017,JP,Japan,country,East Asia and Pacific,36.204824,138.252924,3075.73619699701,1987,1403238,7,0,86477,1,94,33820,4147,720931,4478,11,3146,1953,524535,22574,1064,0,0,0,0,0,0,0,0
PL,Poland,country,Europe and Central Asia,51.919438,19.145136,JP,Japan,country,East Asia and Pacific,36.204824,138.252924,8585.36265168796,1987,25877,2855,0,26,0,0,243,11,117,0,0,274,15,811,1045,176,0,18,20100,186,0,0,0,0
PT,Portugal,country,Europe and Central Asia,39.399872,-8.224454,JP,Japan,country,East Asia and Pacific,36.204824,138.252924,10946.1966061878,1987,10174,0,0,0,307,0,0,7726,114,115,0,0,0,624,0,1288,0,0,0,0,0,0,0,0
KR,"Korea, Rep.",country,East Asia and Pacific,35.907757,127.766922,JP,Japan,country,East Asia and Pacific,36.204824,138.252924,943.807690475197,1987,327842,10699,281,2294,0,1569,14,8613,30806,2113,629,27300,10267,219014,4031,6525,0,3212,48,0,427,0,0,0
RE,Reunion,country,Sub-Saharan Africa,-21.115141,55.536384,JP,Japan,country,East Asia and Pacific,36.204824,138.252924,10768.9957628981,1987,3,0,0,0,0,0,0,0,0,0,0,0,0,0,0,3,0,0,0,0,0,0,0,0
RO,Romania,country,Europe and Central Asia,45.943161,24.96676,JP,Japan,country,East Asia and Pacific,36.204824,138.252924,8717.07639116952,1987,1637,0,0,53,0,0,5,50,3,36,0,0,0,211,0,1159,0,89,31,0,0,0,0,0
RW,Rwanda,country,Sub-Saharan Africa,-1.940278,29.873888,JP,Japan,country,East Asia and Pacific,36.204824,138.252924,11790.8178114398,1987,266,0,0,0,0,0,0,0,0,0,0,0,266,0,0,0,0,0,0,0,0,0,0,0
VC,St. Vincent & Grenadines,country,Latin America and the Caribbean,12.984305,-61.287228,JP,Japan,country,East Asia and Pacific,36.204824,138.252924,14189.3679851117,1987,0,0,0,0,0,0,0,0,0,0,0,0,0,0,0,0,0,0,0,0,0,0,0,0
SA,Saudi Arabia,country,Middle East and North Africa,23.885942,45.079162,JP,Japan,country,East Asia and Pacific,36.204824,138.252924,8745.36040412831,1987,0,0,0,0,0,0,0,0,0,0,0,0,0,0,0,0,0,0,0,0,0,0,0,0
SN,Senegal,country,Sub-Saharan Africa,14.497401,-14.452362,JP,Japan,country,East Asia and Pacific,36.204824,138.252924,13705.4678671087,1987,98,0,0,0,0,0,0,0,0,98,0,0,0,0,0,0,0,0,0,0,0,0,0,0
SG,Singapore,country,East Asia and Pacific,1.352083,103.819836,JP,Japan,country,East Asia and Pacific,36.204824,138.252924,5255.66692867614,1987,800364,1266,0,44,0,0,0,45,14,35,143,12,19290,749129,2313,28050,0,0,0,23,0,0,0,0
SB,Solomon Islands,country,East Asia and Pacific,-9.64571,160.156194,JP,Japan,country,East Asia and Pacific,36.204824,138.252924,5596.54060164651,1987,9994,0,0,0,0,0,9531,0,0,0,0,0,0,461,0,0,0,0,0,2,0,0,0,0
SO,Somalia,country,Sub-Saharan Africa,5.152149,46.199616,JP,Japan,country,East Asia and Pacific,36.204824,138.252924,9864.07726313018,1987,7,0,0,0,0,0,0,0,0,0,0,0,0,7,0,0,0,0,0,0,0,0,0,0
ZA,S. Africa,country,Sub-Saharan Africa,-30.559482,22.937506,JP,Japan,country,East Asia and Pacific,36.204824,138.252924,14102.6171157721,1987,2176670,1682801,0,440353,51,112,3333,201,26151,2439,0,0,16,16196,0,2780,0,0,1809,428,0,0,0,0
ES,Spain,country,Europe and Central Asia,40.463667,-3.74922,JP,Japan,country,East Asia and Pacific,36.204824,138.252924,10660.5609647911,1987,224806,18,32,381,0,23,0,1433,1576,360,1211,380,32,213727,1362,4209,0,21,33,8,0,0,0,0
LK,Sri Lanka,country,South Asia,7.873054,80.771797,JP,Japan,country,East Asia and Pacific,36.204824,138.252924,6600.83867955461,1987,40342,5,0,0,0,0,216,3,127,12,31,23005,3852,13079,0,2,0,10,0,0,0,0,0,0
SD,Sudan,country,Sub-Saharan Africa,12.862807,30.217636,JP,Japan,country,East Asia and Pacific,36.204824,138.252924,10734.9827289386,1987,20501,0,0,0,0,0,195,0,0,18260,10,0,0,2029,0,0,0,0,0,7,0,0,0,0
SZ,Swaziland,country,Sub-Saharan Africa,-26.522503,31.465866,JP,Japan,country,East Asia and Pacific,36.204824,138.252924,13156.0547783061,1987,47,0,0,0,0,0,0,0,47,0,0,0,0,0,0,0,0,0,0,0,0,0,0,0
SE,Sweden,country,Europe and Central Asia,60.128161,18.643501,JP,Japan,country,East Asia and Pacific,36.204824,138.252924,7984.04668722803,1987,11000,56,54,3574,0,0,0,744,3,0,0,6,9,707,0,42,0,2974,2551,280,0,0,0,0
CH,Switzerland,country,Europe and Central Asia,46.818188,8.227512,JP,Japan,country,East Asia and Pacific,36.204824,138.252924,9536.18437813669,1987,10541,292,0,1003,0,2,0,248,315,0,0,0,2747,799,0,114,0,36,4969,16,0,0,0,0
SY,Syrian Arab Rep.,country,Middle East and North Africa,34.802075,38.996815,JP,Japan,country,East Asia and Pacific,36.204824,138.252924,8534.93324271182,1987,4150,0,0,0,0,0,0,0,0,4150,0,0,0,0,0,0,0,0,0,0,0,0,0,0
TH,Thailand,country,East Asia and Pacific,15.870032,100.992541,JP,Japan,country,East Asia and Pacific,36.204824,138.252924,4320.00069575782,1987,4967494,45681,112224,579996,45354,34,22500,23252,24034,1761,24180,68040,872,3931745,3461,1693,0,82604,4,59,0,0,0,0
TG,Togo,country,Sub-Saharan Africa,8.619543,0.824782,JP,Japan,country,East Asia and Pacific,36.204824,138.252924,13350.9417167677,1987,10780,0,0,0,0,0,9184,0,0,300,0,0,1296,0,0,0,0,0,0,0,0,0,0,0
TO,Tonga,country,East Asia and Pacific,-21.178986,-175.198242,JP,Japan,country,East Asia and Pacific,36.204824,138.252924,8048.22781679113,1987,157,0,0,0,0,0,0,157,0,0,0,0,0,0,0,0,0,0,0,0,0,0,0,0
TT,Trinidad and Tobago,country,Latin America and the Caribbean,10.691803,-61.222503,JP,Japan,country,East Asia and Pacific,36.204824,138.252924,14431.3657483464,1987,70,0,0,0,0,0,0,0,0,0,0,0,68,0,0,2,0,0,0,0,0,0,0,0
TN,Tunisia,country,Middle East and North Africa,33.886917,9.537499,JP,Japan,country,East Asia and Pacific,36.204824,138.252924,10591.1639660583,1987,33,0,0,0,0,0,0,33,0,0,0,0,0,0,0,0,0,0,0,0,0,0,0,0
TR,Turkey,country,Europe and Central Asia,38.963745,35.243322,JP,Japan,country,East Asia and Pacific,36.204824,138.252924,8537.2610571626,1987,23985,97,0,0,0,0,647,13215,307,3330,128,0,0,6261,0,0,0,0,0,0,0,0,0,0
UG,Uganda,country,Sub-Saharan Africa,1.373333,32.290275,JP,Japan,country,East Asia and Pacific,36.204824,138.252924,11353.1337668166,1987,6880,0,0,0,0,0,0,0,0,109,0,0,6760,11,0,0,0,0,0,0,0,0,0,0
AE,United Arab Emirates,country,Middle East and North Africa,23.424076,53.847818,JP,Japan,country,East Asia and Pacific,36.204824,138.252924,8028.53645683057,1987,1,0,0,0,0,1,0,0,0,0,0,0,0,0,0,0,0,0,0,0,0,0,0,0
GB,United Kingdom,country,Europe and Central Asia,55.378051,-3.435973,JP,Japan,country,East Asia and Pacific,36.204824,138.252924,9210.72985386697,1987,202888,87427,0,987,3467,0,234,71,449,5680,5,556,1704,57092,307,37529,182,448,6419,513,0,0,0,0
TZ,Tanzania,country,Sub-Saharan Africa,-6.369028,34.888822,JP,Japan,country,East Asia and Pacific,36.204824,138.252924,11636.1896727597,1987,4322,0,0,0,0,0,0,0,0,0,163,0,3555,492,0,0,0,0,112,0,0,0,0,0
US,USA,country,North America,37.09024,-95.712891,JP,Japan,country,East Asia and Pacific,36.204824,138.252924,10161.8071431089,1987,64433008,18424515,99635,13529,28812,6060,4139429,60317,549406,312975,201,1512503,10497,38673152,83023,67476,770,270606,11977,168561,334,0,0,0
UY,Uruguay,country,Latin America and the Caribbean,-32.522779,-55.765835,JP,Japan,country,East Asia and Pacific,36.204824,138.252924,18687.1619801919,1987,16983,0,0,0,0,0,0,0,0,1191,0,15767,0,18,0,0,0,4,0,3,0,0,0,0
RU,Russian Federation,country,Europe and Central Asia,61.52401,105.318756,JP,Japan,country,East Asia and Pacific,36.204824,138.252924,3633.04187416608,1987,59159,0,0,3112,0,0,0,3147,760,45163,82,140,13,6028,0,537,0,101,36,40,0,0,0,0
VU,Vanuatu,country,East Asia and Pacific,-15.376706,166.959158,JP,Japan,country,East Asia and Pacific,36.204824,138.252924,6487.64250126615,1987,2862,0,0,0,0,0,1959,0,0,0,0,0,0,0,0,0,0,801,0,102,0,0,0,0
VE,Venezuela,country,Latin America and the Caribbean,6.42375,-66.58973,JP,Japan,country,East Asia and Pacific,36.204824,138.252924,14629.4974054713,1987,1595,0,0,0,0,0,0,0,0,0,0,0,1595,0,0,0,0,0,0,0,0,0,0,0
VN,Vietnam,country,East Asia and Pacific,14.058324,108.277199,JP,Japan,country,East Asia and Pacific,36.204824,138.252924,3869.76019773838,1987,11146,77,3460,10,0,0,2574,189,740,164,721,0,205,2824,171,0,0,5,6,0,0,0,0,0
EH,Western Sahara,country,,24.215527,-12.885834,JP,Japan,country,East Asia and Pacific,36.204824,138.252924,12658.9681896019,1987,192,0,0,0,0,0,0,0,0,0,0,0,0,192,0,0,0,0,0,0,0,0,0,0
BA,Bosnia & Herzegovina,country,Europe and Central Asia,43.915886,17.679076,JP,Japan,country,East Asia and Pacific,36.204824,138.252924,9289.85368193954,1987,3224,0,0,0,0,0,0,0,42,0,0,0,3,465,0,2714,0,0,0,0,0,0,0,0
ZM,Zambia,country,Sub-Saharan Africa,-13.133897,27.849332,JP,Japan,country,East Asia and Pacific,36.204824,138.252924,12700.4500723335,1987,10,0,0,0,0,0,0,0,0,0,0,0,0,10,0,0,0,0,0,0,0,0,0,0
ZW,Zimbabwe,country,Sub-Saharan Africa,-19.015438,29.154857,JP,Japan,country,East Asia and Pacific,36.204824,138.252924,12939.2507122754,1987,52016,46921,0,0,0,0,51,0,0,3818,0,0,463,763,0,0,0,0,0,0,0,0,0,0
AF,Afghanistan,country,South Asia,33.93911,67.709953,JP,Japan,country,East Asia and Pacific,36.204824,138.252924,6283.180182728,1988,0,0,0,0,0,0,0,0,0,0,0,0,0,0,0,0,0,0,0,0,0,0,0,0
AL,Albania,country,Europe and Central Asia,41.153332,20.168331,JP,Japan,country,East Asia and Pacific,36.204824,138.252924,9362.67476048682,1988,6,0,0,0,0,0,0,0,0,0,6,0,0,0,0,0,0,0,0,0,0,0,0,0
DZ,Algeria,country,Middle East and North Africa,28.033886,1.659626,JP,Japan,country,East Asia and Pacific,36.204824,138.252924,11563.4288431421,1988,2,0,0,0,0,0,0,0,0,0,0,0,0,0,0,2,0,0,0,0,0,0,0,0
WS,Samoa,country,East Asia and Pacific,-13.759029,-172.104629,JP,Japan,country,East Asia and Pacific,36.204824,138.252924,7621.68911293582,1988,472,401,0,0,0,0,55,0,6,0,0,0,3,0,0,7,0,0,0,0,0,0,0,0
AG,Antigua & Barbuda,country,Latin America and the Caribbean,17.060816,-61.796428,JP,Japan,country,East Asia and Pacific,36.204824,138.252924,13743.5229849878,1988,0,0,0,0,0,0,0,0,0,0,0,0,0,0,0,0,0,0,0,0,0,0,0,0
AR,Argentina,country,Latin America and the Caribbean,-38.416097,-63.616672,JP,Japan,country,East Asia and Pacific,36.204824,138.252924,18090.252730722,1988,1117534,979727,0,5025,1136,0,1797,379,249,9875,0,101098,17,613,151,4154,0,13231,81,1,0,0,0,0
AU,Australia,country,East Asia and Pacific,-25.274398,133.775136,JP,Japan,country,East Asia and Pacific,36.204824,138.252924,6859.99185912851,1988,3713925,2236651,0,717171,1286,345,89500,7270,14364,195973,54,142016,7116,8,26982,17856,3,188928,38095,30310,0,0,0,0
AT,Austria,country,Europe and Central Asia,47.516231,14.550072,JP,Japan,country,East Asia and Pacific,36.204824,138.252924,9166.61613037669,1988,4767,130,0,26,17,0,0,0,667,0,4,14,2536,42,0,114,0,1,1199,17,0,0,0,0
BS,The Bahamas,country,Latin America and the Caribbean,25.03428,-77.39628,JP,Japan,country,East Asia and Pacific,36.204824,138.252924,12259.5844288455,1988,51,0,0,0,0,0,0,0,0,0,0,0,0,0,0,51,0,0,0,0,0,0,0,0
BH,Bahrain,country,Middle East and North Africa,25.930414,50.637772,JP,Japan,country,East Asia and Pacific,36.204824,138.252924,8152.2247876635,1988,30,0,0,0,0,0,0,0,0,0,0,0,0,0,0,0,0,0,0,30,0,0,0,0
BD,Bangladesh,country,South Asia,23.684994,90.356331,JP,Japan,country,East Asia and Pacific,36.204824,138.252924,4773.96736698547,1988,2949,0,0,0,0,0,0,0,0,2896,0,0,39,0,0,0,0,0,5,9,0,0,0,0
BB,Barbados,country,Latin America and the Caribbean,13.193887,-59.543198,JP,Japan,country,East Asia and Pacific,36.204824,138.252924,14228.9950150676,1988,125,0,0,0,0,0,0,0,0,125,0,0,0,0,0,0,0,0,0,0,0,0,0,0
BE,Belgium,country,Europe and Central Asia,50.503887,4.469936,JP,Japan,country,East Asia and Pacific,36.204824,138.252924,9375.41858049945,1988,26501,13153,386,398,17,2,0,577,11,1996,0,191,2222,38,103,211,0,307,6873,0,16,0,0,0
BZ,Belize,country,Latin America and the Caribbean,17.189877,-88.49765,JP,Japan,country,East Asia and Pacific,36.204824,138.252924,12324.0004543956,1988,0,0,0,0,0,0,0,0,0,0,0,0,0,0,0,0,0,0,0,0,0,0,0,0
BJ,Benin,country,Sub-Saharan Africa,9.30769,2.315834,JP,Japan,country,East Asia and Pacific,36.204824,138.252924,13187.738629957,1988,2001,0,0,0,0,0,1000,0,0,0,0,0,0,0,1001,0,0,0,0,0,0,0,0,0
BM,Bermuda,country,North America,32.321384,-64.75737,JP,Japan,country,East Asia and Pacific,36.204824,138.252924,12041.3173795805,1988,620,519,0,0,0,0,0,0,0,0,0,97,0,0,0,4,0,0,0,0,0,0,0,0
BO,Bolivia,country,Latin America and the Caribbean,-16.290154,-63.588653,JP,Japan,country,East Asia and Pacific,36.204824,138.252924,16943.1300067501,1988,135,0,0,0,0,0,0,0,0,0,0,0,135,0,0,0,0,0,0,0,0,0,0,0
BW,Botswana,country,Sub-Saharan Africa,-22.328474,24.684866,JP,Japan,country,East Asia and Pacific,36.204824,138.252924,13527.9410992584,1988,0,0,0,0,0,0,0,0,0,0,0,0,0,0,0,0,0,0,0,0,0,0,0,0
BR,Brazil,country,Latin America and the Caribbean,-14.235004,-51.92528,JP,Japan,country,East Asia and Pacific,36.204824,138.252924,17389.8886348546,1988,905964,10,0,75876,0,36,575957,958,9055,4249,63,65034,109837,13442,10511,3692,0,36353,775,0,116,0,0,0
BN,Brunei Darussalam,country,,4.535277,114.727669,JP,Japan,country,East Asia and Pacific,36.204824,138.252924,4269.1223572903,1988,49,49,0,0,0,0,0,0,0,0,0,0,0,0,0,0,0,0,0,0,0,0,0,0
BG,Bulgaria,country,Europe and Central Asia,42.733883,25.48583,JP,Japan,country,East Asia and Pacific,36.204824,138.252924,8919.68832970306,1988,5710,0,0,0,0,0,0,553,355,95,0,0,0,450,0,4255,0,2,0,0,0,0,0,0
BF,Burkina Faso,country,Sub-Saharan Africa,12.238333,-1.561593,JP,Japan,country,East Asia and Pacific,36.204824,138.252924,13191.8595412222,1988,4156,0,0,0,0,0,2291,0,0,1672,0,0,0,0,193,0,0,0,0,0,0,0,0,0
BI,Burundi,country,Sub-Saharan Africa,-3.373056,29.918886,JP,Japan,country,East Asia and Pacific,36.204824,138.252924,11882.9317190369,1988,2005,0,0,0,0,0,0,0,0,0,0,0,2005,0,0,0,0,0,0,0,0,0,0,0
KH,Cambodia,country,East Asia and Pacific,12.565679,104.990963,JP,Japan,country,East Asia and Pacific,36.204824,138.252924,4239.97422183195,1988,0,0,0,0,0,0,0,0,0,0,0,0,0,0,0,0,0,0,0,0,0,0,0,0
CM,Cameroon,country,Sub-Saharan Africa,7.369722,12.354722,JP,Japan,country,East Asia and Pacific,36.204824,138.252924,12597.9841879944,1988,7138,0,0,0,0,0,0,0,0,855,0,0,6283,0,0,0,0,0,0,0,0,0,0,0
CA,Canada,country,North America,56.130366,-106.346771,JP,Japan,country,East Asia and Pacific,36.204824,138.252924,8091.76666885355,1988,5167631,2560891,19308,4129,7528,0,1771981,1619,1890,2752,0,670711,76,19,59470,21060,73,37308,3316,5573,0,0,0,0
KY,Cayman Islands,country,Latin America and the Caribbean,19.513469,-80.566956,JP,Japan,country,East Asia and Pacific,36.204824,138.252924,12610.5800985492,1988,0,0,0,0,0,0,0,0,0,0,0,0,0,0,0,0,0,0,0,0,0,0,0,0
CF,Central African Rep.,country,Sub-Saharan Africa,6.611111,20.939444,JP,Japan,country,East Asia and Pacific,36.204824,138.252924,11960.7329583865,1988,104,0,0,0,0,0,0,0,0,104,0,0,0,0,0,0,0,0,0,0,0,0,0,0
TD,Chad,country,Sub-Saharan Africa,15.454166,18.732207,JP,Japan,country,East Asia and Pacific,36.204824,138.252924,11471.6283546104,1988,2471,0,0,0,0,0,0,0,0,2471,0,0,0,0,0,0,0,0,0,0,0,0,0,0
CL,Chile,country,Latin America and the Caribbean,-35.675147,-71.542969,JP,Japan,country,East Asia and Pacific,36.204824,138.252924,17362.0430059053,1988,150669,18,0,9,0,10,0,9751,3667,110,185,130513,22,495,0,3055,0,2764,70,0,0,0,0,0
HK,Hong Kong,country,East Asia and Pacific,22.396428,114.109497,JP,Japan,country,East Asia and Pacific,36.204824,138.252924,2790.06002661141,1988,18481,201,0,0,2,157,0,2286,36,827,9,9732,243,192,31,3712,0,972,0,81,0,0,0,0
MO,"Macao SAR, China",country,East Asia and Pacific,22.198745,113.543873,JP,Japan,country,East Asia and Pacific,36.204824,138.252924,2849.269236333,1988,176,0,0,0,0,0,0,0,0,0,0,0,0,0,0,176,0,0,0,0,0,0,0,0
CN,China,country,East Asia and Pacific,35.86166,104.195397,JP,Japan,country,East Asia and Pacific,36.204824,138.252924,3050.17107828729,1988,3608077,1620141,242,29371,64935,34806,440701,281993,25433,181524,13824,833797,13308,5998,3930,22891,0,33103,764,1316,0,0,0,0
TW,Taiwan,country,East Asia and Pacific,23.69781,120.960515,JP,Japan,country,East Asia and Pacific,36.204824,138.252924,2166.30779012163,1988,582751,3634,74,4991,235,7,142,176012,123949,1988,10562,117008,6417,1854,450,5753,8,129129,134,0,412,0,0,0
CO,Colombia,country,Latin America and the Caribbean,4.570868,-74.297333,JP,Japan,country,East Asia and Pacific,36.204824,138.252924,14373.4001368361,1988,48875,0,0,211,0,0,0,77,4382,1048,0,0,43128,0,0,11,0,0,0,18,0,0,0,0
KM,Comoros,country,Sub-Saharan Africa,-11.875001,43.872219,JP,Japan,country,East Asia and Pacific,36.204824,138.252924,11185.1897463702,1988,5,0,0,0,0,0,0,0,0,0,3,0,0,2,0,0,0,0,0,0,0,0,0,0
CG,"Congo, Rep.",country,Sub-Saharan Africa,-0.228021,15.827659,JP,Japan,country,East Asia and Pacific,36.204824,138.252924,12889.2447743235,1988,0,0,0,0,0,0,0,0,0,0,0,0,0,0,0,0,0,0,0,0,0,0,0,0
CK,Cook Islands,country,East Asia and Pacific,-21.236736,-159.777671,JP,Japan,country,East Asia and Pacific,36.204824,138.252924,9126.11920693926,1988,53,0,0,0,53,0,0,0,0,0,0,0,0,0,0,0,0,0,0,0,0,0,0,0
CR,Costa Rica,country,Latin America and the Caribbean,9.748917,-83.753428,JP,Japan,country,East Asia and Pacific,36.204824,138.252924,13291.6202972089,1988,2916,0,0,0,0,0,0,0,55,0,0,0,2733,0,0,1,0,127,0,0,0,0,0,0
CI,Ivory Coast,country,Sub-Saharan Africa,7.539989,-5.54708,JP,Japan,country,East Asia and Pacific,36.204824,138.252924,13871.6786958923,1988,8112,0,0,0,0,0,272,0,0,2360,0,0,5480,0,0,0,0,0,0,0,0,0,0,0
CU,Cuba,country,Latin America and the Caribbean,21.521757,-77.781167,JP,Japan,country,East Asia and Pacific,36.204824,138.252924,12576.3638581276,1988,336744,0,0,331952,0,0,0,0,1528,0,0,0,3174,5,0,81,0,4,0,0,0,0,0,0
CY,Cyprus,country,Europe and Central Asia,35.126413,33.429859,JP,Japan,country,East Asia and Pacific,36.204824,138.252924,8922.56110404362,1988,991,0,0,0,201,0,0,0,0,0,0,32,0,0,0,758,0,0,0,0,0,0,0,0
CZ,Czech Republic,country,Europe and Central Asia,49.817492,15.472962,JP,Japan,country,East Asia and Pacific,36.204824,138.252924,8933.13048344174,1988,58106,39241,0,0,0,0,0,23,8,0,0,32,53,2222,0,81,0,0,16446,0,0,0,0,0
KP,"Korea, Dem. Rep.",country,East Asia and Pacific,40.339852,127.510093,JP,Japan,country,East Asia and Pacific,36.204824,138.252924,1044.63145122605,1988,9676,936,0,5,531,53,0,1679,87,1021,31,4905,0,343,0,82,0,3,0,0,0,0,0,0
CD,"Congo, Dem. Rep.",country,Sub-Saharan Africa,-4.038333,21.758664,JP,Japan,country,East Asia and Pacific,36.204824,138.252924,12648.1503628369,1988,833,0,0,0,0,0,0,0,0,0,0,0,833,0,0,0,0,0,0,0,0,0,0,0
DK,Denmark,country,Europe and Central Asia,56.26392,9.501785,JP,Japan,country,East Asia and Pacific,36.204824,138.252924,8664.71183472864,1988,330988,176234,0,1450,0,0,0,24,46,0,0,66,1492,7,198,641,0,132793,17921,116,0,0,0,0
DM,Dominica,country,Latin America and the Caribbean,15.414999,-61.370976,JP,Japan,country,East Asia and Pacific,36.204824,138.252924,13931.4485094987,1988,623,0,0,0,0,0,0,0,0,0,0,0,623,0,0,0,0,0,0,0,0,0,0,0
DO,Dominican Republic,country,Latin America and the Caribbean,18.735693,-70.162651,JP,Japan,country,East Asia and Pacific,36.204824,138.252924,13229.1757100189,1988,21,0,0,0,0,0,0,0,0,0,0,0,21,0,0,0,0,0,0,0,0,0,0,0
EC,Ecuador,country,Latin America and the Caribbean,-1.831239,-78.183406,JP,Japan,country,East Asia and Pacific,36.204824,138.252924,14682.054333694,1988,77566,0,0,0,0,0,0,0,70564,633,6,0,6222,0,0,141,0,0,0,0,0,0,0,0
EG,Egypt,country,Middle East and North Africa,26.820553,30.802498,JP,Japan,country,East Asia and Pacific,36.204824,138.252924,9696.1079625791,1988,23680,1,0,0,0,0,0,130,0,23542,0,0,0,7,0,0,0,0,0,0,0,0,0,0
SV,El Salvador,country,Latin America and the Caribbean,13.794185,-88.89653,JP,Japan,country,East Asia and Pacific,36.204824,138.252924,12588.6312198778,1988,11431,0,0,0,0,0,2713,0,0,0,0,0,8718,0,0,0,0,0,0,0,0,0,0,0
GQ,Equatorial Guinea,country,Sub-Saharan Africa,1.650801,10.267895,JP,Japan,country,East Asia and Pacific,36.204824,138.252924,13207.6036561886,1988,0,0,0,0,0,0,0,0,0,0,0,0,0,0,0,0,0,0,0,0,0,0,0,0
ET,Ethiopia,country,Sub-Saharan Africa,9.145,40.489673,JP,Japan,country,East Asia and Pacific,36.204824,138.252924,10106.3560024324,1988,14342,0,0,0,0,0,0,0,0,715,0,498,11917,0,0,0,0,20,277,915,0,0,0,0
FK,Falkland Islands,country,,-51.796253,-59.523613,JP,Japan,country,East Asia and Pacific,36.204824,138.252924,17805.217540199,1988,6,0,0,0,0,0,0,0,0,6,0,0,0,0,0,0,0,0,0,0,0,0,0,0
FJ,Fiji,country,East Asia and Pacific,-16.578193,179.414413,JP,Japan,country,East Asia and Pacific,36.204824,138.252924,7298.36585683368,1988,73793,0,0,72322,0,0,0,406,12,0,0,1053,0,0,0,0,0,0,0,0,0,0,0,0
FI,Finland,country,Europe and Central Asia,61.92411,25.748151,JP,Japan,country,East Asia and Pacific,36.204824,138.252924,7561.46476705014,1988,9129,109,0,4911,0,0,0,0,5,0,0,0,1562,894,0,162,0,382,1104,0,0,0,0,0
FR,France,country,Europe and Central Asia,46.227638,2.213749,JP,Japan,country,East Asia and Pacific,36.204824,138.252924,9861.13829749916,1988,132356,47591,117,3180,1,128,379,903,2146,10378,62,2020,2133,193,163,54761,93,3158,4662,381,0,0,0,0
GA,Gabon,country,Sub-Saharan Africa,-0.803689,11.609444,JP,Japan,country,East Asia and Pacific,36.204824,138.252924,13283.684323831,1988,0,0,0,0,0,0,0,0,0,0,0,0,0,0,0,0,0,0,0,0,0,0,0,0
GH,Ghana,country,Sub-Saharan Africa,7.946527,-1.023194,JP,Japan,country,East Asia and Pacific,36.204824,138.252924,13536.5191108546,1988,26861,0,0,0,0,0,0,0,0,0,0,0,26636,0,225,0,0,0,0,0,0,0,0,0
GR,Greece,country,Europe and Central Asia,39.074208,21.824312,JP,Japan,country,East Asia and Pacific,36.204824,138.252924,9421.49654129133,1988,18457,2,0,0,87,0,0,2938,11366,2599,0,0,2,1153,30,96,0,0,0,184,0,0,0,0
GL,Greenland,country,Europe and Central Asia,71.706936,-42.604303,JP,Japan,country,East Asia and Pacific,36.204824,138.252924,8024.63616320793,1988,201,0,0,0,0,0,0,0,0,111,0,0,0,0,0,54,0,36,0,0,0,0,0,0
GD,Grenada,country,Latin America and the Caribbean,12.262776,-61.604171,JP,Japan,country,East Asia and Pacific,36.204824,138.252924,14252.942446543,1988,48,0,0,0,0,0,0,0,0,0,0,0,48,0,0,0,0,0,0,0,0,0,0,0
GU,Guam,country,East Asia and Pacific,13.444304,144.793731,JP,Japan,country,East Asia and Pacific,36.204824,138.252924,2616.62204167965,1988,2,0,0,2,0,0,0,0,0,0,0,0,0,0,0,0,0,0,0,0,0,0,0,0
GT,Guatemala,country,Latin America and the Caribbean,15.783471,-90.230759,JP,Japan,country,East Asia and Pacific,36.204824,138.252924,12326.7633794206,1988,13937,0,0,0,0,0,5524,18,0,1330,49,0,6180,673,0,3,0,160,0,0,0,0,0,0
GY,Guyana,country,Latin America and the Caribbean,4.860416,-58.93018,JP,Japan,country,East Asia and Pacific,36.204824,138.252924,15127.8536716989,1988,0,0,0,0,0,0,0,0,0,0,0,0,0,0,0,0,0,0,0,0,0,0,0,0
HT,Haiti,country,Latin America and the Caribbean,18.971187,-72.285215,JP,Japan,country,East Asia and Pacific,36.204824,138.252924,13104.9638022615,1988,493,0,0,0,0,0,0,0,0,0,0,0,493,0,0,0,0,0,0,0,0,0,0,0
HN,Honduras,country,Latin America and the Caribbean,15.199999,-86.241905,JP,Japan,country,East Asia and Pacific,36.204824,138.252924,12647.4763789551,1988,14456,0,0,0,0,0,373,0,1340,1,0,0,12525,0,0,2,0,152,0,63,0,0,0,0
HU,Hungary,country,Europe and Central Asia,47.162494,19.503304,JP,Japan,country,East Asia and Pacific,36.204824,138.252924,8934.04871790706,1988,4760,34,0,816,1724,0,73,170,317,8,902,0,0,0,0,413,5,303,0,0,0,0,0,0
IS,Iceland,country,Europe and Central Asia,64.963051,-19.020835,JP,Japan,country,East Asia and Pacific,36.204824,138.252924,8602.70359236856,1988,1044,0,0,0,0,0,0,0,0,4,0,59,0,0,0,9,0,972,0,0,0,0,0,0
IN,India,country,South Asia,20.593684,78.96288,JP,Japan,country,East Asia and Pacific,36.204824,138.252924,5965.97997747552,1988,25450,2,0,0,0,3600,23,488,23,10087,3567,0,4406,1601,1605,48,0,0,0,0,0,0,0,0
ID,Indonesia,country,East Asia and Pacific,-0.789275,113.921327,JP,Japan,country,East Asia and Pacific,36.204824,138.252924,4827.02443872358,1988,465157,7707,0,152919,0,100,1826,142,275,769,2331,133496,65027,79714,15708,5068,0,15,4,56,0,0,0,0
IR,Iran,country,Middle East and North Africa,32.427908,53.688046,JP,Japan,country,East Asia and Pacific,36.204824,138.252924,7523.93653191863,1988,7525,0,0,0,0,6477,0,1,0,118,916,0,13,0,0,0,0,0,0,0,0,0,0,0
IE,Ireland,country,Europe and Central Asia,53.41291,-8.24389,JP,Japan,country,East Asia and Pacific,36.204824,138.252924,9551.2243151296,1988,18364,8332,0,6,0,0,0,0,0,28,0,228,122,0,0,795,0,6130,2493,230,0,0,0,0
IL,Israel,country,Middle East and North Africa,31.046051,34.851612,JP,Japan,country,East Asia and Pacific,36.204824,138.252924,9094.53196820569,1988,6354,0,1,0,0,0,3,492,4965,46,17,0,0,8,0,551,0,70,201,0,0,0,0,0
IT,Italy,country,Europe and Central Asia,41.87194,12.56738,JP,Japan,country,East Asia and Pacific,36.204824,138.252924,9739.59490027946,1988,67557,40632,0,146,4,179,22,14562,1922,73,2,447,184,1124,1478,3321,0,0,376,3085,0,0,0,0
JM,Jamaica,country,Latin America and the Caribbean,18.109581,-77.297508,JP,Japan,country,East Asia and Pacific,36.204824,138.252924,12927.3431063077,1988,2208,0,0,0,0,0,0,0,0,0,112,0,1451,3,0,642,0,0,0,0,0,0,0,0
KE,Kenya,country,Sub-Saharan Africa,-0.023559,37.906193,JP,Japan,country,East Asia and Pacific,36.204824,138.252924,10947.9371057567,1988,14064,12819,0,0,0,359,0,0,0,0,0,0,844,6,20,7,0,0,9,0,0,0,0,0
LA,Lao PDR,country,East Asia and Pacific,19.85627,102.495496,JP,Japan,country,East Asia and Pacific,36.204824,138.252924,3925.51010787283,1988,0,0,0,0,0,0,0,0,0,0,0,0,0,0,0,0,0,0,0,0,0,0,0,0
LS,Lesotho,country,Sub-Saharan Africa,-29.609988,28.233608,JP,Japan,country,East Asia and Pacific,36.204824,138.252924,13596.7093944095,1988,17,0,0,0,0,0,0,17,0,0,0,0,0,0,0,0,0,0,0,0,0,0,0,0
LY,Libya,country,Middle East and North Africa,26.3351,17.228331,JP,Japan,country,East Asia and Pacific,36.204824,138.252924,10726.1925047721,1988,8,0,0,0,0,0,0,0,0,0,0,0,8,0,0,0,0,0,0,0,0,0,0,0
MG,Madagascar,country,Sub-Saharan Africa,-18.766947,46.869107,JP,Japan,country,East Asia and Pacific,36.204824,138.252924,11358.3068519105,1988,3434,0,0,0,0,0,1598,0,0,0,73,0,1745,18,0,0,0,0,0,0,0,0,0,0
MW,Malawi,country,Sub-Saharan Africa,-13.254308,34.301525,JP,Japan,country,East Asia and Pacific,36.204824,138.252924,12128.56732402,1988,7460,0,0,0,0,0,0,0,0,0,38,0,0,7422,0,0,0,0,0,0,0,0,0,0
MY,Malaysia,country,East Asia and Pacific,4.210484,101.975766,JP,Japan,country,East Asia and Pacific,36.204824,138.252924,5143.2143318209,1988,431045,36,0,10125,0,67,19,35,3957,647,4277,242,4724,121826,282223,1881,0,976,0,10,0,0,0,0
MV,Maldives,country,South Asia,3.202778,73.22068,JP,Japan,country,East Asia and Pacific,36.204824,138.252924,7580.27549651898,1988,28,0,0,0,0,0,0,0,0,0,0,0,28,0,0,0,0,0,0,0,0,0,0,0
ML,Mali,country,Sub-Saharan Africa,17.570692,-3.996166,JP,Japan,country,East Asia and Pacific,36.204824,138.252924,12853.2808045785,1988,487,0,0,0,0,0,0,0,0,487,0,0,0,0,0,0,0,0,0,0,0,0,0,0
MT,Malta,country,Middle East and North Africa,35.937496,14.375416,JP,Japan,country,East Asia and Pacific,36.204824,138.252924,10130.4167210413,1988,20,0,0,0,0,0,0,0,0,0,0,0,0,0,0,20,0,0,0,0,0,0,0,0
MU,Mauritius,country,Sub-Saharan Africa,-20.348404,57.552152,JP,Japan,country,East Asia and Pacific,36.204824,138.252924,10549.6544726242,1988,20,0,0,18,0,0,0,0,0,0,0,0,0,0,0,2,0,0,0,0,0,0,0,0
MX,Mexico,country,Latin America and the Caribbean,23.634501,-102.552784,JP,Japan,country,East Asia and Pacific,36.204824,138.252924,10810.2301635132,1988,77248,205,0,115,317,1,136,32762,6149,18877,26,33,8158,1154,0,1199,0,8116,0,0,0,0,0,0
MC,Monaco,country,Europe and Central Asia,43.750298,7.412841,JP,Japan,country,East Asia and Pacific,36.204824,138.252924,9844.69748105774,1988,0,0,0,0,0,0,0,0,0,0,0,0,0,0,0,0,0,0,0,0,0,0,0,0
MN,Mongolia,country,East Asia and Pacific,46.862496,103.846656,JP,Japan,country,East Asia and Pacific,36.204824,138.252924,3072.10798165946,1988,294,0,0,0,0,0,48,0,0,197,0,0,0,0,0,1,0,48,0,0,0,0,0,0
MA,Morocco,country,Middle East and North Africa,31.791702,-7.09262,JP,Japan,country,East Asia and Pacific,36.204824,138.252924,11650.0917676843,1988,5815,0,0,0,294,0,1,536,0,1228,3754,0,0,2,0,0,0,0,0,0,0,0,0,0
MZ,Mozambique,country,Sub-Saharan Africa,-18.665695,35.529562,JP,Japan,country,East Asia and Pacific,36.204824,138.252924,12349.9353844953,1988,0,0,0,0,0,0,0,0,0,0,0,0,0,0,0,0,0,0,0,0,0,0,0,0
MM,Myanmar,country,East Asia and Pacific,21.913965,95.956223,JP,Japan,country,East Asia and Pacific,36.204824,138.252924,4371.53379602396,1988,11931,0,0,0,11526,0,0,0,0,0,0,0,0,400,0,0,0,0,0,5,0,0,0,0
NP,Nepal,country,South Asia,28.394857,84.124008,JP,Japan,country,East Asia and Pacific,36.204824,138.252924,5101.4332242701,1988,315,0,0,0,0,0,0,0,0,0,0,0,0,0,315,0,0,0,0,0,0,0,0,0
NL,Netherlands,country,Europe and Central Asia,52.132633,5.291266,JP,Japan,country,East Asia and Pacific,36.204824,138.252924,9195.35225352267,1988,105009,14094,2336,28923,94,0,173,435,360,118,19,725,16737,190,2064,3504,160,155,28067,7015,0,0,0,0
NC,New Caledonia,country,East Asia and Pacific,-20.904305,165.618042,JP,Japan,country,East Asia and Pacific,36.204824,138.252924,6979.46176793118,1988,31,0,0,0,0,0,0,0,0,0,0,0,0,0,0,12,0,19,0,0,0,0,0,0
NZ,New Zealand,country,East Asia and Pacific,-40.900557,174.885971,JP,Japan,country,East Asia and Pacific,36.204824,138.252924,9362.64636961408,1988,382949,9983,9,4699,4313,0,7110,97228,55124,19603,0,35366,10088,68,1045,933,0,63212,66068,8100,0,0,0,0
NI,Nicaragua,country,Latin America and the Caribbean,12.865416,-85.207229,JP,Japan,country,East Asia and Pacific,36.204824,138.252924,12920.8930617658,1988,28075,0,0,0,0,0,788,0,0,26519,0,0,652,0,0,0,0,116,0,0,0,0,0,0
NG,Nigeria,country,Sub-Saharan Africa,9.081999,8.675277,JP,Japan,country,East Asia and Pacific,36.204824,138.252924,12744.1662676694,1988,21,0,0,0,0,0,0,0,0,0,0,0,0,0,0,17,0,0,0,4,0,0,0,0
NO,Norway,country,Europe and Central Asia,60.472024,8.468946,JP,Japan,country,East Asia and Pacific,36.204824,138.252924,8344.6121931756,1988,8475,19,0,0,0,0,0,0,0,12,0,403,2,0,21,603,0,190,7225,0,0,0,0,0
OM,Oman,country,Middle East and North Africa,21.512583,55.923255,JP,Japan,country,East Asia and Pacific,36.204824,138.252924,7962.72854447021,1988,88,0,0,0,0,0,0,0,0,0,0,0,0,0,0,88,0,0,0,0,0,0,0,0
PK,Pakistan,country,South Asia,30.375321,69.345116,JP,Japan,country,East Asia and Pacific,36.204824,138.252924,6310.43555597532,1988,73745,4,0,0,0,1,272,0,0,72871,145,452,0,0,0,0,0,0,0,0,0,0,0,0
PA,Panama,country,Latin America and the Caribbean,8.537981,-80.782127,JP,Japan,country,East Asia and Pacific,36.204824,138.252924,13597.6637557309,1988,6,0,0,0,0,0,0,0,0,0,1,0,0,0,0,3,0,0,0,2,0,0,0,0
PG,Papua New Guinea,country,East Asia and Pacific,-6.314993,143.95555,JP,Japan,country,East Asia and Pacific,36.204824,138.252924,4770.62341495119,1988,37103,0,0,0,0,0,36238,0,0,0,0,0,834,0,0,0,0,0,0,31,0,0,0,0
PY,Paraguay,country,Latin America and the Caribbean,-23.442503,-58.443832,JP,Japan,country,East Asia and Pacific,36.204824,138.252924,17894.4827453123,1988,125290,0,0,0,0,0,121967,0,0,3250,0,0,48,25,0,0,0,0,0,0,0,0,0,0
PE,Peru,country,Latin America and the Caribbean,-9.189967,-75.015152,JP,Japan,country,East Asia and Pacific,36.204824,138.252924,15528.4619541812,1988,12948,1122,0,0,35,52,0,115,77,2768,0,0,8756,20,0,3,0,0,0,0,0,0,0,0
PH,Philippines,country,East Asia and Pacific,12.879721,121.774017,JP,Japan,country,East Asia and Pacific,36.204824,138.252924,3075.73619699701,1988,883411,103,0,56332,0,121,39128,1399,747303,4694,15,4299,3448,846,24534,1189,0,0,0,0,0,0,0,0
PL,Poland,country,Europe and Central Asia,51.919438,19.145136,JP,Japan,country,East Asia and Pacific,36.204824,138.252924,8585.36265168796,1988,22000,4055,0,9,0,0,87,63,102,1,0,0,0,88,291,191,0,41,16865,207,0,0,0,0
PT,Portugal,country,Europe and Central Asia,39.399872,-8.224454,JP,Japan,country,East Asia and Pacific,36.204824,138.252924,10946.1966061878,1988,10480,0,0,0,220,0,0,8530,83,111,0,0,0,6,0,1530,0,0,0,0,0,0,0,0
KR,"Korea, Rep.",country,East Asia and Pacific,35.907757,127.766922,JP,Japan,country,East Asia and Pacific,36.204824,138.252924,943.807690475197,1988,199400,40486,257,6528,6,4728,39,15110,35304,1181,609,46710,16631,926,1452,20966,19,8004,74,0,389,0,0,0
RE,Reunion,country,Sub-Saharan Africa,-21.115141,55.536384,JP,Japan,country,East Asia and Pacific,36.204824,138.252924,10768.9957628981,1988,12,0,0,0,0,0,0,0,0,0,1,0,0,0,0,11,0,0,0,0,0,0,0,0
RO,Romania,country,Europe and Central Asia,45.943161,24.96676,JP,Japan,country,East Asia and Pacific,36.204824,138.252924,8717.07639116952,1988,1469,0,0,16,0,0,0,182,0,0,0,0,0,0,0,1168,0,85,18,0,0,0,0,0
RW,Rwanda,country,Sub-Saharan Africa,-1.940278,29.873888,JP,Japan,country,East Asia and Pacific,36.204824,138.252924,11790.8178114398,1988,133,0,0,0,0,0,0,0,0,0,0,0,133,0,0,0,0,0,0,0,0,0,0,0
LC,St. Lucia,country,Latin America and the Caribbean,13.909444,-60.978893,JP,Japan,country,East Asia and Pacific,36.204824,138.252924,14103.5677000013,1988,6,0,0,0,0,0,0,0,0,0,0,0,6,0,0,0,0,0,0,0,0,0,0,0
VC,St. Vincent & Grenadines,country,Latin America and the Caribbean,12.984305,-61.287228,JP,Japan,country,East Asia and Pacific,36.204824,138.252924,14189.3679851117,1988,0,0,0,0,0,0,0,0,0,0,0,0,0,0,0,0,0,0,0,0,0,0,0,0
SN,Senegal,country,Sub-Saharan Africa,14.497401,-14.452362,JP,Japan,country,East Asia and Pacific,36.204824,138.252924,13705.4678671087,1988,1079,0,0,0,0,0,0,0,0,1079,0,0,0,0,0,0,0,0,0,0,0,0,0,0
SG,Singapore,country,East Asia and Pacific,1.352083,103.819836,JP,Japan,country,East Asia and Pacific,36.204824,138.252924,5255.66692867614,1988,83781,10982,0,215,78,11,0,344,229,0,70,52,25166,5770,1713,39124,0,4,0,23,0,0,0,0
SB,Solomon Islands,country,East Asia and Pacific,-9.64571,160.156194,JP,Japan,country,East Asia and Pacific,36.204824,138.252924,5596.54060164651,1988,10055,0,0,0,0,0,10055,0,0,0,0,0,0,0,0,0,0,0,0,0,0,0,0,0
SO,Somalia,country,Sub-Saharan Africa,5.152149,46.199616,JP,Japan,country,East Asia and Pacific,36.204824,138.252924,9864.07726313018,1988,0,0,0,0,0,0,0,0,0,0,0,0,0,0,0,0,0,0,0,0,0,0,0,0
ZA,S. Africa,country,Sub-Saharan Africa,-30.559482,22.937506,JP,Japan,country,East Asia and Pacific,36.204824,138.252924,14102.6171157721,1988,649349,239695,0,372308,192,50,5597,451,24829,1676,0,0,19,149,206,2378,0,12,1355,432,0,0,0,0
ES,Spain,country,Europe and Central Asia,40.463667,-3.74922,JP,Japan,country,East Asia and Pacific,36.204824,138.252924,10660.5609647911,1988,18717,47,16,381,18,3,269,5014,2856,341,1314,437,117,160,1386,6105,0,14,101,138,0,0,0,0
LK,Sri Lanka,country,South Asia,7.873054,80.771797,JP,Japan,country,East Asia and Pacific,36.204824,138.252924,6600.83867955461,1988,42781,0,0,0,0,3,1286,0,111,2,32,33275,4249,3808,0,15,0,0,0,0,0,0,0,0
SD,Sudan,country,Sub-Saharan Africa,12.862807,30.217636,JP,Japan,country,East Asia and Pacific,36.204824,138.252924,10734.9827289386,1988,29725,0,0,0,0,0,2472,0,0,25636,8,0,0,1606,0,0,0,0,0,3,0,0,0,0
SZ,Swaziland,country,Sub-Saharan Africa,-26.522503,31.465866,JP,Japan,country,East Asia and Pacific,36.204824,138.252924,13156.0547783061,1988,158,0,0,0,0,0,0,0,158,0,0,0,0,0,0,0,0,0,0,0,0,0,0,0
SE,Sweden,country,Europe and Central Asia,60.128161,18.643501,JP,Japan,country,East Asia and Pacific,36.204824,138.252924,7984.04668722803,1988,8955,180,13,4043,0,0,0,773,8,0,0,0,49,13,35,46,0,1311,2311,173,0,0,0,0
CH,Switzerland,country,Europe and Central Asia,46.818188,8.227512,JP,Japan,country,East Asia and Pacific,36.204824,138.252924,9536.18437813669,1988,5096,235,0,989,0,2,0,283,303,0,0,17,2287,363,0,234,0,67,284,32,0,0,0,0
SY,Syrian Arab Rep.,country,Middle East and North Africa,34.802075,38.996815,JP,Japan,country,East Asia and Pacific,36.204824,138.252924,8534.93324271182,1988,1650,0,0,0,0,0,0,0,0,1650,0,0,0,0,0,0,0,0,0,0,0,0,0,0
TH,Thailand,country,East Asia and Pacific,15.870032,100.992541,JP,Japan,country,East Asia and Pacific,36.204824,138.252924,4320.00069575782,1988,1700607,37339,276486,598531,53163,72,27346,27449,24224,5065,38156,74401,1277,446793,4162,1874,0,84156,41,72,0,0,0,0
TG,Togo,country,Sub-Saharan Africa,8.619543,0.824782,JP,Japan,country,East Asia and Pacific,36.204824,138.252924,13350.9417167677,1988,34,0,0,0,0,0,0,34,0,0,0,0,0,0,0,0,0,0,0,0,0,0,0,0
TO,Tonga,country,East Asia and Pacific,-21.178986,-175.198242,JP,Japan,country,East Asia and Pacific,36.204824,138.252924,8048.22781679113,1988,492,0,0,0,0,0,0,492,0,0,0,0,0,0,0,0,0,0,0,0,0,0,0,0
TT,Trinidad and Tobago,country,Latin America and the Caribbean,10.691803,-61.222503,JP,Japan,country,East Asia and Pacific,36.204824,138.252924,14431.3657483464,1988,218,0,0,0,0,0,0,0,0,0,0,0,214,0,0,4,0,0,0,0,0,0,0,0
TN,Tunisia,country,Middle East and North Africa,33.886917,9.537499,JP,Japan,country,East Asia and Pacific,36.204824,138.252924,10591.1639660583,1988,162,0,0,0,0,0,0,144,5,0,0,0,0,13,0,0,0,0,0,0,0,0,0,0
TR,Turkey,country,Europe and Central Asia,38.963745,35.243322,JP,Japan,country,East Asia and Pacific,36.204824,138.252924,8537.2610571626,1988,32172,51,0,0,67,223,473,21648,460,3944,175,0,0,5073,0,58,0,0,0,0,0,0,0,0
UG,Uganda,country,Sub-Saharan Africa,1.373333,32.290275,JP,Japan,country,East Asia and Pacific,36.204824,138.252924,11353.1337668166,1988,4632,0,0,0,0,0,0,0,0,37,0,0,4595,0,0,0,0,0,0,0,0,0,0,0
AE,United Arab Emirates,country,Middle East and North Africa,23.424076,53.847818,JP,Japan,country,East Asia and Pacific,36.204824,138.252924,8028.53645683057,1988,60,0,0,0,0,15,0,29,0,0,0,0,0,0,0,0,0,0,0,16,0,0,0,0
GB,United Kingdom,country,Europe and Central Asia,55.378051,-3.435973,JP,Japan,country,East Asia and Pacific,36.204824,138.252924,9210.72985386697,1988,185641,105735,125,1865,2433,0,36,154,604,3646,5,2148,2190,418,345,44665,201,215,20083,974,0,0,0,0
TZ,Tanzania,country,Sub-Saharan Africa,-6.369028,34.888822,JP,Japan,country,East Asia and Pacific,36.204824,138.252924,11636.1896727597,1988,9674,0,0,0,0,0,5578,0,0,53,212,0,3708,2,0,0,0,0,118,3,0,0,0,0
US,USA,country,North America,37.09024,-95.712891,JP,Japan,country,East Asia and Pacific,36.204824,138.252924,10161.8071431089,1988,28344049,20551348,121132,22796,40092,28184,3699201,204630,581413,322853,153,1824585,14953,79995,111663,162549,455,378775,20469,178754,504,0,0,0
VI,Virgin Islands (U.S.),country,Latin America and the Caribbean,18.335765,-64.896335,JP,Japan,country,East Asia and Pacific,36.204824,138.252924,13495.116289579,1988,0,0,0,0,0,0,0,0,0,0,0,0,0,0,0,0,0,0,0,0,0,0,0,0
UY,Uruguay,country,Latin America and the Caribbean,-32.522779,-55.765835,JP,Japan,country,East Asia and Pacific,36.204824,138.252924,18687.1619801919,1988,39471,15170,0,0,0,0,0,0,0,638,0,23581,0,0,0,2,0,76,0,4,0,0,0,0
RU,Russian Federation,country,Europe and Central Asia,61.52401,105.318756,JP,Japan,country,East Asia and Pacific,36.204824,138.252924,3633.04187416608,1988,31478,0,0,1225,35,0,0,2702,1160,25087,0,0,73,5,0,632,0,219,75,265,0,0,0,0
VU,Vanuatu,country,East Asia and Pacific,-15.376706,166.959158,JP,Japan,country,East Asia and Pacific,36.204824,138.252924,6487.64250126615,1988,1058,0,0,0,0,0,0,0,0,0,0,0,0,0,0,0,0,931,0,127,0,0,0,0
VE,Venezuela,country,Latin America and the Caribbean,6.42375,-66.58973,JP,Japan,country,East Asia and Pacific,36.204824,138.252924,14629.4974054713,1988,3560,0,0,0,0,0,0,0,2,1975,0,0,1582,0,1,0,0,0,0,0,0,0,0,0
VN,Vietnam,country,East Asia and Pacific,14.058324,108.277199,JP,Japan,country,East Asia and Pacific,36.204824,138.252924,3869.76019773838,1988,5436,263,3,10,10,0,3676,299,243,72,787,0,0,50,21,0,0,0,0,2,0,0,0,0
EH,Western Sahara,country,,24.215527,-12.885834,JP,Japan,country,East Asia and Pacific,36.204824,138.252924,12658.9681896019,1988,0,0,0,0,0,0,0,0,0,0,0,0,0,0,0,0,0,0,0,0,0,0,0,0
BA,Bosnia & Herzegovina,country,Europe and Central Asia,43.915886,17.679076,JP,Japan,country,East Asia and Pacific,36.204824,138.252924,9289.85368193954,1988,3240,0,0,41,0,0,0,52,31,0,0,0,0,0,0,3116,0,0,0,0,0,0,0,0
ZM,Zambia,country,Sub-Saharan Africa,-13.133897,27.849332,JP,Japan,country,East Asia and Pacific,36.204824,138.252924,12700.4500723335,1988,4,0,0,0,0,0,0,0,0,0,4,0,0,0,0,0,0,0,0,0,0,0,0,0
ZW,Zimbabwe,country,Sub-Saharan Africa,-19.015438,29.154857,JP,Japan,country,East Asia and Pacific,36.204824,138.252924,12939.2507122754,1988,4066,5,0,0,0,0,243,0,0,1937,0,0,680,1200,0,0,0,0,0,1,0,0,0,0
AF,Afghanistan,country,South Asia,33.93911,67.709953,JP,Japan,country,East Asia and Pacific,36.204824,138.252924,6283.180182728,1989,0,0,0,0,0,0,0,0,0,0,0,0,0,0,0,0,0,0,0,0,0,0,0,0
AL,Albania,country,Europe and Central Asia,41.153332,20.168331,JP,Japan,country,East Asia and Pacific,36.204824,138.252924,9362.67476048682,1989,0,0,0,0,0,0,0,0,0,0,0,0,0,0,0,0,0,0,0,0,0,0,0,0
DZ,Algeria,country,Middle East and North Africa,28.033886,1.659626,JP,Japan,country,East Asia and Pacific,36.204824,138.252924,11563.4288431421,1989,11,0,0,0,0,0,0,0,0,0,0,0,0,0,0,11,0,0,0,0,0,0,0,0
AG,Antigua & Barbuda,country,Latin America and the Caribbean,17.060816,-61.796428,JP,Japan,country,East Asia and Pacific,36.204824,138.252924,13743.5229849878,1989,0,0,0,0,0,0,0,0,0,0,0,0,0,0,0,0,0,0,0,0,0,0,0,0
AR,Argentina,country,Latin America and the Caribbean,-38.416097,-63.616672,JP,Japan,country,East Asia and Pacific,36.204824,138.252924,18090.252730722,1989,601345,438681,0,4835,2102,0,30828,627,200,5047,0,101472,71,410,46,4235,0,12663,128,0,0,0,0,0
AU,Australia,country,East Asia and Pacific,-25.274398,133.775136,JP,Japan,country,East Asia and Pacific,36.204824,138.252924,6859.99185912851,1989,3798523,2107926,0,694594,1815,303,114492,5097,14238,241491,219,139069,7248,128795,32408,11311,10,227621,38987,32909,0,0,0,0
AT,Austria,country,Europe and Central Asia,47.516231,14.550072,JP,Japan,country,East Asia and Pacific,36.204824,138.252924,9166.61613037669,1989,7609,685,0,296,0,1,0,0,694,0,2,875,3398,232,15,244,0,16,1132,19,0,0,0,0
BS,The Bahamas,country,Latin America and the Caribbean,25.03428,-77.39628,JP,Japan,country,East Asia and Pacific,36.204824,138.252924,12259.5844288455,1989,24,0,0,0,0,0,0,0,0,0,0,0,0,0,0,24,0,0,0,0,0,0,0,0
BD,Bangladesh,country,South Asia,23.684994,90.356331,JP,Japan,country,East Asia and Pacific,36.204824,138.252924,4773.96736698547,1989,2563,0,0,0,0,0,0,0,0,2485,0,0,37,0,0,0,0,0,8,33,0,0,0,0
BB,Barbados,country,Latin America and the Caribbean,13.193887,-59.543198,JP,Japan,country,East Asia and Pacific,36.204824,138.252924,14228.9950150676,1989,107,0,0,0,0,0,0,0,0,107,0,0,0,0,0,0,0,0,0,0,0,0,0,0
BE,Belgium,country,Europe and Central Asia,50.503887,4.469936,JP,Japan,country,East Asia and Pacific,36.204824,138.252924,9375.41858049945,1989,35415,17049,511,457,0,0,0,843,30,896,0,192,3256,7518,480,377,0,285,3521,0,0,0,0,0
BZ,Belize,country,Latin America and the Caribbean,17.189877,-88.49765,JP,Japan,country,East Asia and Pacific,36.204824,138.252924,12324.0004543956,1989,404,0,0,0,0,0,0,0,11,393,0,0,0,0,0,0,0,0,0,0,0,0,0,0
BJ,Benin,country,Sub-Saharan Africa,9.30769,2.315834,JP,Japan,country,East Asia and Pacific,36.204824,138.252924,13187.738629957,1989,347,0,0,0,0,0,0,0,0,297,0,0,50,0,0,0,0,0,0,0,0,0,0,0
BM,Bermuda,country,North America,32.321384,-64.75737,JP,Japan,country,East Asia and Pacific,36.204824,138.252924,12041.3173795805,1989,4,0,0,0,0,0,0,0,0,0,0,0,0,0,0,4,0,0,0,0,0,0,0,0
BT,Bhutan,country,South Asia,27.514162,90.433601,JP,Japan,country,East Asia and Pacific,36.204824,138.252924,4576.74093226708,1989,0,0,0,0,0,0,0,0,0,0,0,0,0,0,0,0,0,0,0,0,0,0,0,0
BO,Bolivia,country,Latin America and the Caribbean,-16.290154,-63.588653,JP,Japan,country,East Asia and Pacific,36.204824,138.252924,16943.1300067501,1989,176,0,0,0,0,0,0,0,0,0,0,0,176,0,0,0,0,0,0,0,0,0,0,0
BW,Botswana,country,Sub-Saharan Africa,-22.328474,24.684866,JP,Japan,country,East Asia and Pacific,36.204824,138.252924,13527.9410992584,1989,0,0,0,0,0,0,0,0,0,0,0,0,0,0,0,0,0,0,0,0,0,0,0,0
BR,Brazil,country,Latin America and the Caribbean,-14.235004,-51.92528,JP,Japan,country,East Asia and Pacific,36.204824,138.252924,17389.8886348546,1989,1048963,52,0,107415,0,41,685196,1899,11565,9013,183,53068,115403,14044,2858,3165,0,42950,1718,0,393,0,0,0
VG,British Virgin Islands,country,Latin America and the Caribbean,18.420695,-64.639968,JP,Japan,country,East Asia and Pacific,36.204824,138.252924,13496.3243256814,1989,5,0,0,0,0,0,0,0,0,0,0,0,0,0,0,5,0,0,0,0,0,0,0,0
BN,Brunei Darussalam,country,,4.535277,114.727669,JP,Japan,country,East Asia and Pacific,36.204824,138.252924,4269.1223572903,1989,71,0,0,0,0,0,0,17,0,0,0,0,0,0,0,0,0,54,0,0,0,0,0,0
BG,Bulgaria,country,Europe and Central Asia,42.733883,25.48583,JP,Japan,country,East Asia and Pacific,36.204824,138.252924,8919.68832970306,1989,4290,0,0,0,0,0,0,456,197,54,0,0,0,357,0,3208,0,18,0,0,0,0,0,0
BF,Burkina Faso,country,Sub-Saharan Africa,12.238333,-1.561593,JP,Japan,country,East Asia and Pacific,36.204824,138.252924,13191.8595412222,1989,2009,0,0,0,0,0,670,0,0,1334,0,0,0,0,0,0,0,0,0,5,0,0,0,0
BI,Burundi,country,Sub-Saharan Africa,-3.373056,29.918886,JP,Japan,country,East Asia and Pacific,36.204824,138.252924,11882.9317190369,1989,2377,0,0,0,0,0,0,0,0,0,0,0,2377,0,0,0,0,0,0,0,0,0,0,0
KH,Cambodia,country,East Asia and Pacific,12.565679,104.990963,JP,Japan,country,East Asia and Pacific,36.204824,138.252924,4239.97422183195,1989,0,0,0,0,0,0,0,0,0,0,0,0,0,0,0,0,0,0,0,0,0,0,0,0
CM,Cameroon,country,Sub-Saharan Africa,7.369722,12.354722,JP,Japan,country,East Asia and Pacific,36.204824,138.252924,12597.9841879944,1989,9525,0,0,0,0,0,0,0,0,4371,0,0,5154,0,0,0,0,0,0,0,0,0,0,0
CA,Canada,country,North America,56.130366,-106.346771,JP,Japan,country,East Asia and Pacific,36.204824,138.252924,8091.76666885355,1989,5187638,2540310,20941,4881,9450,0,1880196,1233,1728,255,0,588067,129,1021,57274,17352,76,46042,8984,9732,43,0,0,0
KY,Cayman Islands,country,Latin America and the Caribbean,19.513469,-80.566956,JP,Japan,country,East Asia and Pacific,36.204824,138.252924,12610.5800985492,1989,0,0,0,0,0,0,0,0,0,0,0,0,0,0,0,0,0,0,0,0,0,0,0,0
CF,Central African Rep.,country,Sub-Saharan Africa,6.611111,20.939444,JP,Japan,country,East Asia and Pacific,36.204824,138.252924,11960.7329583865,1989,293,0,0,0,0,0,0,0,0,293,0,0,0,0,0,0,0,0,0,0,0,0,0,0
TD,Chad,country,Sub-Saharan Africa,15.454166,18.732207,JP,Japan,country,East Asia and Pacific,36.204824,138.252924,11471.6283546104,1989,6346,0,0,0,0,0,0,0,0,6346,0,0,0,0,0,0,0,0,0,0,0,0,0,0
CL,Chile,country,Latin America and the Caribbean,-35.675147,-71.542969,JP,Japan,country,East Asia and Pacific,36.204824,138.252924,17362.0430059053,1989,144380,382,0,1,119,0,0,10346,8159,167,394,118268,28,690,0,2698,0,3023,105,0,0,0,0,0
HK,Hong Kong,country,East Asia and Pacific,22.396428,114.109497,JP,Japan,country,East Asia and Pacific,36.204824,138.252924,2790.06002661141,1989,17222,197,5,5,35,201,38,1231,28,488,30,9292,340,1516,112,2863,1,834,7,0,0,0,0,0
MO,"Macao SAR, China",country,East Asia and Pacific,22.198745,113.543873,JP,Japan,country,East Asia and Pacific,36.204824,138.252924,2849.269236333,1989,3,0,0,0,0,0,0,0,0,0,0,0,0,3,0,0,0,0,0,0,0,0,0,0
CN,China,country,East Asia and Pacific,35.86166,104.195397,JP,Japan,country,East Asia and Pacific,36.204824,138.252924,3050.17107828729,1989,3606715,1888999,439,48192,70161,33736,366952,291244,30354,91298,15565,673378,13311,9859,3780,27614,0,40161,985,687,0,0,0,0
TW,Taiwan,country,East Asia and Pacific,23.69781,120.960515,JP,Japan,country,East Asia and Pacific,36.204824,138.252924,2166.30779012163,1989,522639,5233,106,4930,659,0,258,177032,101206,1668,6796,92461,5792,5389,341,3614,35,116505,150,0,499,0,0,0
CO,Colombia,country,Latin America and the Caribbean,4.570868,-74.297333,JP,Japan,country,East Asia and Pacific,36.204824,138.252924,14373.4001368361,1989,47934,0,0,210,0,0,0,108,3884,45,0,0,43384,289,0,0,0,14,0,0,0,0,0,0
