sourceCode,sourceName,sourceGrouping,sourceRegion,sourceLat,sourceLong,destCode,destName,destGrouping,destRegion,destLat,destLong,distance,year,totalTons,cereals,roots,sugarCrops,pulses,nuts,oilCrops,vegetables,fruits,fibers,spices,fodderCrops,coffeeTea,tobaccoRubber,oilsFats,beverages,livestock,animalMeats,animalProducts,animalHides,nimalOther,pesticides,fertilizers,machinery
AF,Afghanistan,country,South Asia,33.93911,67.709953,RS,Serbia,country,Europe and Central Asia,44.016521,21.005859,4135.13119646354,1992,18,0,0,0,0,0,0,0,18,0,0,0,0,0,0,0,0,0,0,0,0,0,0,0
AL,Albania,country,Europe and Central Asia,41.153332,20.168331,RS,Serbia,country,Europe and Central Asia,44.016521,21.005859,326.03171728063,1992,638,0,0,0,0,5,0,449,19,0,0,0,0,10,0,124,0,0,0,31,0,0,0,0
DZ,Algeria,country,Middle East and North Africa,28.033886,1.659626,RS,Serbia,country,Europe and Central Asia,44.016521,21.005859,2477.49626540865,1992,1,1,0,0,0,0,0,0,0,0,0,0,0,0,0,0,0,0,0,0,0,0,0,0
AR,Argentina,country,Latin America and the Caribbean,-38.416097,-63.616672,RS,Serbia,country,Europe and Central Asia,44.016521,21.005859,12497.7704110917,1992,17025,0,0,0,0,0,100,0,0,10,0,16915,0,0,0,0,0,0,0,0,0,0,0,0
AU,Australia,country,East Asia and Pacific,-25.274398,133.775136,RS,Serbia,country,Europe and Central Asia,44.016521,21.005859,13720.5983494055,1992,3469,0,0,0,0,0,0,0,0,1677,0,0,0,0,0,0,0,24,0,1768,0,0,0,0
AT,Austria,country,Europe and Central Asia,47.516231,14.550072,RS,Serbia,country,Europe and Central Asia,44.016521,21.005859,634.53944446226,1992,5765,196,2,88,100,20,14,171,235,131,20,208,936,401,1963,182,0,478,102,518,0,0,0,0
BD,Bangladesh,country,South Asia,23.684994,90.356331,RS,Serbia,country,Europe and Central Asia,44.016521,21.005859,6595.06138301243,1992,4619,0,0,0,0,0,0,0,0,4619,0,0,0,0,0,0,0,0,0,0,0,0,0,0
BY,Belarus,country,Europe and Central Asia,53.709807,27.953389,RS,Serbia,country,Europe and Central Asia,44.016521,21.005859,1191.63119756659,1992,959,0,0,0,0,0,0,0,0,0,0,0,0,959,0,0,0,0,0,0,0,0,0,0
BE,Belgium,country,Europe and Central Asia,50.503887,4.469936,RS,Serbia,country,Europe and Central Asia,44.016521,21.005859,1438.34599769097,1992,1496,0,375,1,0,0,0,60,0,287,0,35,39,453,189,0,0,18,39,0,0,0,0,0
BM,Bermuda,country,North America,32.321384,-64.75737,RS,Serbia,country,Europe and Central Asia,44.016521,21.005859,7279.32204796001,1992,3,0,0,0,0,0,0,0,0,0,0,0,0,0,0,3,0,0,0,0,0,0,0,0
BW,Botswana,country,Sub-Saharan Africa,-22.328474,24.684866,RS,Serbia,country,Europe and Central Asia,44.016521,21.005859,7395.03369190608,1992,29,0,0,0,0,0,0,0,0,0,0,0,0,0,0,0,0,0,0,29,0,0,0,0
BR,Brazil,country,Latin America and the Caribbean,-14.235004,-51.92528,RS,Serbia,country,Europe and Central Asia,44.016521,21.005859,9803.55343945678,1992,45470,0,0,0,0,0,0,0,393,0,670,17134,27253,20,0,0,0,0,0,0,0,0,0,0
BG,Bulgaria,country,Europe and Central Asia,42.733883,25.48583,RS,Serbia,country,Europe and Central Asia,44.016521,21.005859,389.537077453946,1992,18626,1174,0,15,0,0,4972,1281,517,306,1,0,0,125,226,126,0,2302,7539,42,0,0,0,0
CM,Cameroon,country,Sub-Saharan Africa,7.369722,12.354722,RS,Serbia,country,Europe and Central Asia,44.016521,21.005859,4165.43621620507,1992,264,0,0,0,0,0,0,0,0,0,0,0,159,0,90,0,0,15,0,0,0,0,0,0
CA,Canada,country,North America,56.130366,-106.346771,RS,Serbia,country,Europe and Central Asia,44.016521,21.005859,7848.12742764706,1992,194,0,92,0,0,0,0,0,0,102,0,0,0,0,0,0,0,0,0,0,0,0,0,0
CL,Chile,country,Latin America and the Caribbean,-35.675147,-71.542969,RS,Serbia,country,Europe and Central Asia,44.016521,21.005859,12862.3909629852,1992,6,0,0,0,0,0,0,0,6,0,0,0,0,0,0,0,0,0,0,0,0,0,0,0
CN,China,country,East Asia and Pacific,35.86166,104.195397,RS,Serbia,country,Europe and Central Asia,44.016521,21.005859,6853.20210928996,1992,1412,0,0,0,0,0,1238,117,0,0,20,0,0,37,0,0,0,0,0,0,0,0,0,0
TW,Taiwan,country,East Asia and Pacific,23.69781,120.960515,RS,Serbia,country,Europe and Central Asia,44.016521,21.005859,8958.67276651051,1992,48,0,0,0,0,0,0,0,0,0,0,0,0,0,48,0,0,0,0,0,0,0,0,0
CO,Colombia,country,Latin America and the Caribbean,4.570868,-74.297333,RS,Serbia,country,Europe and Central Asia,44.016521,21.005859,10088.1529694605,1992,3369,0,0,0,0,0,0,0,3081,0,0,0,288,0,0,0,0,0,0,0,0,0,0,0
CR,Costa Rica,country,Latin America and the Caribbean,9.748917,-83.753428,RS,Serbia,country,Europe and Central Asia,44.016521,21.005859,10420.1986230751,1992,9381,0,0,0,0,0,0,0,9182,0,0,0,199,0,0,0,0,0,0,0,0,0,0,0
CI,Ivory Coast,country,Sub-Saharan Africa,7.539989,-5.54708,RS,Serbia,country,Europe and Central Asia,44.016521,21.005859,4809.61628628367,1992,366,0,0,0,0,0,1,0,30,0,0,0,335,0,0,0,0,0,0,0,0,0,0,0
CU,Cuba,country,Latin America and the Caribbean,21.521757,-77.781167,RS,Serbia,country,Europe and Central Asia,44.016521,21.005859,9040.87874317642,1992,45722,0,0,45697,0,0,0,0,24,0,0,0,0,0,0,1,0,0,0,0,0,0,0,0
CY,Cyprus,country,Europe and Central Asia,35.126413,33.429859,RS,Serbia,country,Europe and Central Asia,44.016521,21.005859,1451.60371274688,1992,2297,0,0,38,0,0,0,10,515,106,0,1308,103,43,98,18,0,58,0,0,0,0,0,0
CZ,Czech Republic,country,Europe and Central Asia,49.817492,15.472962,RS,Serbia,country,Europe and Central Asia,44.016521,21.005859,770.233140648118,1992,4189,191,0,5,129,0,478,0,0,574,0,80,0,110,140,219,0,49,2194,20,0,0,0,0
CD,"Congo, Dem. Rep.",country,Sub-Saharan Africa,-4.038333,21.758664,RS,Serbia,country,Europe and Central Asia,44.016521,21.005859,5349.9728194564,1992,247,0,0,0,0,0,0,0,182,0,0,0,65,0,0,0,0,0,0,0,0,0,0,0
DK,Denmark,country,Europe and Central Asia,56.26392,9.501785,RS,Serbia,country,Europe and Central Asia,44.016521,21.005859,1586.65641821047,1992,299,29,0,0,0,0,0,41,0,0,0,4,8,45,62,1,0,67,42,0,0,0,0,0
DO,Dominican Republic,country,Latin America and the Caribbean,18.735693,-70.162651,RS,Serbia,country,Europe and Central Asia,44.016521,21.005859,8673.83549169584,1992,8,0,0,0,0,0,0,0,8,0,0,0,0,0,0,0,0,0,0,0,0,0,0,0
EC,Ecuador,country,Latin America and the Caribbean,-1.831239,-78.183406,RS,Serbia,country,Europe and Central Asia,44.016521,21.005859,10895.2522100197,1992,7057,0,0,0,0,0,0,0,6995,0,0,0,62,0,0,0,0,0,0,0,0,0,0,0
EG,Egypt,country,Middle East and North Africa,26.820553,30.802498,RS,Serbia,country,Europe and Central Asia,44.016521,21.005859,2106.78502342594,1992,3513,0,0,0,0,0,0,0,3431,82,0,0,0,0,0,0,0,0,0,0,0,0,0,0
FI,Finland,country,Europe and Central Asia,61.92411,25.748151,RS,Serbia,country,Europe and Central Asia,44.016521,21.005859,2017.359390771,1992,23,0,0,0,0,0,0,0,0,0,0,23,0,0,0,0,0,0,0,0,0,0,0,0
FR,France,country,Europe and Central Asia,46.227638,2.213749,RS,Serbia,country,Europe and Central Asia,44.016521,21.005859,1492.78689795462,1992,5175,73,0,28,0,0,2,16,163,0,4,66,602,224,339,90,0,3552,16,0,0,0,0,0
GH,Ghana,country,Sub-Saharan Africa,7.946527,-1.023194,RS,Serbia,country,Europe and Central Asia,44.016521,21.005859,4548.60748905586,1992,344,0,0,0,0,0,0,0,0,0,0,0,344,0,0,0,0,0,0,0,0,0,0,0
GR,Greece,country,Europe and Central Asia,39.074208,21.824312,RS,Serbia,country,Europe and Central Asia,44.016521,21.005859,554.376630953841,1992,18829,1,0,55,0,169,487,171,10491,1513,11,4746,373,185,73,64,0,0,0,490,0,0,0,0
GT,Guatemala,country,Latin America and the Caribbean,15.783471,-90.230759,RS,Serbia,country,Europe and Central Asia,44.016521,21.005859,10412.2819781951,1992,1012,0,0,0,0,0,0,0,1012,0,0,0,0,0,0,0,0,0,0,0,0,0,0,0
HN,Honduras,country,Latin America and the Caribbean,15.199999,-86.241905,RS,Serbia,country,Europe and Central Asia,44.016521,21.005859,10169.1787245646,1992,183,0,0,0,0,0,0,0,18,0,0,0,165,0,0,0,0,0,0,0,0,0,0,0
HU,Hungary,country,Europe and Central Asia,47.162494,19.503304,RS,Serbia,country,Europe and Central Asia,44.016521,21.005859,369.231430921197,1992,28449,2474,32,3843,0,0,17599,80,288,68,72,6,0,79,264,704,400,1644,1210,86,0,0,0,0
IN,India,country,South Asia,20.593684,78.96288,RS,Serbia,country,Europe and Central Asia,44.016521,21.005859,5901.86579449093,1992,3304,0,0,2,0,0,118,10,0,0,149,0,3025,0,0,0,0,0,0,0,0,0,0,0
ID,Indonesia,country,East Asia and Pacific,-0.789275,113.921327,RS,Serbia,country,Europe and Central Asia,44.016521,21.005859,10313.1816095711,1992,1918,0,0,0,0,0,0,0,40,0,55,0,146,1677,0,0,0,0,0,0,0,0,0,0
IR,Iran,country,Middle East and North Africa,32.427908,53.688046,RS,Serbia,country,Europe and Central Asia,44.016521,21.005859,3109.24350631796,1992,145,0,0,0,0,10,0,0,135,0,0,0,0,0,0,0,0,0,0,0,0,0,0,0
IE,Ireland,country,Europe and Central Asia,53.41291,-8.24389,RS,Serbia,country,Europe and Central Asia,44.016521,21.005859,2366.90527439305,1992,43,2,0,0,0,0,0,0,4,0,0,0,0,37,0,0,0,0,0,0,0,0,0,0
IL,Israel,country,Middle East and North Africa,31.046051,34.851612,RS,Serbia,country,Europe and Central Asia,44.016521,21.005859,1886.34241583508,1992,3267,0,0,0,0,0,1,0,3170,0,0,0,10,86,0,0,0,0,0,0,0,0,0,0
IT,Italy,country,Europe and Central Asia,41.87194,12.56738,RS,Serbia,country,Europe and Central Asia,44.016521,21.005859,727.486840698066,1992,12813,151,50,63,40,668,307,11,49,473,0,6214,208,1150,731,72,0,2415,40,171,0,0,0,0
JP,Japan,country,East Asia and Pacific,36.204824,138.252924,RS,Serbia,country,Europe and Central Asia,44.016521,21.005859,9092.13740292657,1992,28,0,0,0,0,0,0,0,0,0,0,28,0,0,0,0,0,0,0,0,0,0,0,0
JO,Jordan,country,Middle East and North Africa,30.585164,36.238414,RS,Serbia,country,Europe and Central Asia,44.016521,21.005859,2007.00569440061,1992,48,0,0,0,0,0,0,0,33,0,0,0,12,3,0,0,0,0,0,0,0,0,0,0
KE,Kenya,country,Sub-Saharan Africa,-0.023559,37.906193,RS,Serbia,country,Europe and Central Asia,44.016521,21.005859,5181.27112728806,1992,5,5,0,0,0,0,0,0,0,0,0,0,0,0,0,0,0,0,0,0,0,0,0,0
LI,Liechtenstein,country,Europe and Central Asia,47.166,9.555373,RS,Serbia,country,Europe and Central Asia,44.016521,21.005859,957.264927230583,1992,54,0,0,0,0,0,0,0,0,0,0,0,0,0,0,54,0,0,0,0,0,0,0,0
MG,Madagascar,country,Sub-Saharan Africa,-18.766947,46.869107,RS,Serbia,country,Europe and Central Asia,44.016521,21.005859,7469.33366732548,1992,1,0,0,0,0,0,0,0,0,0,1,0,0,0,0,0,0,0,0,0,0,0,0,0
MY,Malaysia,country,East Asia and Pacific,4.210484,101.975766,RS,Serbia,country,Europe and Central Asia,44.016521,21.005859,8970.68189806037,1992,7203,0,0,0,0,0,0,0,0,0,0,0,160,6047,996,0,0,0,0,0,0,0,0,0
MX,Mexico,country,Latin America and the Caribbean,23.634501,-102.552784,RS,Serbia,country,Europe and Central Asia,44.016521,21.005859,10565.49754478,1992,41,0,0,0,0,0,5,0,0,0,1,0,35,0,0,0,0,0,0,0,0,0,0,0
MN,Mongolia,country,East Asia and Pacific,46.862496,103.846656,RS,Serbia,country,Europe and Central Asia,44.016521,21.005859,6163.29673209204,1992,153,0,0,0,0,0,0,0,0,0,0,0,0,0,0,140,0,13,0,0,0,0,0,0
MA,Morocco,country,Middle East and North Africa,31.791702,-7.09262,RS,Serbia,country,Europe and Central Asia,44.016521,21.005859,2798.4224343844,1992,18,0,5,0,0,0,0,13,0,0,0,0,0,0,0,0,0,0,0,0,0,0,0,0
MM,Myanmar,country,East Asia and Pacific,21.913965,95.956223,RS,Serbia,country,Europe and Central Asia,44.016521,21.005859,7165.54823040459,1992,29,0,0,0,0,0,29,0,0,0,0,0,0,0,0,0,0,0,0,0,0,0,0,0
NL,Netherlands,country,Europe and Central Asia,52.132633,5.291266,RS,Serbia,country,Europe and Central Asia,44.016521,21.005859,1472.05323585752,1992,4940,135,1145,159,46,26,5,1120,256,0,10,75,110,572,582,137,87,264,298,0,0,0,0,0
NZ,New Zealand,country,East Asia and Pacific,-40.900557,174.885971,RS,Serbia,country,Europe and Central Asia,44.016521,21.005859,17873.8391139107,1992,115,0,0,0,0,0,0,0,0,115,0,0,0,0,0,0,0,0,0,0,0,0,0,0
NI,Nicaragua,country,Latin America and the Caribbean,12.865416,-85.207229,RS,Serbia,country,Europe and Central Asia,44.016521,21.005859,10280.5261589204,1992,137,0,0,0,0,0,0,0,137,0,0,0,0,0,0,0,0,0,0,0,0,0,0,0
NG,Nigeria,country,Sub-Saharan Africa,9.081999,8.675277,RS,Serbia,country,Europe and Central Asia,44.016521,21.005859,4067.78275872662,1992,504,0,0,0,0,0,0,0,0,0,0,0,446,58,0,0,0,0,0,0,0,0,0,0
NO,Norway,country,Europe and Central Asia,60.472024,8.468946,RS,Serbia,country,Europe and Central Asia,44.016521,21.005859,2013.3740749195,1992,17,0,0,0,0,0,0,0,0,0,0,0,0,0,17,0,0,0,0,0,0,0,0,0
PA,Panama,country,Latin America and the Caribbean,8.537981,-80.782127,RS,Serbia,country,Europe and Central Asia,44.016521,21.005859,10287.4947752965,1992,5944,0,0,0,0,0,0,0,35,0,0,0,0,0,0,5909,0,0,0,0,0,0,0,0
PY,Paraguay,country,Latin America and the Caribbean,-23.442503,-58.443832,RS,Serbia,country,Europe and Central Asia,44.016521,21.005859,11015.4495166246,1992,7979,0,0,0,0,0,0,0,0,0,0,7979,0,0,0,0,0,0,0,0,0,0,0,0
PH,Philippines,country,East Asia and Pacific,12.879721,121.774017,RS,Serbia,country,Europe and Central Asia,44.016521,21.005859,9866.24527535925,1992,20,0,0,0,0,0,0,0,20,0,0,0,0,0,0,0,0,0,0,0,0,0,0,0
PL,Poland,country,Europe and Central Asia,51.919438,19.145136,RS,Serbia,country,Europe and Central Asia,44.016521,21.005859,890.532105326705,1992,1501,0,0,0,0,0,0,218,0,279,1,0,0,583,40,0,0,0,380,0,0,0,0,0
PT,Portugal,country,Europe and Central Asia,39.399872,-8.224454,RS,Serbia,country,Europe and Central Asia,44.016521,21.005859,2469.20359689191,1992,570,5,0,0,0,0,0,0,0,0,0,0,3,562,0,0,0,0,0,0,0,0,0,0
RO,Romania,country,Europe and Central Asia,45.943161,24.96676,RS,Serbia,country,Europe and Central Asia,44.016521,21.005859,378.442263028278,1992,16311,489,0,30,0,219,20,0,0,21,0,20,2,60,227,849,0,14283,67,24,0,0,0,0
SG,Singapore,country,East Asia and Pacific,1.352083,103.819836,RS,Serbia,country,Europe and Central Asia,44.016521,21.005859,9339.28810442545,1992,0,0,0,0,0,0,0,0,0,0,0,0,0,0,0,0,0,0,0,0,0,0,0,0
ZA,S. Africa,country,Sub-Saharan Africa,-30.559482,22.937506,RS,Serbia,country,Europe and Central Asia,44.016521,21.005859,8304.09081813921,1992,56,0,0,0,0,0,0,0,56,0,0,0,0,0,0,0,0,0,0,0,0,0,0,0
ES,Spain,country,Europe and Central Asia,40.463667,-3.74922,RS,Serbia,country,Europe and Central Asia,44.016521,21.005859,2069.91558060698,1992,1449,0,0,55,0,8,5,14,178,0,0,0,51,221,0,917,0,0,0,0,0,0,0,0
LK,Sri Lanka,country,South Asia,7.873054,80.771797,RS,Serbia,country,Europe and Central Asia,44.016521,21.005859,7013.92262413949,1992,1496,0,0,0,0,0,0,0,10,0,25,0,1164,297,0,0,0,0,0,0,0,0,0,0
SE,Sweden,country,Europe and Central Asia,60.128161,18.643501,RS,Serbia,country,Europe and Central Asia,44.016521,21.005859,1800.52259379861,1992,250,0,0,0,0,0,0,0,40,0,0,52,19,128,0,11,0,0,0,0,0,0,0,0
CH,Switzerland,country,Europe and Central Asia,46.818188,8.227512,RS,Serbia,country,Europe and Central Asia,44.016521,21.005859,1044.67325139493,1992,949,9,0,127,33,0,4,7,0,27,0,47,344,108,33,0,0,110,100,0,0,0,0,0
SY,Syrian Arab Rep.,country,Middle East and North Africa,34.802075,38.996815,RS,Serbia,country,Europe and Central Asia,44.016521,21.005859,1850.11857991212,1992,13,0,0,0,0,0,0,1,12,0,0,0,0,0,0,0,0,0,0,0,0,0,0,0
TH,Thailand,country,East Asia and Pacific,15.870032,100.992541,RS,Serbia,country,Europe and Central Asia,44.016521,21.005859,8006.45649002819,1992,279,168,0,0,0,1,1,2,107,0,0,0,0,0,0,0,0,0,0,0,0,0,0,0
TN,Tunisia,country,Middle East and North Africa,33.886917,9.537499,RS,Serbia,country,Europe and Central Asia,44.016521,21.005859,1499.43568215627,1992,533,0,0,0,0,0,0,0,533,0,0,0,0,0,0,0,0,0,0,0,0,0,0,0
TR,Turkey,country,Europe and Central Asia,38.963745,35.243322,RS,Serbia,country,Europe and Central Asia,44.016521,21.005859,1311.32912950033,1992,6300,0,99,55,0,98,4,84,5664,27,0,0,9,0,260,0,0,0,0,0,0,0,0,0
UG,Uganda,country,Sub-Saharan Africa,1.373333,32.290275,RS,Serbia,country,Europe and Central Asia,44.016521,21.005859,4876.45742493756,1992,145,0,0,0,0,0,0,0,0,0,0,0,145,0,0,0,0,0,0,0,0,0,0,0
UA,Ukraine,country,Europe and Central Asia,48.379433,31.16558,RS,Serbia,country,Europe and Central Asia,44.016521,21.005859,920.107979684928,1992,7591,3795,0,0,0,0,0,0,0,0,0,3766,0,0,0,0,0,0,0,30,0,0,0,0
GB,United Kingdom,country,Europe and Central Asia,55.378051,-3.435973,RS,Serbia,country,Europe and Central Asia,44.016521,21.005859,2148.73606360185,1992,834,21,0,0,0,20,0,0,5,3,0,9,91,335,52,198,0,0,100,0,0,0,0,0
TZ,Tanzania,country,Sub-Saharan Africa,-6.369028,34.888822,RS,Serbia,country,Europe and Central Asia,44.016521,21.005859,5779.87630239186,1992,20,0,0,0,0,0,0,0,0,0,0,0,20,0,0,0,0,0,0,0,0,0,0,0
US,USA,country,North America,37.09024,-95.712891,RS,Serbia,country,Europe and Central Asia,44.016521,21.005859,8986.50934433714,1992,60544,12,0,1,0,20,46251,19,1913,0,0,8733,0,134,20,8,0,3403,0,30,0,0,0,0
UY,Uruguay,country,Latin America and the Caribbean,-32.522779,-55.765835,RS,Serbia,country,Europe and Central Asia,44.016521,21.005859,11530.6449554534,1992,100,0,0,0,0,0,0,0,91,9,0,0,0,0,0,0,0,0,0,0,0,0,0,0
VN,Vietnam,country,East Asia and Pacific,14.058324,108.277199,RS,Serbia,country,Europe and Central Asia,44.016521,21.005859,8721.44685907674,1992,330,0,0,0,0,0,0,0,0,0,19,0,311,0,0,0,0,0,0,0,0,0,0,0
ZW,Zimbabwe,country,Sub-Saharan Africa,-19.015438,29.154857,RS,Serbia,country,Europe and Central Asia,44.016521,21.005859,7065.71865518656,1992,64,0,0,0,0,0,0,0,0,0,0,0,0,64,0,0,0,0,0,0,0,0,0,0
AL,Albania,country,Europe and Central Asia,41.153332,20.168331,RS,Serbia,country,Europe and Central Asia,44.016521,21.005859,326.03171728063,1996,418,50,0,25,231,17,0,70,24,0,0,0,0,1,0,0,0,0,0,0,0,0,0,0
DZ,Algeria,country,Middle East and North Africa,28.033886,1.659626,RS,Serbia,country,Europe and Central Asia,44.016521,21.005859,2477.49626540865,1996,173,0,0,0,0,0,0,0,0,0,0,0,173,0,0,0,0,0,0,0,0,0,0,0
AR,Argentina,country,Latin America and the Caribbean,-38.416097,-63.616672,RS,Serbia,country,Europe and Central Asia,44.016521,21.005859,12497.7704110917,1996,37680,0,0,4,0,0,219,0,0,0,0,37457,0,0,0,0,0,0,0,0,0,0,0,0
AU,Australia,country,East Asia and Pacific,-25.274398,133.775136,RS,Serbia,country,Europe and Central Asia,44.016521,21.005859,13720.5983494055,1996,3430,0,0,2352,0,0,0,0,0,577,0,1,0,0,0,86,0,33,0,381,0,0,0,0
AT,Austria,country,Europe and Central Asia,47.516231,14.550072,RS,Serbia,country,Europe and Central Asia,44.016521,21.005859,634.53944446226,1996,15154,636,0,4237,22,10,9,505,2448,41,4,232,1652,258,1655,3152,0,197,96,0,0,0,0,0
BS,The Bahamas,country,Latin America and the Caribbean,25.03428,-77.39628,RS,Serbia,country,Europe and Central Asia,44.016521,21.005859,8742.07537416474,1996,29,0,0,0,0,0,0,29,0,0,0,0,0,0,0,0,0,0,0,0,0,0,0,0
BD,Bangladesh,country,South Asia,23.684994,90.356331,RS,Serbia,country,Europe and Central Asia,44.016521,21.005859,6595.06138301243,1996,1274,0,0,0,0,0,0,0,0,1274,0,0,0,0,0,0,0,0,0,0,0,0,0,0
BY,Belarus,country,Europe and Central Asia,53.709807,27.953389,RS,Serbia,country,Europe and Central Asia,44.016521,21.005859,1191.63119756659,1996,848,0,0,0,0,0,0,0,0,0,0,0,0,848,0,0,0,0,0,0,0,0,0,0
BE,Belgium,country,Europe and Central Asia,50.503887,4.469936,RS,Serbia,country,Europe and Central Asia,44.016521,21.005859,1438.34599769097,1996,2580,82,896,1,0,0,0,3,76,0,0,728,81,136,59,18,0,442,58,0,0,0,0,0
BM,Bermuda,country,North America,32.321384,-64.75737,RS,Serbia,country,Europe and Central Asia,44.016521,21.005859,7279.32204796001,1996,30,30,0,0,0,0,0,0,0,0,0,0,0,0,0,0,0,0,0,0,0,0,0,0
BR,Brazil,country,Latin America and the Caribbean,-14.235004,-51.92528,RS,Serbia,country,Europe and Central Asia,44.016521,21.005859,9803.55343945678,1996,55742,0,0,27485,0,0,0,0,257,0,114,16438,11425,0,23,0,0,0,0,0,0,0,0,0
BG,Bulgaria,country,Europe and Central Asia,42.733883,25.48583,RS,Serbia,country,Europe and Central Asia,44.016521,21.005859,389.537077453946,1996,37731,1837,0,19006,423,182,4543,5430,265,45,0,2109,30,59,1179,2200,0,151,272,0,0,0,0,0
KH,Cambodia,country,East Asia and Pacific,12.565679,104.990963,RS,Serbia,country,Europe and Central Asia,44.016521,21.005859,8573.07708487114,1996,18,0,0,0,0,0,0,0,0,18,0,0,0,0,0,0,0,0,0,0,0,0,0,0
CA,Canada,country,North America,56.130366,-106.346771,RS,Serbia,country,Europe and Central Asia,44.016521,21.005859,7848.12742764706,1996,607,0,550,10,0,0,0,0,0,0,0,0,0,3,0,1,0,23,20,0,0,0,0,0
HK,Hong Kong,country,East Asia and Pacific,22.396428,114.109497,RS,Serbia,country,Europe and Central Asia,44.016521,21.005859,8546.69683729418,1996,0,0,0,0,0,0,0,0,0,0,0,0,0,0,0,0,0,0,0,0,0,0,0,0
CN,China,country,East Asia and Pacific,35.86166,104.195397,RS,Serbia,country,Europe and Central Asia,44.016521,21.005859,6853.20210928996,1996,1201,80,0,8,0,0,968,57,0,0,21,0,1,66,0,0,0,0,0,0,0,0,0,0
TW,Taiwan,country,East Asia and Pacific,23.69781,120.960515,RS,Serbia,country,Europe and Central Asia,44.016521,21.005859,8958.67276651051,1996,3,3,0,0,0,0,0,0,0,0,0,0,0,0,0,0,0,0,0,0,0,0,0,0
CO,Colombia,country,Latin America and the Caribbean,4.570868,-74.297333,RS,Serbia,country,Europe and Central Asia,44.016521,21.005859,10088.1529694605,1996,10987,0,0,0,0,0,0,0,10969,0,0,0,18,0,0,0,0,0,0,0,0,0,0,0
CR,Costa Rica,country,Latin America and the Caribbean,9.748917,-83.753428,RS,Serbia,country,Europe and Central Asia,44.016521,21.005859,10420.1986230751,1996,5290,0,0,0,0,0,0,0,5290,0,0,0,0,0,0,0,0,0,0,0,0,0,0,0
CI,Ivory Coast,country,Sub-Saharan Africa,7.539989,-5.54708,RS,Serbia,country,Europe and Central Asia,44.016521,21.005859,4809.61628628367,1996,425,0,0,0,0,0,0,0,4,0,0,20,401,0,0,0,0,0,0,0,0,0,0,0
HR,Croatia,country,Europe and Central Asia,45.1,15.2,RS,Serbia,country,Europe and Central Asia,44.016521,21.005859,475.929465356036,1996,83,11,0,0,0,0,0,0,69,0,0,0,0,3,0,0,0,0,0,0,0,0,0,0
CU,Cuba,country,Latin America and the Caribbean,21.521757,-77.781167,RS,Serbia,country,Europe and Central Asia,44.016521,21.005859,9040.87874317642,1996,86100,0,0,86098,0,0,0,0,0,0,0,0,2,0,0,0,0,0,0,0,0,0,0,0
CY,Cyprus,country,Europe and Central Asia,35.126413,33.429859,RS,Serbia,country,Europe and Central Asia,44.016521,21.005859,1451.60371274688,1996,728,28,0,0,0,0,0,48,357,0,0,0,22,20,0,253,0,0,0,0,0,0,0,0
CZ,Czech Republic,country,Europe and Central Asia,49.817492,15.472962,RS,Serbia,country,Europe and Central Asia,44.016521,21.005859,770.233140648118,1996,3074,134,60,20,0,20,0,100,18,119,0,1,21,92,48,637,0,32,1772,0,0,0,0,0
KP,"Korea, Dem. Rep.",country,East Asia and Pacific,40.339852,127.510093,RS,Serbia,country,Europe and Central Asia,44.016521,21.005859,8114.91805469598,1996,24,0,0,0,0,0,0,0,0,0,0,0,0,0,0,24,0,0,0,0,0,0,0,0
CD,"Congo, Dem. Rep.",country,Sub-Saharan Africa,-4.038333,21.758664,RS,Serbia,country,Europe and Central Asia,44.016521,21.005859,5349.9728194564,1996,60,0,0,0,0,0,0,0,0,0,0,0,27,33,0,0,0,0,0,0,0,0,0,0
DK,Denmark,country,Europe and Central Asia,56.26392,9.501785,RS,Serbia,country,Europe and Central Asia,44.016521,21.005859,1586.65641821047,1996,600,2,20,0,0,0,0,0,0,0,16,9,0,138,0,85,0,141,189,0,0,0,0,0
DM,Dominica,country,Latin America and the Caribbean,15.414999,-61.370976,RS,Serbia,country,Europe and Central Asia,44.016521,21.005859,8230.80075467108,1996,1,0,0,0,0,0,1,0,0,0,0,0,0,0,0,0,0,0,0,0,0,0,0,0
EC,Ecuador,country,Latin America and the Caribbean,-1.831239,-78.183406,RS,Serbia,country,Europe and Central Asia,44.016521,21.005859,10895.2522100197,1996,47318,0,0,0,0,0,1,0,47297,0,0,0,20,0,0,0,0,0,0,0,0,0,0,0
EG,Egypt,country,Middle East and North Africa,26.820553,30.802498,RS,Serbia,country,Europe and Central Asia,44.016521,21.005859,2106.78502342594,1996,3597,2949,98,0,0,0,0,2,537,9,0,0,2,0,0,0,0,0,0,0,0,0,0,0
ET,Ethiopia,country,Sub-Saharan Africa,9.145,40.489673,RS,Serbia,country,Europe and Central Asia,44.016521,21.005859,4314.70888612198,1996,4,0,0,0,0,0,0,0,0,0,0,0,4,0,0,0,0,0,0,0,0,0,0,0
FI,Finland,country,Europe and Central Asia,61.92411,25.748151,RS,Serbia,country,Europe and Central Asia,44.016521,21.005859,2017.359390771,1996,3,0,0,0,0,0,0,0,0,0,0,0,3,0,0,0,0,0,0,0,0,0,0,0
FR,France,country,Europe and Central Asia,46.227638,2.213749,RS,Serbia,country,Europe and Central Asia,44.016521,21.005859,1492.78689795462,1996,13535,1975,0,8742,0,0,0,22,55,1,0,86,857,608,38,172,53,617,362,0,0,0,0,0
DE,Germany,country,Europe and Central Asia,51.165691,10.451526,RS,Serbia,country,Europe and Central Asia,44.016521,21.005859,1120.94031227413,1996,19769,1037,0,6472,0,0,12,75,318,187,72,956,3088,817,1042,696,7,4084,913,0,0,0,0,0
GH,Ghana,country,Sub-Saharan Africa,7.946527,-1.023194,RS,Serbia,country,Europe and Central Asia,44.016521,21.005859,4548.60748905586,1996,944,0,0,0,0,0,0,0,0,0,0,0,944,0,0,0,0,0,0,0,0,0,0,0
GR,Greece,country,Europe and Central Asia,39.074208,21.824312,RS,Serbia,country,Europe and Central Asia,44.016521,21.005859,554.376630953841,1996,53728,674,20,115,1,200,411,5677,39425,3134,40,104,715,1181,467,1513,0,34,17,0,0,0,0,0
GD,Grenada,country,Latin America and the Caribbean,12.262776,-61.604171,RS,Serbia,country,Europe and Central Asia,44.016521,21.005859,8486.22501894756,1996,0,0,0,0,0,0,0,0,0,0,0,0,0,0,0,0,0,0,0,0,0,0,0,0
GN,Guinea,country,Sub-Saharan Africa,9.945587,-9.696645,RS,Serbia,country,Europe and Central Asia,44.016521,21.005859,4808.17242867492,1996,99,0,0,0,0,0,0,0,0,0,0,0,99,0,0,0,0,0,0,0,0,0,0,0
GY,Guyana,country,Latin America and the Caribbean,4.860416,-58.93018,RS,Serbia,country,Europe and Central Asia,44.016521,21.005859,8837.86229028528,1996,23,23,0,0,0,0,0,0,0,0,0,0,0,0,0,0,0,0,0,0,0,0,0,0
HN,Honduras,country,Latin America and the Caribbean,15.199999,-86.241905,RS,Serbia,country,Europe and Central Asia,44.016521,21.005859,10169.1787245646,1996,71,0,0,0,0,0,0,1,0,0,0,0,70,0,0,0,0,0,0,0,0,0,0,0
HU,Hungary,country,Europe and Central Asia,47.162494,19.503304,RS,Serbia,country,Europe and Central Asia,44.016521,21.005859,369.231430921197,1996,61396,234,4357,32691,72,0,1258,4421,894,21,0,1776,210,1540,3307,3102,1613,4922,2591,0,0,0,0,0
IS,Iceland,country,Europe and Central Asia,64.963051,-19.020835,RS,Serbia,country,Europe and Central Asia,44.016521,21.005859,3382.76128781282,1996,22,0,0,0,0,0,0,0,22,0,0,0,0,0,0,0,0,0,0,0,0,0,0,0
IN,India,country,South Asia,20.593684,78.96288,RS,Serbia,country,Europe and Central Asia,44.016521,21.005859,5901.86579449093,1996,4067,2966,0,0,0,5,57,10,0,0,286,0,683,60,0,0,0,0,0,0,0,0,0,0
ID,Indonesia,country,East Asia and Pacific,-0.789275,113.921327,RS,Serbia,country,Europe and Central Asia,44.016521,21.005859,10313.1816095711,1996,2611,0,0,0,0,3,1,0,36,0,82,0,937,1452,100,0,0,0,0,0,0,0,0,0
IR,Iran,country,Middle East and North Africa,32.427908,53.688046,RS,Serbia,country,Europe and Central Asia,44.016521,21.005859,3109.24350631796,1996,459,0,0,0,0,51,0,5,396,0,0,0,7,0,0,0,0,0,0,0,0,0,0,0
IE,Ireland,country,Europe and Central Asia,53.41291,-8.24389,RS,Serbia,country,Europe and Central Asia,44.016521,21.005859,2366.90527439305,1996,49,5,0,0,0,0,0,0,0,0,0,2,5,11,0,26,0,0,0,0,0,0,0,0
IL,Israel,country,Middle East and North Africa,31.046051,34.851612,RS,Serbia,country,Europe and Central Asia,44.016521,21.005859,1886.34241583508,1996,956,2,0,0,0,0,0,0,892,0,0,0,0,56,0,0,0,0,6,0,0,0,0,0
IT,Italy,country,Europe and Central Asia,41.87194,12.56738,RS,Serbia,country,Europe and Central Asia,44.016521,21.005859,727.486840698066,1996,16363,4849,14,222,84,508,69,409,2163,49,0,90,1093,776,114,3806,0,2044,73,0,0,0,0,0
JM,Jamaica,country,Latin America and the Caribbean,18.109581,-77.297508,RS,Serbia,country,Europe and Central Asia,44.016521,21.005859,9269.00502517157,1996,5,0,0,0,0,0,0,0,0,0,5,0,0,0,0,0,0,0,0,0,0,0,0,0
JO,Jordan,country,Middle East and North Africa,30.585164,36.238414,RS,Serbia,country,Europe and Central Asia,44.016521,21.005859,2007.00569440061,1996,45,0,0,0,0,0,0,45,0,0,0,0,0,0,0,0,0,0,0,0,0,0,0,0
KZ,Kazakhstan,country,Europe and Central Asia,48.019573,66.923684,RS,Serbia,country,Europe and Central Asia,44.016521,21.005859,3524.32158022966,1996,444,0,0,0,0,0,0,0,0,444,0,0,0,0,0,0,0,0,0,0,0,0,0,0
KE,Kenya,country,Sub-Saharan Africa,-0.023559,37.906193,RS,Serbia,country,Europe and Central Asia,44.016521,21.005859,5181.27112728806,1996,40,0,0,0,0,0,0,0,40,0,0,0,0,0,0,0,0,0,0,0,0,0,0,0
KI,Kiribati,country,East Asia and Pacific,-3.370417,-168.734039,RS,Serbia,country,Europe and Central Asia,44.016521,21.005859,15412.3988831088,1996,19,0,0,0,0,0,0,0,19,0,0,0,0,0,0,0,0,0,0,0,0,0,0,0
LB,Lebanon,country,Middle East and North Africa,33.854721,35.862285,RS,Serbia,country,Europe and Central Asia,44.016521,21.005859,1708.20699310036,1996,35,0,0,0,0,0,0,0,0,0,0,20,15,0,0,0,0,0,0,0,0,0,0,0
LT,Lithuania,country,Europe and Central Asia,55.169438,23.881275,RS,Serbia,country,Europe and Central Asia,44.016521,21.005859,1258.4749134443,1996,21,0,0,0,0,0,0,0,0,0,0,0,0,0,0,0,0,21,0,0,0,0,0,0
MG,Madagascar,country,Sub-Saharan Africa,-18.766947,46.869107,RS,Serbia,country,Europe and Central Asia,44.016521,21.005859,7469.33366732548,1996,22,0,0,0,0,0,0,0,0,0,2,0,20,0,0,0,0,0,0,0,0,0,0,0
MY,Malaysia,country,East Asia and Pacific,4.210484,101.975766,RS,Serbia,country,Europe and Central Asia,44.016521,21.005859,8970.68189806037,1996,4674,0,0,0,0,0,1,0,0,0,4,0,293,2683,1693,0,0,0,0,0,0,0,0,0
ML,Mali,country,Sub-Saharan Africa,17.570692,-3.996166,RS,Serbia,country,Europe and Central Asia,44.016521,21.005859,3761.14424961962,1996,34,0,0,0,0,0,0,0,0,0,0,0,20,0,0,0,0,0,14,0,0,0,0,0
MX,Mexico,country,Latin America and the Caribbean,23.634501,-102.552784,RS,Serbia,country,Europe and Central Asia,44.016521,21.005859,10565.49754478,1996,434,0,0,0,30,0,2,0,0,236,14,0,43,0,0,109,0,0,0,0,0,0,0,0
MS,Montserrat,country,Latin America and the Caribbean,16.7425,-62.1874,RS,Serbia,country,Europe and Central Asia,44.016521,21.005859,8196.77736995998,1996,4,0,0,0,0,0,0,4,0,0,0,0,0,0,0,0,0,0,0,0,0,0,0,0
MA,Morocco,country,Middle East and North Africa,31.791702,-7.09262,RS,Serbia,country,Europe and Central Asia,44.016521,21.005859,2798.4224343844,1996,3,0,0,0,0,0,2,1,0,0,0,0,0,0,0,0,0,0,0,0,0,0,0,0
MM,Myanmar,country,East Asia and Pacific,21.913965,95.956223,RS,Serbia,country,Europe and Central Asia,44.016521,21.005859,7165.54823040459,1996,0,0,0,0,0,0,0,0,0,0,0,0,0,0,0,0,0,0,0,0,0,0,0,0
NL,Netherlands,country,Europe and Central Asia,52.132633,5.291266,RS,Serbia,country,Europe and Central Asia,44.016521,21.005859,1472.05323585752,1996,12011,266,1777,29,82,0,29,215,104,0,32,2776,435,410,722,906,120,3258,970,0,0,0,0,0
NZ,New Zealand,country,East Asia and Pacific,-40.900557,174.885971,RS,Serbia,country,Europe and Central Asia,44.016521,21.005859,17873.8391139107,1996,28,0,0,0,0,0,0,0,0,10,0,0,0,0,0,0,0,0,18,0,0,0,0,0
NI,Nicaragua,country,Latin America and the Caribbean,12.865416,-85.207229,RS,Serbia,country,Europe and Central Asia,44.016521,21.005859,10280.5261589204,1996,20,0,0,0,0,0,0,0,0,0,0,0,0,20,0,0,0,0,0,0,0,0,0,0
NG,Nigeria,country,Sub-Saharan Africa,9.081999,8.675277,RS,Serbia,country,Europe and Central Asia,44.016521,21.005859,4067.78275872662,1996,411,0,0,0,0,0,0,0,0,0,0,0,391,20,0,0,0,0,0,0,0,0,0,0
NO,Norway,country,Europe and Central Asia,60.472024,8.468946,RS,Serbia,country,Europe and Central Asia,44.016521,21.005859,2013.3740749195,1996,16,0,0,0,0,0,0,0,0,0,0,0,0,0,0,0,0,0,16,0,0,0,0,0
PA,Panama,country,Latin America and the Caribbean,8.537981,-80.782127,RS,Serbia,country,Europe and Central Asia,44.016521,21.005859,10287.4947752965,1996,54,0,0,0,0,0,0,0,39,0,0,0,15,0,0,0,0,0,0,0,0,0,0,0
PE,Peru,country,Latin America and the Caribbean,-9.189967,-75.015152,RS,Serbia,country,Europe and Central Asia,44.016521,21.005859,11208.4045385275,1996,50,0,0,0,0,0,0,0,0,0,0,0,50,0,0,0,0,0,0,0,0,0,0,0
PH,Philippines,country,East Asia and Pacific,12.879721,121.774017,RS,Serbia,country,Europe and Central Asia,44.016521,21.005859,9866.24527535925,1996,0,0,0,0,0,0,0,0,0,0,0,0,0,0,0,0,0,0,0,0,0,0,0,0
PL,Poland,country,Europe and Central Asia,51.919438,19.145136,RS,Serbia,country,Europe and Central Asia,44.016521,21.005859,890.532105326705,1996,1404,51,827,259,0,0,0,79,20,0,0,0,69,54,0,5,0,20,20,0,0,0,0,0
KR,"Korea, Rep.",country,East Asia and Pacific,35.907757,127.766922,RS,Serbia,country,Europe and Central Asia,44.016521,21.005859,8475.85993524956,1996,0,0,0,0,0,0,0,0,0,0,0,0,0,0,0,0,0,0,0,0,0,0,0,0
RO,Romania,country,Europe and Central Asia,45.943161,24.96676,RS,Serbia,country,Europe and Central Asia,44.016521,21.005859,378.442263028278,1996,8463,28,0,7,0,52,583,0,0,56,5,2209,0,26,659,519,0,4319,0,0,0,0,0,0
RU,Russian Federation,country,Europe and Central Asia,61.52401,105.318756,RS,Serbia,country,Europe and Central Asia,44.016521,21.005859,5549.39556496858,1996,3195,9,0,13,0,0,0,0,0,2632,0,330,0,15,0,39,0,18,118,21,0,0,0,0
SA,Saudi Arabia,country,Middle East and North Africa,23.885942,45.079162,RS,Serbia,country,Europe and Central Asia,44.016521,21.005859,3133.58178690718,1996,20,0,0,0,0,0,0,0,20,0,0,0,0,0,0,0,0,0,0,0,0,0,0,0
SL,Sierra Leone,country,Sub-Saharan Africa,8.460555,-11.779889,RS,Serbia,country,Europe and Central Asia,44.016521,21.005859,5071.04898388921,1996,32,0,0,0,0,0,0,0,16,0,0,0,0,0,0,0,0,0,16,0,0,0,0,0
SG,Singapore,country,East Asia and Pacific,1.352083,103.819836,RS,Serbia,country,Europe and Central Asia,44.016521,21.005859,9339.28810442545,1996,23,0,0,0,0,0,0,0,0,0,0,0,0,20,3,0,0,0,0,0,0,0,0,0
SK,Slovak Rep.,country,Europe and Central Asia,48.669026,19.699024,RS,Serbia,country,Europe and Central Asia,44.016521,21.005859,527.538851466392,1996,3424,1000,100,860,0,0,0,10,0,5,0,0,39,302,280,32,7,219,577,0,0,0,0,0
SI,Slovenia,country,Europe and Central Asia,46.151241,14.995463,RS,Serbia,country,Europe and Central Asia,44.016521,21.005859,528.62012714237,1996,1540,99,60,72,0,0,18,1,207,0,2,30,128,274,0,649,0,0,0,0,0,0,0,0
ZA,S. Africa,country,Sub-Saharan Africa,-30.559482,22.937506,RS,Serbia,country,Europe and Central Asia,44.016521,21.005859,8304.09081813921,1996,1631,0,0,0,0,0,0,0,1631,0,0,0,0,0,0,0,0,0,0,0,0,0,0,0
ES,Spain,country,Europe and Central Asia,40.463667,-3.74922,RS,Serbia,country,Europe and Central Asia,44.016521,21.005859,2069.91558060698,1996,2523,28,0,364,0,81,8,52,498,0,0,1300,135,32,0,5,0,0,20,0,0,0,0,0
LK,Sri Lanka,country,South Asia,7.873054,80.771797,RS,Serbia,country,Europe and Central Asia,44.016521,21.005859,7013.92262413949,1996,1532,40,0,0,0,0,0,0,0,0,15,40,1372,65,0,0,0,0,0,0,0,0,0,0
SD,Sudan,country,Sub-Saharan Africa,12.862807,30.217636,RS,Serbia,country,Europe and Central Asia,44.016521,21.005859,3577.92828355113,1996,52,0,0,0,0,0,41,1,9,0,1,0,0,0,0,0,0,0,0,0,0,0,0,0
SR,Suriname,country,Latin America and the Caribbean,3.919305,-56.027783,RS,Serbia,country,Europe and Central Asia,44.016521,21.005859,8679.23108382782,1996,25,25,0,0,0,0,0,0,0,0,0,0,0,0,0,0,0,0,0,0,0,0,0,0
SE,Sweden,country,Europe and Central Asia,60.128161,18.643501,RS,Serbia,country,Europe and Central Asia,44.016521,21.005859,1800.52259379861,1996,294,65,0,0,0,0,0,0,3,0,0,0,7,1,218,0,0,0,0,0,0,0,0,0
CH,Switzerland,country,Europe and Central Asia,46.818188,8.227512,RS,Serbia,country,Europe and Central Asia,44.016521,21.005859,1044.67325139493,1996,1313,9,0,77,0,0,60,28,18,56,20,16,685,249,9,17,0,0,69,0,0,0,0,0
TJ,Tajikistan,country,Europe and Central Asia,38.861034,71.276093,RS,Serbia,country,Europe and Central Asia,44.016521,21.005859,4168.76837390578,1996,132,0,0,0,0,0,0,0,18,114,0,0,0,0,0,0,0,0,0,0,0,0,0,0
TH,Thailand,country,East Asia and Pacific,15.870032,100.992541,RS,Serbia,country,Europe and Central Asia,44.016521,21.005859,8006.45649002819,1996,1917,1385,0,0,0,15,0,0,472,0,7,0,0,38,0,0,0,0,0,0,0,0,0,0
MK,Macedonia,country,Europe and Central Asia,41.608635,21.745275,RS,Serbia,country,Europe and Central Asia,44.016521,21.005859,274.758043621538,1996,70936,2578,509,567,115,455,208,44184,11281,254,23,9,396,1560,25,8027,0,148,597,0,0,0,0,0
TN,Tunisia,country,Middle East and North Africa,33.886917,9.537499,RS,Serbia,country,Europe and Central Asia,44.016521,21.005859,1499.43568215627,1996,486,4,0,0,0,0,0,0,482,0,0,0,0,0,0,0,0,0,0,0,0,0,0,0
TR,Turkey,country,Europe and Central Asia,38.963745,35.243322,RS,Serbia,country,Europe and Central Asia,44.016521,21.005859,1311.32912950033,1996,12626,829,7,253,79,151,24,3608,7402,20,28,1,138,0,86,0,0,0,0,0,0,0,0,0
TM,Turkmenistan,country,Europe and Central Asia,38.969719,59.556278,RS,Serbia,country,Europe and Central Asia,44.016521,21.005859,3232.86843749492,1996,59,0,0,0,0,0,0,0,0,59,0,0,0,0,0,0,0,0,0,0,0,0,0,0
UG,Uganda,country,Sub-Saharan Africa,1.373333,32.290275,RS,Serbia,country,Europe and Central Asia,44.016521,21.005859,4876.45742493756,1996,163,0,0,0,0,0,0,0,0,0,6,0,157,0,0,0,0,0,0,0,0,0,0,0
UA,Ukraine,country,Europe and Central Asia,48.379433,31.16558,RS,Serbia,country,Europe and Central Asia,44.016521,21.005859,920.107979684928,1996,4238,0,0,455,0,0,2213,8,0,34,0,0,0,44,1265,0,0,0,219,0,0,0,0,0
GB,United Kingdom,country,Europe and Central Asia,55.378051,-3.435973,RS,Serbia,country,Europe and Central Asia,44.016521,21.005859,2148.73606360185,1996,6171,47,0,4970,0,2,16,0,19,3,1,8,182,150,43,314,0,416,0,0,0,0,0,0
US,USA,country,North America,37.09024,-95.712891,RS,Serbia,country,Europe and Central Asia,44.016521,21.005859,8986.50934433714,1996,48130,5002,0,237,63,14,41904,14,0,28,0,47,29,83,2,616,0,91,0,0,0,0,0,0
UZ,Uzbekistan,country,Europe and Central Asia,41.377491,64.585262,RS,Serbia,country,Europe and Central Asia,44.016521,21.005859,3535.86946731055,1996,2411,0,0,0,0,0,0,0,0,2411,0,0,0,0,0,0,0,0,0,0,0,0,0,0
VE,Venezuela,country,Latin America and the Caribbean,6.42375,-66.58973,RS,Serbia,country,Europe and Central Asia,44.016521,21.005859,9330.34945541372,1996,223,0,0,205,0,0,0,0,18,0,0,0,0,0,0,0,0,0,0,0,0,0,0,0
VN,Vietnam,country,East Asia and Pacific,14.058324,108.277199,RS,Serbia,country,Europe and Central Asia,44.016521,21.005859,8721.44685907674,1996,123,44,0,0,0,0,0,0,0,0,0,0,0,79,0,0,0,0,0,0,0,0,0,0
ZM,Zambia,country,Sub-Saharan Africa,-13.133897,27.849332,RS,Serbia,country,Europe and Central Asia,44.016521,21.005859,6399.76478917107,1996,2,2,0,0,0,0,0,0,0,0,0,0,0,0,0,0,0,0,0,0,0,0,0,0
ZW,Zimbabwe,country,Sub-Saharan Africa,-19.015438,29.154857,RS,Serbia,country,Europe and Central Asia,44.016521,21.005859,7065.71865518656,1996,20,0,0,0,0,0,0,0,0,0,0,0,0,20,0,0,0,0,0,0,0,0,0,0
AL,Albania,country,Europe and Central Asia,41.153332,20.168331,RS,Serbia,country,Europe and Central Asia,44.016521,21.005859,326.03171728063,1997,226,0,0,0,122,20,0,0,29,0,0,0,0,55,0,0,0,0,0,0,0,0,0,0
AG,Antigua & Barbuda,country,Latin America and the Caribbean,17.060816,-61.796428,RS,Serbia,country,Europe and Central Asia,44.016521,21.005859,8142.11650172837,1997,28,0,0,0,0,3,14,0,11,0,0,0,0,0,0,0,0,0,0,0,0,0,0,0
AR,Argentina,country,Latin America and the Caribbean,-38.416097,-63.616672,RS,Serbia,country,Europe and Central Asia,44.016521,21.005859,12497.7704110917,1997,90249,62091,0,6,0,0,336,5,1488,22,0,26301,0,0,0,0,0,0,0,0,0,0,0,0
AU,Australia,country,East Asia and Pacific,-25.274398,133.775136,RS,Serbia,country,Europe and Central Asia,44.016521,21.005859,13720.5983494055,1997,1043,0,0,0,0,0,0,0,0,610,0,0,0,0,0,0,0,153,0,280,0,0,0,0
AT,Austria,country,Europe and Central Asia,47.516231,14.550072,RS,Serbia,country,Europe and Central Asia,44.016521,21.005859,634.53944446226,1997,39070,15667,2170,615,40,10,18,6468,3190,78,14,488,3155,324,707,5522,13,586,5,13,0,0,0,0
AZ,Azerbaijan,country,Europe and Central Asia,40.143105,47.576927,RS,Serbia,country,Europe and Central Asia,44.016521,21.005859,2227.13453767145,1997,65,0,0,0,0,0,0,10,0,55,0,0,0,0,0,0,0,0,0,0,0,0,0,0
BS,The Bahamas,country,Latin America and the Caribbean,25.03428,-77.39628,RS,Serbia,country,Europe and Central Asia,44.016521,21.005859,8742.07537416474,1997,6870,1031,0,16,0,0,0,0,5823,0,0,0,0,0,0,0,0,0,0,0,0,0,0,0
BH,Bahrain,country,Middle East and North Africa,25.930414,50.637772,RS,Serbia,country,Europe and Central Asia,44.016521,21.005859,3339.7801733306,1997,14,0,0,0,0,0,0,0,0,0,0,0,0,0,0,14,0,0,0,0,0,0,0,0
BD,Bangladesh,country,South Asia,23.684994,90.356331,RS,Serbia,country,Europe and Central Asia,44.016521,21.005859,6595.06138301243,1997,2206,0,0,0,0,0,0,0,0,2206,0,0,0,0,0,0,0,0,0,0,0,0,0,0
BY,Belarus,country,Europe and Central Asia,53.709807,27.953389,RS,Serbia,country,Europe and Central Asia,44.016521,21.005859,1191.63119756659,1997,252,0,0,0,0,0,0,0,0,40,0,0,0,212,0,0,0,0,0,0,0,0,0,0
BE,Belgium,country,Europe and Central Asia,50.503887,4.469936,RS,Serbia,country,Europe and Central Asia,44.016521,21.005859,1438.34599769097,1997,3809,79,1270,13,0,0,0,28,92,3,0,775,309,736,207,1,0,222,74,0,0,0,0,0
BR,Brazil,country,Latin America and the Caribbean,-14.235004,-51.92528,RS,Serbia,country,Europe and Central Asia,44.016521,21.005859,9803.55343945678,1997,21730,1,0,6041,0,0,0,0,760,0,66,2499,12363,0,0,0,0,0,0,0,0,0,0,0
VG,British Virgin Islands,country,Latin America and the Caribbean,18.420695,-64.639968,RS,Serbia,country,Europe and Central Asia,44.016521,21.005859,8265.922428403,1997,0,0,0,0,0,0,0,0,0,0,0,0,0,0,0,0,0,0,0,0,0,0,0,0
BG,Bulgaria,country,Europe and Central Asia,42.733883,25.48583,RS,Serbia,country,Europe and Central Asia,44.016521,21.005859,389.537077453946,1997,13472,440,0,5721,371,26,118,3363,453,56,3,1,60,360,5,2272,0,37,186,0,0,0,0,0
CM,Cameroon,country,Sub-Saharan Africa,7.369722,12.354722,RS,Serbia,country,Europe and Central Asia,44.016521,21.005859,4165.43621620507,1997,562,0,0,0,0,0,0,0,57,0,0,0,505,0,0,0,0,0,0,0,0,0,0,0
CA,Canada,country,North America,56.130366,-106.346771,RS,Serbia,country,Europe and Central Asia,44.016521,21.005859,7848.12742764706,1997,287,0,250,4,0,0,0,0,0,0,0,0,0,3,0,30,0,0,0,0,0,0,0,0
CL,Chile,country,Latin America and the Caribbean,-35.675147,-71.542969,RS,Serbia,country,Europe and Central Asia,44.016521,21.005859,12862.3909629852,1997,3,0,0,0,0,0,0,0,3,0,0,0,0,0,0,0,0,0,0,0,0,0,0,0
CN,China,country,East Asia and Pacific,35.86166,104.195397,RS,Serbia,country,Europe and Central Asia,44.016521,21.005859,6853.20210928996,1997,1662,138,0,2,0,3,1038,381,16,5,11,0,7,60,0,1,0,0,0,0,0,0,0,0
TW,Taiwan,country,East Asia and Pacific,23.69781,120.960515,RS,Serbia,country,Europe and Central Asia,44.016521,21.005859,8958.67276651051,1997,31,28,0,0,0,0,0,0,0,0,0,0,0,0,3,0,0,0,0,0,0,0,0,0
CO,Colombia,country,Latin America and the Caribbean,4.570868,-74.297333,RS,Serbia,country,Europe and Central Asia,44.016521,21.005859,10088.1529694605,1997,10644,0,0,0,0,0,0,0,10626,0,0,0,18,0,0,0,0,0,0,0,0,0,0,0
CK,Cook Islands,country,East Asia and Pacific,-21.236736,-159.777671,RS,Serbia,country,Europe and Central Asia,44.016521,21.005859,17500.6420219018,1997,18,0,0,0,0,0,0,0,18,0,0,0,0,0,0,0,0,0,0,0,0,0,0,0
CR,Costa Rica,country,Latin America and the Caribbean,9.748917,-83.753428,RS,Serbia,country,Europe and Central Asia,44.016521,21.005859,10420.1986230751,1997,6966,0,0,0,0,0,0,0,6965,0,0,0,1,0,0,0,0,0,0,0,0,0,0,0
CI,Ivory Coast,country,Sub-Saharan Africa,7.539989,-5.54708,RS,Serbia,country,Europe and Central Asia,44.016521,21.005859,4809.61628628367,1997,1040,0,0,0,0,0,0,0,10,0,0,0,1030,0,0,0,0,0,0,0,0,0,0,0
HR,Croatia,country,Europe and Central Asia,45.1,15.2,RS,Serbia,country,Europe and Central Asia,44.016521,21.005859,475.929465356036,1997,51376,21989,0,20291,112,0,3077,0,373,18,1,902,36,1001,64,923,13,123,2442,24,0,0,0,0
CU,Cuba,country,Latin America and the Caribbean,21.521757,-77.781167,RS,Serbia,country,Europe and Central Asia,44.016521,21.005859,9040.87874317642,1997,3838,0,0,3830,0,0,0,0,0,0,0,0,8,0,0,0,0,0,0,0,0,0,0,0
CY,Cyprus,country,Europe and Central Asia,35.126413,33.429859,RS,Serbia,country,Europe and Central Asia,44.016521,21.005859,1451.60371274688,1997,806,13,0,6,0,0,13,0,732,20,0,0,0,7,0,15,0,0,0,0,0,0,0,0
CZ,Czech Republic,country,Europe and Central Asia,49.817492,15.472962,RS,Serbia,country,Europe and Central Asia,44.016521,21.005859,770.233140648118,1997,6331,2667,0,3,0,0,10,346,0,330,0,0,0,1151,55,1014,0,0,755,0,0,0,0,0
CD,"Congo, Dem. Rep.",country,Sub-Saharan Africa,-4.038333,21.758664,RS,Serbia,country,Europe and Central Asia,44.016521,21.005859,5349.9728194564,1997,29,0,0,0,0,0,0,0,0,0,0,0,29,0,0,0,0,0,0,0,0,0,0,0
DK,Denmark,country,Europe and Central Asia,56.26392,9.501785,RS,Serbia,country,Europe and Central Asia,44.016521,21.005859,1586.65641821047,1997,1068,2,0,2,2,0,16,0,0,0,0,58,17,307,10,574,7,40,40,0,0,0,0,0
DM,Dominica,country,Latin America and the Caribbean,15.414999,-61.370976,RS,Serbia,country,Europe and Central Asia,44.016521,21.005859,8230.80075467108,1997,1,0,0,0,0,0,0,0,0,0,0,0,1,0,0,0,0,0,0,0,0,0,0,0
EC,Ecuador,country,Latin America and the Caribbean,-1.831239,-78.183406,RS,Serbia,country,Europe and Central Asia,44.016521,21.005859,10895.2522100197,1997,69623,0,0,0,0,0,0,24,69597,0,0,0,2,0,0,0,0,0,0,0,0,0,0,0
EG,Egypt,country,Middle East and North Africa,26.820553,30.802498,RS,Serbia,country,Europe and Central Asia,44.016521,21.005859,2106.78502342594,1997,3073,1624,50,0,0,0,11,208,837,342,1,0,0,0,0,0,0,0,0,0,0,0,0,0
ET,Ethiopia,country,Sub-Saharan Africa,9.145,40.489673,RS,Serbia,country,Europe and Central Asia,44.016521,21.005859,4314.70888612198,1997,26,0,0,0,0,0,0,0,0,0,0,0,26,0,0,0,0,0,0,0,0,0,0,0
FK,Falkland Islands,country,,-51.796253,-59.523613,RS,Serbia,country,Europe and Central Asia,44.016521,21.005859,13160.1745801554,1997,13,0,0,0,0,0,0,0,0,0,0,0,0,0,0,13,0,0,0,0,0,0,0,0
FI,Finland,country,Europe and Central Asia,61.92411,25.748151,RS,Serbia,country,Europe and Central Asia,44.016521,21.005859,2017.359390771,1997,89,0,0,0,0,0,0,0,0,0,0,0,74,0,0,15,0,0,0,0,0,0,0,0
FR,France,country,Europe and Central Asia,46.227638,2.213749,RS,Serbia,country,Europe and Central Asia,44.016521,21.005859,1492.78689795462,1997,23069,19592,53,185,10,0,1,48,104,0,0,182,404,986,51,321,27,760,372,0,0,0,0,0
DE,Germany,country,Europe and Central Asia,51.165691,10.451526,RS,Serbia,country,Europe and Central Asia,44.016521,21.005859,1120.94031227413,1997,132976,121384,197,417,0,17,35,94,79,332,27,682,3363,1283,1750,579,0,1564,1076,97,0,0,0,0
GH,Ghana,country,Sub-Saharan Africa,7.946527,-1.023194,RS,Serbia,country,Europe and Central Asia,44.016521,21.005859,4548.60748905586,1997,1488,0,0,0,0,0,32,0,0,0,0,0,1456,0,0,0,0,0,0,0,0,0,0,0
GR,Greece,country,Europe and Central Asia,39.074208,21.824312,RS,Serbia,country,Europe and Central Asia,44.016521,21.005859,554.376630953841,1997,79922,844,180,110,54,148,628,12643,60960,1225,32,76,1232,670,95,683,1193,0,342,0,0,0,0,0
GD,Grenada,country,Latin America and the Caribbean,12.262776,-61.604171,RS,Serbia,country,Europe and Central Asia,44.016521,21.005859,8486.22501894756,1997,1,0,0,0,0,0,0,0,0,0,1,0,0,0,0,0,0,0,0,0,0,0,0,0
GU,Guam,country,East Asia and Pacific,13.444304,144.793731,RS,Serbia,country,Europe and Central Asia,44.016521,21.005859,11482.0204452036,1997,20,0,0,0,0,0,0,0,0,0,0,0,0,0,0,20,0,0,0,0,0,0,0,0
GT,Guatemala,country,Latin America and the Caribbean,15.783471,-90.230759,RS,Serbia,country,Europe and Central Asia,44.016521,21.005859,10412.2819781951,1997,167,20,0,0,0,0,0,0,147,0,0,0,0,0,0,0,0,0,0,0,0,0,0,0
GN,Guinea,country,Sub-Saharan Africa,9.945587,-9.696645,RS,Serbia,country,Europe and Central Asia,44.016521,21.005859,4808.17242867492,1997,218,0,0,0,0,0,0,0,0,0,0,0,218,0,0,0,0,0,0,0,0,0,0,0
HU,Hungary,country,Europe and Central Asia,47.162494,19.503304,RS,Serbia,country,Europe and Central Asia,44.016521,21.005859,369.231430921197,1997,133376,91575,13890,127,59,0,1389,2934,2964,47,0,1116,431,2847,3845,6926,1153,2816,2410,0,0,0,0,0
IS,Iceland,country,Europe and Central Asia,64.963051,-19.020835,RS,Serbia,country,Europe and Central Asia,44.016521,21.005859,3382.76128781282,1997,36,25,0,0,0,0,0,0,11,0,0,0,0,0,0,0,0,0,0,0,0,0,0,0
IN,India,country,South Asia,20.593684,78.96288,RS,Serbia,country,Europe and Central Asia,44.016521,21.005859,5901.86579449093,1997,7065,1228,0,0,0,7,509,7,8,0,211,0,2954,2141,0,0,0,0,0,0,0,0,0,0
ID,Indonesia,country,East Asia and Pacific,-0.789275,113.921327,RS,Serbia,country,Europe and Central Asia,44.016521,21.005859,10313.1816095711,1997,1729,0,0,0,0,0,0,0,32,0,75,0,784,423,415,0,0,0,0,0,0,0,0,0
IR,Iran,country,Middle East and North Africa,32.427908,53.688046,RS,Serbia,country,Europe and Central Asia,44.016521,21.005859,3109.24350631796,1997,185,0,0,0,20,11,0,32,122,0,0,0,0,0,0,0,0,0,0,0,0,0,0,0
IQ,Iraq,country,Middle East and North Africa,33.223191,43.679291,RS,Serbia,country,Europe and Central Asia,44.016521,21.005859,2297.58724536923,1997,10,0,0,0,0,0,0,0,10,0,0,0,0,0,0,0,0,0,0,0,0,0,0,0
IE,Ireland,country,Europe and Central Asia,53.41291,-8.24389,RS,Serbia,country,Europe and Central Asia,44.016521,21.005859,2366.90527439305,1997,42,0,0,0,0,0,0,0,0,0,0,7,0,13,0,22,0,0,0,0,0,0,0,0
IL,Israel,country,Middle East and North Africa,31.046051,34.851612,RS,Serbia,country,Europe and Central Asia,44.016521,21.005859,1886.34241583508,1997,1218,0,0,0,0,0,18,0,1077,44,0,2,0,77,0,0,0,0,0,0,0,0,0,0
IT,Italy,country,Europe and Central Asia,41.87194,12.56738,RS,Serbia,country,Europe and Central Asia,44.016521,21.005859,727.486840698066,1997,30039,7306,118,343,41,332,173,1429,5748,44,2,324,1943,2435,807,3306,207,5489,199,0,0,0,0,0
JM,Jamaica,country,Latin America and the Caribbean,18.109581,-77.297508,RS,Serbia,country,Europe and Central Asia,44.016521,21.005859,9269.00502517157,1997,1,0,0,0,0,0,0,0,0,0,0,0,0,0,0,1,0,0,0,0,0,0,0,0
JP,Japan,country,East Asia and Pacific,36.204824,138.252924,RS,Serbia,country,Europe and Central Asia,44.016521,21.005859,9092.13740292657,1997,0,0,0,0,0,0,0,0,0,0,0,0,0,0,0,0,0,0,0,0,0,0,0,0
JO,Jordan,country,Middle East and North Africa,30.585164,36.238414,RS,Serbia,country,Europe and Central Asia,44.016521,21.005859,2007.00569440061,1997,121,0,0,0,0,0,0,101,3,0,0,0,0,0,0,17,0,0,0,0,0,0,0,0
KZ,Kazakhstan,country,Europe and Central Asia,48.019573,66.923684,RS,Serbia,country,Europe and Central Asia,44.016521,21.005859,3524.32158022966,1997,363,0,0,0,0,0,0,0,0,363,0,0,0,0,0,0,0,0,0,0,0,0,0,0
KE,Kenya,country,Sub-Saharan Africa,-0.023559,37.906193,RS,Serbia,country,Europe and Central Asia,44.016521,21.005859,5181.27112728806,1997,8,0,0,0,0,0,0,0,8,0,0,0,0,0,0,0,0,0,0,0,0,0,0,0
KI,Kiribati,country,East Asia and Pacific,-3.370417,-168.734039,RS,Serbia,country,Europe and Central Asia,44.016521,21.005859,15412.3988831088,1997,37,0,0,0,0,0,0,0,0,8,0,0,10,0,0,19,0,0,0,0,0,0,0,0
LA,Lao PDR,country,East Asia and Pacific,19.85627,102.495496,RS,Serbia,country,Europe and Central Asia,44.016521,21.005859,7832.390400326,1997,22,0,0,0,0,0,0,0,0,0,0,0,22,0,0,0,0,0,0,0,0,0,0,0
LI,Liechtenstein,country,Europe and Central Asia,47.166,9.555373,RS,Serbia,country,Europe and Central Asia,44.016521,21.005859,957.264927230583,1997,1,0,0,0,0,0,0,0,0,0,0,0,0,0,1,0,0,0,0,0,0,0,0,0
LT,Lithuania,country,Europe and Central Asia,55.169438,23.881275,RS,Serbia,country,Europe and Central Asia,44.016521,21.005859,1258.4749134443,1997,56,0,0,0,0,0,0,0,0,47,0,0,0,0,0,9,0,0,0,0,0,0,0,0
MG,Madagascar,country,Sub-Saharan Africa,-18.766947,46.869107,RS,Serbia,country,Europe and Central Asia,44.016521,21.005859,7469.33366732548,1997,24,0,0,0,0,0,0,0,0,0,0,0,24,0,0,0,0,0,0,0,0,0,0,0
MY,Malaysia,country,East Asia and Pacific,4.210484,101.975766,RS,Serbia,country,Europe and Central Asia,44.016521,21.005859,8970.68189806037,1997,7416,0,0,0,0,0,0,0,0,0,13,0,517,4975,1911,0,0,0,0,0,0,0,0,0
ML,Mali,country,Sub-Saharan Africa,17.570692,-3.996166,RS,Serbia,country,Europe and Central Asia,44.016521,21.005859,3761.14424961962,1997,121,0,0,0,0,0,0,0,0,0,0,0,100,5,0,15,0,0,1,0,0,0,0,0
MX,Mexico,country,Latin America and the Caribbean,23.634501,-102.552784,RS,Serbia,country,Europe and Central Asia,44.016521,21.005859,10565.49754478,1997,337,3,0,9,0,0,7,0,0,0,4,0,0,0,0,314,0,0,0,0,0,0,0,0
MC,Monaco,country,Europe and Central Asia,43.750298,7.412841,RS,Serbia,country,Europe and Central Asia,44.016521,21.005859,1089.78567248817,1997,2,0,0,0,0,0,0,0,0,0,0,0,2,0,0,0,0,0,0,0,0,0,0,0
MA,Morocco,country,Middle East and North Africa,31.791702,-7.09262,RS,Serbia,country,Europe and Central Asia,44.016521,21.005859,2798.4224343844,1997,62,0,41,0,0,0,0,20,0,0,0,0,1,0,0,0,0,0,0,0,0,0,0,0
NL,Netherlands,country,Europe and Central Asia,52.132633,5.291266,RS,Serbia,country,Europe and Central Asia,44.016521,21.005859,1472.05323585752,1997,32480,2586,4132,94,129,0,50,3584,125,0,32,7415,752,905,1786,2407,100,7583,900,0,0,0,0,0
NZ,New Zealand,country,East Asia and Pacific,-40.900557,174.885971,RS,Serbia,country,Europe and Central Asia,44.016521,21.005859,17873.8391139107,1997,37,0,0,0,0,0,0,0,4,14,0,0,0,0,0,0,0,0,19,0,0,0,0,0
NG,Nigeria,country,Sub-Saharan Africa,9.081999,8.675277,RS,Serbia,country,Europe and Central Asia,44.016521,21.005859,4067.78275872662,1997,37,0,0,0,0,0,0,0,0,0,2,0,35,0,0,0,0,0,0,0,0,0,0,0
NO,Norway,country,Europe and Central Asia,60.472024,8.468946,RS,Serbia,country,Europe and Central Asia,44.016521,21.005859,2013.3740749195,1997,6,0,0,0,0,0,0,0,0,0,0,0,0,0,0,0,0,0,6,0,0,0,0,0
PA,Panama,country,Latin America and the Caribbean,8.537981,-80.782127,RS,Serbia,country,Europe and Central Asia,44.016521,21.005859,10287.4947752965,1997,206,0,0,0,0,0,0,0,187,0,0,0,0,19,0,0,0,0,0,0,0,0,0,0
PE,Peru,country,Latin America and the Caribbean,-9.189967,-75.015152,RS,Serbia,country,Europe and Central Asia,44.016521,21.005859,11208.4045385275,1997,1500,0,0,0,0,0,0,0,0,0,0,1500,0,0,0,0,0,0,0,0,0,0,0,0
PH,Philippines,country,East Asia and Pacific,12.879721,121.774017,RS,Serbia,country,Europe and Central Asia,44.016521,21.005859,9866.24527535925,1997,505,0,0,0,0,0,0,0,63,0,0,0,0,442,0,0,0,0,0,0,0,0,0,0
PL,Poland,country,Europe and Central Asia,51.919438,19.145136,RS,Serbia,country,Europe and Central Asia,44.016521,21.005859,890.532105326705,1997,1374,16,422,82,60,0,0,485,203,0,0,1,49,10,0,26,0,0,20,0,0,0,0,0
PT,Portugal,country,Europe and Central Asia,39.399872,-8.224454,RS,Serbia,country,Europe and Central Asia,44.016521,21.005859,2469.20359689191,1997,18,0,0,0,0,0,0,0,0,0,0,0,0,0,0,18,0,0,0,0,0,0,0,0
PR,Puerto Rico,country,Latin America and the Caribbean,18.220833,-66.590149,RS,Serbia,country,Europe and Central Asia,44.016521,21.005859,8433.96788147163,1997,0,0,0,0,0,0,0,0,0,0,0,0,0,0,0,0,0,0,0,0,0,0,0,0
KR,"Korea, Rep.",country,East Asia and Pacific,35.907757,127.766922,RS,Serbia,country,Europe and Central Asia,44.016521,21.005859,8475.85993524956,1997,29,18,0,0,0,0,0,0,11,0,0,0,0,0,0,0,0,0,0,0,0,0,0,0
MD,Moldova,country,Europe and Central Asia,47.411631,28.369885,RS,Serbia,country,Europe and Central Asia,44.016521,21.005859,685.448209179316,1997,21,0,0,0,0,11,0,0,0,0,0,0,0,10,0,0,0,0,0,0,0,0,0,0
RO,Romania,country,Europe and Central Asia,45.943161,24.96676,RS,Serbia,country,Europe and Central Asia,44.016521,21.005859,378.442263028278,1997,2051,54,0,0,0,19,1196,0,35,0,0,106,10,6,82,18,0,525,0,0,0,0,0,0
RU,Russian Federation,country,Europe and Central Asia,61.52401,105.318756,RS,Serbia,country,Europe and Central Asia,44.016521,21.005859,5549.39556496858,1997,1348,53,0,0,0,0,0,0,0,1124,0,0,0,0,0,57,0,0,16,98,0,0,0,0
SA,Saudi Arabia,country,Middle East and North Africa,23.885942,45.079162,RS,Serbia,country,Europe and Central Asia,44.016521,21.005859,3133.58178690718,1997,3,0,0,0,0,0,0,0,3,0,0,0,0,0,0,0,0,0,0,0,0,0,0,0
SC,Seychelles,country,Sub-Saharan Africa,-4.679574,55.491977,RS,Serbia,country,Europe and Central Asia,44.016521,21.005859,6425.07615999111,1997,20,0,0,0,0,0,0,0,20,0,0,0,0,0,0,0,0,0,0,0,0,0,0,0
SL,Sierra Leone,country,Sub-Saharan Africa,8.460555,-11.779889,RS,Serbia,country,Europe and Central Asia,44.016521,21.005859,5071.04898388921,1997,1,0,0,0,0,0,0,0,0,0,0,0,0,1,0,0,0,0,0,0,0,0,0,0
SG,Singapore,country,East Asia and Pacific,1.352083,103.819836,RS,Serbia,country,Europe and Central Asia,44.016521,21.005859,9339.28810442545,1997,7,0,0,0,0,0,0,0,0,0,0,0,7,0,0,0,0,0,0,0,0,0,0,0
SK,Slovak Rep.,country,Europe and Central Asia,48.669026,19.699024,RS,Serbia,country,Europe and Central Asia,44.016521,21.005859,527.538851466392,1997,2279,747,40,1,0,0,22,0,0,11,0,0,64,297,308,174,0,0,615,0,0,0,0,0
SI,Slovenia,country,Europe and Central Asia,46.151241,14.995463,RS,Serbia,country,Europe and Central Asia,44.016521,21.005859,528.62012714237,1997,3254,178,582,205,0,6,10,31,521,0,7,77,175,867,0,595,0,0,0,0,0,0,0,0
ZA,S. Africa,country,Sub-Saharan Africa,-30.559482,22.937506,RS,Serbia,country,Europe and Central Asia,44.016521,21.005859,8304.09081813921,1997,1300,0,0,0,0,0,78,0,1219,0,0,0,0,3,0,0,0,0,0,0,0,0,0,0
ES,Spain,country,Europe and Central Asia,40.463667,-3.74922,RS,Serbia,country,Europe and Central Asia,44.016521,21.005859,2069.91558060698,1997,3660,164,5,285,0,13,41,547,2044,0,11,15,65,97,28,40,0,176,129,0,0,0,0,0
LK,Sri Lanka,country,South Asia,7.873054,80.771797,RS,Serbia,country,Europe and Central Asia,44.016521,21.005859,7013.92262413949,1997,2617,0,0,0,0,0,0,0,0,0,3,0,2541,73,0,0,0,0,0,0,0,0,0,0
SD,Sudan,country,Sub-Saharan Africa,12.862807,30.217636,RS,Serbia,country,Europe and Central Asia,44.016521,21.005859,3577.92828355113,1997,164,0,0,0,0,0,47,1,0,101,0,0,15,0,0,0,0,0,0,0,0,0,0,0
SE,Sweden,country,Europe and Central Asia,60.128161,18.643501,RS,Serbia,country,Europe and Central Asia,44.016521,21.005859,1800.52259379861,1997,21,0,0,0,0,0,0,0,0,0,0,0,13,5,0,3,0,0,0,0,0,0,0,0
CH,Switzerland,country,Europe and Central Asia,46.818188,8.227512,RS,Serbia,country,Europe and Central Asia,44.016521,21.005859,1044.67325139493,1997,2218,26,0,268,0,0,127,95,0,0,0,16,1080,395,2,0,0,18,191,0,0,0,0,0
SY,Syrian Arab Rep.,country,Middle East and North Africa,34.802075,38.996815,RS,Serbia,country,Europe and Central Asia,44.016521,21.005859,1850.11857991212,1997,45,0,0,0,0,0,0,5,40,0,0,0,0,0,0,0,0,0,0,0,0,0,0,0
TJ,Tajikistan,country,Europe and Central Asia,38.861034,71.276093,RS,Serbia,country,Europe and Central Asia,44.016521,21.005859,4168.76837390578,1997,520,0,0,0,0,0,0,0,0,520,0,0,0,0,0,0,0,0,0,0,0,0,0,0
TH,Thailand,country,East Asia and Pacific,15.870032,100.992541,RS,Serbia,country,Europe and Central Asia,44.016521,21.005859,8006.45649002819,1997,658,107,0,0,0,38,0,4,502,0,0,0,0,7,0,0,0,0,0,0,0,0,0,0
MK,Macedonia,country,Europe and Central Asia,41.608635,21.745275,RS,Serbia,country,Europe and Central Asia,44.016521,21.005859,274.758043621538,1997,148004,3171,189,1117,214,428,315,65836,23488,218,340,20,582,3785,7,46956,713,36,1302,0,0,0,0,0
TG,Togo,country,Sub-Saharan Africa,8.619543,0.824782,RS,Serbia,country,Europe and Central Asia,44.016521,21.005859,4398.2999046897,1997,2,0,0,0,0,0,0,0,0,0,0,0,2,0,0,0,0,0,0,0,0,0,0,0
TT,Trinidad and Tobago,country,Latin America and the Caribbean,10.691803,-61.222503,RS,Serbia,country,Europe and Central Asia,44.016521,21.005859,8574.72882711898,1997,2,0,0,0,0,0,0,0,2,0,0,0,0,0,0,0,0,0,0,0,0,0,0,0
TN,Tunisia,country,Middle East and North Africa,33.886917,9.537499,RS,Serbia,country,Europe and Central Asia,44.016521,21.005859,1499.43568215627,1997,26,0,0,0,0,0,0,0,26,0,0,0,0,0,0,0,0,0,0,0,0,0,0,0
TR,Turkey,country,Europe and Central Asia,38.963745,35.243322,RS,Serbia,country,Europe and Central Asia,44.016521,21.005859,1311.32912950033,1997,18966,3332,0,1333,1842,304,82,4482,6972,31,11,1,417,109,33,17,0,0,0,0,0,0,0,0
TM,Turkmenistan,country,Europe and Central Asia,38.969719,59.556278,RS,Serbia,country,Europe and Central Asia,44.016521,21.005859,3232.86843749492,1997,40,0,0,0,0,0,0,0,0,40,0,0,0,0,0,0,0,0,0,0,0,0,0,0
TV,Tuvalu,country,East Asia and Pacific,-7.109535,177.64933,RS,Serbia,country,Europe and Central Asia,44.016521,21.005859,15342.9652535383,1997,20,0,0,0,0,0,0,0,0,0,0,0,0,0,0,0,0,20,0,0,0,0,0,0
UG,Uganda,country,Sub-Saharan Africa,1.373333,32.290275,RS,Serbia,country,Europe and Central Asia,44.016521,21.005859,4876.45742493756,1997,2585,0,0,0,0,0,0,0,0,0,0,0,2585,0,0,0,0,0,0,0,0,0,0,0
UA,Ukraine,country,Europe and Central Asia,48.379433,31.16558,RS,Serbia,country,Europe and Central Asia,44.016521,21.005859,920.107979684928,1997,148,0,0,0,0,0,0,0,0,62,0,0,0,27,0,41,0,0,0,18,0,0,0,0
GB,United Kingdom,country,Europe and Central Asia,55.378051,-3.435973,RS,Serbia,country,Europe and Central Asia,44.016521,21.005859,2148.73606360185,1997,4278,2835,0,99,0,0,0,0,0,0,2,10,149,59,79,932,0,113,0,0,0,0,0,0
US,USA,country,North America,37.09024,-95.712891,RS,Serbia,country,Europe and Central Asia,44.016521,21.005859,8986.50934433714,1997,3756,2834,0,2,6,28,1,7,4,0,0,163,45,118,0,90,0,458,0,0,0,0,0,0
UY,Uruguay,country,Latin America and the Caribbean,-32.522779,-55.765835,RS,Serbia,country,Europe and Central Asia,44.016521,21.005859,11530.6449554534,1997,9,0,0,0,0,0,0,0,0,9,0,0,0,0,0,0,0,0,0,0,0,0,0,0
UZ,Uzbekistan,country,Europe and Central Asia,41.377491,64.585262,RS,Serbia,country,Europe and Central Asia,44.016521,21.005859,3535.86946731055,1997,4569,0,0,0,0,0,0,0,0,4569,0,0,0,0,0,0,0,0,0,0,0,0,0,0
VN,Vietnam,country,East Asia and Pacific,14.058324,108.277199,RS,Serbia,country,Europe and Central Asia,44.016521,21.005859,8721.44685907674,1997,3997,3715,0,0,0,3,40,0,4,0,29,0,127,79,0,0,0,0,0,0,0,0,0,0
ZM,Zambia,country,Sub-Saharan Africa,-13.133897,27.849332,RS,Serbia,country,Europe and Central Asia,44.016521,21.005859,6399.76478917107,1997,1,1,0,0,0,0,0,0,0,0,0,0,0,0,0,0,0,0,0,0,0,0,0,0
AR,Argentina,country,Latin America and the Caribbean,-38.416097,-63.616672,RS,Serbia,country,Europe and Central Asia,44.016521,21.005859,12497.7704110917,2000,21132,0,0,0,0,0,23,21,594,2,0,20492,0,0,0,0,0,0,0,0,0,0,0,0
AU,Australia,country,East Asia and Pacific,-25.274398,133.775136,RS,Serbia,country,Europe and Central Asia,44.016521,21.005859,13720.5983494055,2000,97,0,0,0,0,0,0,0,0,83,0,0,0,0,0,0,0,0,0,14,0,0,0,0
AT,Austria,country,Europe and Central Asia,47.516231,14.550072,RS,Serbia,country,Europe and Central Asia,44.016521,21.005859,634.53944446226,2000,18393,7,617,2914,0,0,1,8286,1803,0,12,21,421,691,451,415,18,2698,56,0,0,0,0,0
AZ,Azerbaijan,country,Europe and Central Asia,40.143105,47.576927,RS,Serbia,country,Europe and Central Asia,44.016521,21.005859,2227.13453767145,2000,59,0,0,0,0,59,0,0,0,0,0,0,0,0,0,0,0,0,0,0,0,0,0,0
BS,The Bahamas,country,Latin America and the Caribbean,25.03428,-77.39628,RS,Serbia,country,Europe and Central Asia,44.016521,21.005859,8742.07537416474,2000,1,0,0,0,0,0,0,0,0,0,0,0,0,0,0,1,0,0,0,0,0,0,0,0
BD,Bangladesh,country,South Asia,23.684994,90.356331,RS,Serbia,country,Europe and Central Asia,44.016521,21.005859,6595.06138301243,2000,2069,0,0,0,0,0,0,0,0,2069,0,0,0,0,0,0,0,0,0,0,0,0,0,0
BY,Belarus,country,Europe and Central Asia,53.709807,27.953389,RS,Serbia,country,Europe and Central Asia,44.016521,21.005859,1191.63119756659,2000,22,0,0,0,0,0,0,22,0,0,0,0,0,0,0,0,0,0,0,0,0,0,0,0
BE,Belgium,country,Europe and Central Asia,50.503887,4.469936,RS,Serbia,country,Europe and Central Asia,44.016521,21.005859,1438.34599769097,2000,2420,1340,65,26,0,0,0,6,0,123,0,0,21,66,47,41,0,663,22,0,0,0,0,0
BM,Bermuda,country,North America,32.321384,-64.75737,RS,Serbia,country,Europe and Central Asia,44.016521,21.005859,7279.32204796001,2000,2,0,0,0,0,0,0,0,0,0,0,0,0,0,0,2,0,0,0,0,0,0,0,0
BT,Bhutan,country,South Asia,27.514162,90.433601,RS,Serbia,country,Europe and Central Asia,44.016521,21.005859,6341.53739602771,2000,25,0,0,0,0,0,0,0,0,0,0,0,25,0,0,0,0,0,0,0,0,0,0,0
BA,Bosnia & Herzegovina,country,Europe and Central Asia,43.915886,17.679076,RS,Serbia,country,Europe and Central Asia,44.016521,21.005859,266.76612027763,2000,8709,658,505,1,26,83,120,1309,783,43,52,329,17,1564,119,458,0,565,1989,31,57,0,0,0
BR,Brazil,country,Latin America and the Caribbean,-14.235004,-51.92528,RS,Serbia,country,Europe and Central Asia,44.016521,21.005859,9803.55343945678,2000,29577,0,0,0,0,0,0,1,673,0,20,1928,26954,1,0,0,0,0,0,0,0,0,0,0
BG,Bulgaria,country,Europe and Central Asia,42.733883,25.48583,RS,Serbia,country,Europe and Central Asia,44.016521,21.005859,389.537077453946,2000,2712,36,17,272,60,0,46,64,98,565,0,538,294,199,0,509,22,0,14,0,0,0,0,0
BF,Burkina Faso,country,Sub-Saharan Africa,12.238333,-1.561593,RS,Serbia,country,Europe and Central Asia,44.016521,21.005859,4143.7317033853,2000,5,0,0,0,0,0,0,0,0,0,0,0,0,5,0,0,0,0,0,0,0,0,0,0
CM,Cameroon,country,Sub-Saharan Africa,7.369722,12.354722,RS,Serbia,country,Europe and Central Asia,44.016521,21.005859,4165.43621620507,2000,250,0,0,0,0,0,0,0,34,0,0,0,216,0,0,0,0,0,0,0,0,0,0,0
CA,Canada,country,North America,56.130366,-106.346771,RS,Serbia,country,Europe and Central Asia,44.016521,21.005859,7848.12742764706,2000,199,0,0,0,145,0,0,1,0,0,0,0,0,0,0,53,0,0,0,0,0,0,0,0
CL,Chile,country,Latin America and the Caribbean,-35.675147,-71.542969,RS,Serbia,country,Europe and Central Asia,44.016521,21.005859,12862.3909629852,2000,4,0,0,0,0,0,0,0,1,3,0,0,0,0,0,0,0,0,0,0,0,0,0,0
HK,Hong Kong,country,East Asia and Pacific,22.396428,114.109497,RS,Serbia,country,Europe and Central Asia,44.016521,21.005859,8546.69683729418,2000,9,0,0,0,0,0,0,0,0,0,0,0,0,9,0,0,0,0,0,0,0,0,0,0
CN,China,country,East Asia and Pacific,35.86166,104.195397,RS,Serbia,country,Europe and Central Asia,44.016521,21.005859,6853.20210928996,2000,3305,919,0,0,0,4,1639,595,9,0,4,0,63,71,0,1,0,0,0,0,0,0,0,0
TW,Taiwan,country,East Asia and Pacific,23.69781,120.960515,RS,Serbia,country,Europe and Central Asia,44.016521,21.005859,8958.67276651051,2000,20,0,0,0,0,0,0,0,0,0,0,0,2,0,18,0,0,0,0,0,0,0,0,0
CO,Colombia,country,Latin America and the Caribbean,4.570868,-74.297333,RS,Serbia,country,Europe and Central Asia,44.016521,21.005859,10088.1529694605,2000,1697,0,0,0,0,0,0,0,1623,0,0,0,74,0,0,0,0,0,0,0,0,0,0,0
KM,Comoros,country,Sub-Saharan Africa,-11.875001,43.872219,RS,Serbia,country,Europe and Central Asia,44.016521,21.005859,6638.90965887226,2000,1,0,0,0,0,0,0,0,0,0,1,0,0,0,0,0,0,0,0,0,0,0,0,0
CG,"Congo, Rep.",country,Sub-Saharan Africa,-0.228021,15.827659,RS,Serbia,country,Europe and Central Asia,44.016521,21.005859,4952.05147768817,2000,173,0,0,0,0,0,0,0,0,0,0,0,173,0,0,0,0,0,0,0,0,0,0,0
CR,Costa Rica,country,Latin America and the Caribbean,9.748917,-83.753428,RS,Serbia,country,Europe and Central Asia,44.016521,21.005859,10420.1986230751,2000,257,0,0,0,0,0,0,2,253,0,0,0,2,0,0,0,0,0,0,0,0,0,0,0
CI,Ivory Coast,country,Sub-Saharan Africa,7.539989,-5.54708,RS,Serbia,country,Europe and Central Asia,44.016521,21.005859,4809.61628628367,2000,2730,0,0,0,0,0,3,0,40,0,0,0,2687,0,0,0,0,0,0,0,0,0,0,0
HR,Croatia,country,Europe and Central Asia,45.1,15.2,RS,Serbia,country,Europe and Central Asia,44.016521,21.005859,475.929465356036,2000,3369,161,0,92,0,0,15,20,287,0,8,0,95,1388,92,790,11,176,245,0,0,0,0,0
CU,Cuba,country,Latin America and the Caribbean,21.521757,-77.781167,RS,Serbia,country,Europe and Central Asia,44.016521,21.005859,9040.87874317642,2000,10,0,0,0,0,0,0,0,0,0,0,0,10,0,0,0,0,0,0,0,0,0,0,0
CY,Cyprus,country,Europe and Central Asia,35.126413,33.429859,RS,Serbia,country,Europe and Central Asia,44.016521,21.005859,1451.60371274688,2000,799,10,0,0,0,0,24,0,638,19,0,0,2,14,24,66,0,0,0,2,0,0,0,0
CZ,Czech Republic,country,Europe and Central Asia,49.817492,15.472962,RS,Serbia,country,Europe and Central Asia,44.016521,21.005859,770.233140648118,2000,6724,102,0,2850,0,0,2,19,0,272,0,21,0,1428,392,264,0,0,1374,0,0,0,0,0
DK,Denmark,country,Europe and Central Asia,56.26392,9.501785,RS,Serbia,country,Europe and Central Asia,44.016521,21.005859,1586.65641821047,2000,659,0,270,100,0,0,0,0,0,0,0,0,0,207,3,49,0,0,30,0,0,0,0,0
DO,Dominican Republic,country,Latin America and the Caribbean,18.735693,-70.162651,RS,Serbia,country,Europe and Central Asia,44.016521,21.005859,8673.83549169584,2000,1,0,0,0,0,0,1,0,0,0,0,0,0,0,0,0,0,0,0,0,0,0,0,0
EC,Ecuador,country,Latin America and the Caribbean,-1.831239,-78.183406,RS,Serbia,country,Europe and Central Asia,44.016521,21.005859,10895.2522100197,2000,17531,0,0,0,0,0,0,0,17510,0,0,0,21,0,0,0,0,0,0,0,0,0,0,0
EG,Egypt,country,Middle East and North Africa,26.820553,30.802498,RS,Serbia,country,Europe and Central Asia,44.016521,21.005859,2106.78502342594,2000,1091,132,0,0,0,0,0,5,618,336,0,0,0,0,0,0,0,0,0,0,0,0,0,0
ET,Ethiopia,country,Sub-Saharan Africa,9.145,40.489673,RS,Serbia,country,Europe and Central Asia,44.016521,21.005859,4314.70888612198,2000,17,0,0,0,0,0,0,0,0,0,0,0,17,0,0,0,0,0,0,0,0,0,0,0
FI,Finland,country,Europe and Central Asia,61.92411,25.748151,RS,Serbia,country,Europe and Central Asia,44.016521,21.005859,2017.359390771,2000,33,0,0,0,0,0,0,0,0,0,0,0,0,0,0,13,0,0,20,0,0,0,0,0
FR,France,country,Europe and Central Asia,46.227638,2.213749,RS,Serbia,country,Europe and Central Asia,44.016521,21.005859,1492.78689795462,2000,17519,13972,411,1418,0,0,1,117,72,0,0,44,91,267,167,264,44,623,72,0,0,0,0,0
GE,Georgia,country,Europe and Central Asia,42.315407,43.356892,RS,Serbia,country,Europe and Central Asia,44.016521,21.005859,1818.97892917685,2000,20,0,0,0,0,20,0,0,0,0,0,0,0,0,0,0,0,0,0,0,0,0,0,0
DE,Germany,country,Europe and Central Asia,51.165691,10.451526,RS,Serbia,country,Europe and Central Asia,44.016521,21.005859,1120.94031227413,2000,17755,4144,1529,4255,328,7,15,65,134,57,0,22,1398,1342,1607,336,22,1002,832,682,0,0,0,0
GH,Ghana,country,Sub-Saharan Africa,7.946527,-1.023194,RS,Serbia,country,Europe and Central Asia,44.016521,21.005859,4548.60748905586,2000,2700,0,0,0,0,0,0,0,2,0,0,0,2698,0,0,0,0,0,0,0,0,0,0,0
GR,Greece,country,Europe and Central Asia,39.074208,21.824312,RS,Serbia,country,Europe and Central Asia,44.016521,21.005859,554.376630953841,2000,41403,351,0,15,44,46,199,963,32157,2037,2,16,271,2395,19,1883,0,722,283,0,0,0,0,0
GT,Guatemala,country,Latin America and the Caribbean,15.783471,-90.230759,RS,Serbia,country,Europe and Central Asia,44.016521,21.005859,10412.2819781951,2000,8,0,0,0,0,0,2,1,0,0,0,0,5,0,0,0,0,0,0,0,0,0,0,0
GN,Guinea,country,Sub-Saharan Africa,9.945587,-9.696645,RS,Serbia,country,Europe and Central Asia,44.016521,21.005859,4808.17242867492,2000,28,0,0,0,0,0,0,5,0,0,0,0,23,0,0,0,0,0,0,0,0,0,0,0
HN,Honduras,country,Latin America and the Caribbean,15.199999,-86.241905,RS,Serbia,country,Europe and Central Asia,44.016521,21.005859,10169.1787245646,2000,7,0,0,0,0,0,0,0,0,0,0,0,7,0,0,0,0,0,0,0,0,0,0,0
HU,Hungary,country,Europe and Central Asia,47.162494,19.503304,RS,Serbia,country,Europe and Central Asia,44.016521,21.005859,369.231430921197,2000,24677,3380,533,2850,348,0,4007,698,855,8,7,930,192,2613,2568,1301,854,1637,2750,0,0,0,0,0
IN,India,country,South Asia,20.593684,78.96288,RS,Serbia,country,Europe and Central Asia,44.016521,21.005859,5901.86579449093,2000,8042,0,0,0,0,0,697,21,0,0,124,0,7125,28,47,0,0,0,0,0,0,0,0,0
ID,Indonesia,country,East Asia and Pacific,-0.789275,113.921327,RS,Serbia,country,Europe and Central Asia,44.016521,21.005859,10313.1816095711,2000,2325,0,0,0,0,0,25,5,0,0,198,0,411,1227,459,0,0,0,0,0,0,0,0,0
IR,Iran,country,Middle East and North Africa,32.427908,53.688046,RS,Serbia,country,Europe and Central Asia,44.016521,21.005859,3109.24350631796,2000,212,0,0,0,0,15,0,58,139,0,0,0,0,0,0,0,0,0,0,0,0,0,0,0
IE,Ireland,country,Europe and Central Asia,53.41291,-8.24389,RS,Serbia,country,Europe and Central Asia,44.016521,21.005859,2366.90527439305,2000,390,0,0,0,0,0,0,0,0,0,0,3,0,353,20,14,0,0,0,0,0,0,0,0
IL,Israel,country,Middle East and North Africa,31.046051,34.851612,RS,Serbia,country,Europe and Central Asia,44.016521,21.005859,1886.34241583508,2000,232,0,0,0,0,0,0,0,91,20,0,0,0,119,0,0,0,0,2,0,0,0,0,0
IT,Italy,country,Europe and Central Asia,41.87194,12.56738,RS,Serbia,country,Europe and Central Asia,44.016521,21.005859,727.486840698066,2000,49342,26639,529,8766,1,123,39,2214,3197,252,0,29,749,4740,637,458,0,852,117,0,0,0,0,0
JP,Japan,country,East Asia and Pacific,36.204824,138.252924,RS,Serbia,country,Europe and Central Asia,44.016521,21.005859,9092.13740292657,2000,3,0,0,0,0,0,0,0,0,0,0,0,0,0,3,0,0,0,0,0,0,0,0,0
JO,Jordan,country,Middle East and North Africa,30.585164,36.238414,RS,Serbia,country,Europe and Central Asia,44.016521,21.005859,2007.00569440061,2000,14,0,0,0,0,0,0,14,0,0,0,0,0,0,0,0,0,0,0,0,0,0,0,0
KE,Kenya,country,Sub-Saharan Africa,-0.023559,37.906193,RS,Serbia,country,Europe and Central Asia,44.016521,21.005859,5181.27112728806,2000,101,0,0,0,0,0,0,0,0,0,0,0,101,0,0,0,0,0,0,0,0,0,0,0
KG,Kyrgyz Rep.,country,Europe and Central Asia,41.20438,74.766098,RS,Serbia,country,Europe and Central Asia,44.016521,21.005859,4336.91923931682,2000,20,0,0,0,0,0,0,0,0,20,0,0,0,0,0,0,0,0,0,0,0,0,0,0
LT,Lithuania,country,Europe and Central Asia,55.169438,23.881275,RS,Serbia,country,Europe and Central Asia,44.016521,21.005859,1258.4749134443,2000,56,0,0,0,0,0,0,15,0,0,0,0,0,41,0,0,0,0,0,0,0,0,0,0
LU,Luxembourg,country,Europe and Central Asia,49.815273,6.129583,RS,Serbia,country,Europe and Central Asia,44.016521,21.005859,1299.06721262005,2000,105,0,105,0,0,0,0,0,0,0,0,0,0,0,0,0,0,0,0,0,0,0,0,0
MG,Madagascar,country,Sub-Saharan Africa,-18.766947,46.869107,RS,Serbia,country,Europe and Central Asia,44.016521,21.005859,7469.33366732548,2000,49,0,0,0,0,0,0,0,0,0,3,0,46,0,0,0,0,0,0,0,0,0,0,0
MY,Malaysia,country,East Asia and Pacific,4.210484,101.975766,RS,Serbia,country,Europe and Central Asia,44.016521,21.005859,8970.68189806037,2000,7176,0,0,0,0,0,0,0,0,0,10,0,276,5794,1096,0,0,0,0,0,0,0,0,0
MT,Malta,country,Middle East and North Africa,35.937496,14.375416,RS,Serbia,country,Europe and Central Asia,44.016521,21.005859,1061.57823059704,2000,4,0,0,0,0,0,0,0,0,0,0,0,0,4,0,0,0,0,0,0,0,0,0,0
MH,Marshall Islands,country,East Asia and Pacific,7.131474,171.184478,RS,Serbia,country,Europe and Central Asia,44.016521,21.005859,13602.8110537966,2000,24,0,0,0,0,0,0,0,0,0,0,0,0,0,24,0,0,0,0,0,0,0,0,0
MX,Mexico,country,Latin America and the Caribbean,23.634501,-102.552784,RS,Serbia,country,Europe and Central Asia,44.016521,21.005859,10565.49754478,2000,2305,0,0,2100,0,0,2,0,0,0,3,0,68,27,0,105,0,0,0,0,0,0,0,0
MA,Morocco,country,Middle East and North Africa,31.791702,-7.09262,RS,Serbia,country,Europe and Central Asia,44.016521,21.005859,2798.4224343844,2000,56,0,1,0,0,0,0,36,14,0,0,0,0,5,0,0,0,0,0,0,0,0,0,0
MZ,Mozambique,country,Sub-Saharan Africa,-18.665695,35.529562,RS,Serbia,country,Europe and Central Asia,44.016521,21.005859,7133.08710834436,2000,19,0,0,0,0,0,0,0,0,0,0,0,0,19,0,0,0,0,0,0,0,0,0,0
NL,Netherlands,country,Europe and Central Asia,52.132633,5.291266,RS,Serbia,country,Europe and Central Asia,44.016521,21.005859,1472.05323585752,2000,16994,223,4984,16,177,0,5,3231,72,0,19,0,536,2069,1046,1218,311,3173,225,0,0,0,0,0
NZ,New Zealand,country,East Asia and Pacific,-40.900557,174.885971,RS,Serbia,country,Europe and Central Asia,44.016521,21.005859,17873.8391139107,2000,23,0,0,0,0,0,0,0,0,23,0,0,0,0,0,0,0,0,0,0,0,0,0,0
NI,Nicaragua,country,Latin America and the Caribbean,12.865416,-85.207229,RS,Serbia,country,Europe and Central Asia,44.016521,21.005859,10280.5261589204,2000,431,0,0,0,0,0,0,0,0,0,0,0,431,0,0,0,0,0,0,0,0,0,0,0
NG,Nigeria,country,Sub-Saharan Africa,9.081999,8.675277,RS,Serbia,country,Europe and Central Asia,44.016521,21.005859,4067.78275872662,2000,456,0,0,0,0,0,0,0,0,0,2,0,333,121,0,0,0,0,0,0,0,0,0,0
PK,Pakistan,country,South Asia,30.375321,69.345116,RS,Serbia,country,Europe and Central Asia,44.016521,21.005859,4475.25180701753,2000,53,0,0,0,0,0,36,0,0,17,0,0,0,0,0,0,0,0,0,0,0,0,0,0
PG,Papua New Guinea,country,East Asia and Pacific,-6.314993,143.95555,RS,Serbia,country,Europe and Central Asia,44.016521,21.005859,13104.8806291999,2000,1,0,0,0,0,0,0,0,0,0,1,0,0,0,0,0,0,0,0,0,0,0,0,0
PH,Philippines,country,East Asia and Pacific,12.879721,121.774017,RS,Serbia,country,Europe and Central Asia,44.016521,21.005859,9866.24527535925,2000,59,0,0,0,0,0,0,0,0,0,0,0,0,12,47,0,0,0,0,0,0,0,0,0
PL,Poland,country,Europe and Central Asia,51.919438,19.145136,RS,Serbia,country,Europe and Central Asia,44.016521,21.005859,890.532105326705,2000,2913,62,182,141,272,0,0,1124,38,0,3,0,1031,14,0,0,0,35,11,0,0,0,0,0
PT,Portugal,country,Europe and Central Asia,39.399872,-8.224454,RS,Serbia,country,Europe and Central Asia,44.016521,21.005859,2469.20359689191,2000,201,0,0,185,0,0,0,0,0,0,0,0,0,0,0,0,0,0,16,0,0,0,0,0
KR,"Korea, Rep.",country,East Asia and Pacific,35.907757,127.766922,RS,Serbia,country,Europe and Central Asia,44.016521,21.005859,8475.85993524956,2000,11,0,0,0,0,0,0,0,0,0,0,0,0,0,0,11,0,0,0,0,0,0,0,0
RO,Romania,country,Europe and Central Asia,45.943161,24.96676,RS,Serbia,country,Europe and Central Asia,44.016521,21.005859,378.442263028278,2000,1604,0,0,382,0,0,120,62,0,0,0,0,0,26,870,144,0,0,0,0,0,0,0,0
RU,Russian Federation,country,Europe and Central Asia,61.52401,105.318756,RS,Serbia,country,Europe and Central Asia,44.016521,21.005859,5549.39556496858,2000,183,57,0,0,0,0,0,0,0,25,0,0,0,90,0,11,0,0,0,0,0,0,0,0
SA,Saudi Arabia,country,Middle East and North Africa,23.885942,45.079162,RS,Serbia,country,Europe and Central Asia,44.016521,21.005859,3133.58178690718,2000,15,0,0,0,0,0,0,0,15,0,0,0,0,0,0,0,0,0,0,0,0,0,0,0
SC,Seychelles,country,Sub-Saharan Africa,-4.679574,55.491977,RS,Serbia,country,Europe and Central Asia,44.016521,21.005859,6425.07615999111,2000,19,0,0,0,0,0,0,0,0,0,0,0,0,0,19,0,0,0,0,0,0,0,0,0
SL,Sierra Leone,country,Sub-Saharan Africa,8.460555,-11.779889,RS,Serbia,country,Europe and Central Asia,44.016521,21.005859,5071.04898388921,2000,89,0,0,0,0,0,0,0,0,0,0,0,24,24,0,0,0,20,21,0,0,0,0,0
SG,Singapore,country,East Asia and Pacific,1.352083,103.819836,RS,Serbia,country,Europe and Central Asia,44.016521,21.005859,9339.28810442545,2000,21,0,0,0,0,0,0,0,0,0,0,0,0,21,0,0,0,0,0,0,0,0,0,0
SK,Slovak Rep.,country,Europe and Central Asia,48.669026,19.699024,RS,Serbia,country,Europe and Central Asia,44.016521,21.005859,527.538851466392,2000,846,126,0,36,0,0,0,88,0,0,0,0,2,82,41,48,0,0,423,0,0,0,0,0
SI,Slovenia,country,Europe and Central Asia,46.151241,14.995463,RS,Serbia,country,Europe and Central Asia,44.016521,21.005859,528.62012714237,2000,6340,40,242,23,0,0,3,9,1255,0,0,73,63,182,103,1185,0,1434,1728,0,0,0,0,0
ZA,S. Africa,country,Sub-Saharan Africa,-30.559482,22.937506,RS,Serbia,country,Europe and Central Asia,44.016521,21.005859,8304.09081813921,2000,736,0,0,0,0,0,99,0,629,6,0,0,0,2,0,0,0,0,0,0,0,0,0,0
ES,Spain,country,Europe and Central Asia,40.463667,-3.74922,RS,Serbia,country,Europe and Central Asia,44.016521,21.005859,2069.91558060698,2000,10859,4,0,7592,0,1,1,684,1877,0,0,0,241,171,29,18,0,198,43,0,0,0,0,0
LK,Sri Lanka,country,South Asia,7.873054,80.771797,RS,Serbia,country,Europe and Central Asia,44.016521,21.005859,7013.92262413949,2000,83,0,0,0,0,0,10,0,0,0,14,0,8,51,0,0,0,0,0,0,0,0,0,0
SD,Sudan,country,Sub-Saharan Africa,12.862807,30.217636,RS,Serbia,country,Europe and Central Asia,44.016521,21.005859,3577.92828355113,2000,102,0,0,0,0,0,20,0,0,0,0,0,3,79,0,0,0,0,0,0,0,0,0,0
SR,Suriname,country,Latin America and the Caribbean,3.919305,-56.027783,RS,Serbia,country,Europe and Central Asia,44.016521,21.005859,8679.23108382782,2000,92,0,0,92,0,0,0,0,0,0,0,0,0,0,0,0,0,0,0,0,0,0,0,0
SE,Sweden,country,Europe and Central Asia,60.128161,18.643501,RS,Serbia,country,Europe and Central Asia,44.016521,21.005859,1800.52259379861,2000,1714,0,0,1500,0,0,0,0,0,15,0,0,1,104,50,4,0,0,40,0,0,0,0,0
CH,Switzerland,country,Europe and Central Asia,46.818188,8.227512,RS,Serbia,country,Europe and Central Asia,44.016521,21.005859,1044.67325139493,2000,823,2,0,81,25,0,24,26,0,0,0,20,221,90,0,108,0,0,226,0,0,0,0,0
SY,Syrian Arab Rep.,country,Middle East and North Africa,34.802075,38.996815,RS,Serbia,country,Europe and Central Asia,44.016521,21.005859,1850.11857991212,2000,118,0,0,0,0,0,12,4,102,0,0,0,0,0,0,0,0,0,0,0,0,0,0,0
TJ,Tajikistan,country,Europe and Central Asia,38.861034,71.276093,RS,Serbia,country,Europe and Central Asia,44.016521,21.005859,4168.76837390578,2000,45,0,0,0,0,0,0,0,0,45,0,0,0,0,0,0,0,0,0,0,0,0,0,0
TH,Thailand,country,East Asia and Pacific,15.870032,100.992541,RS,Serbia,country,Europe and Central Asia,44.016521,21.005859,8006.45649002819,2000,908,646,0,0,0,0,0,1,261,0,0,0,0,0,0,0,0,0,0,0,0,0,0,0
MK,Macedonia,country,Europe and Central Asia,41.608635,21.745275,RS,Serbia,country,Europe and Central Asia,44.016521,21.005859,274.758043621538,2000,38446,1688,2,308,267,92,162,13124,2938,40,337,0,482,4824,168,13723,0,83,108,100,0,0,0,0
TN,Tunisia,country,Middle East and North Africa,33.886917,9.537499,RS,Serbia,country,Europe and Central Asia,44.016521,21.005859,1499.43568215627,2000,4,0,0,0,0,0,0,0,4,0,0,0,0,0,0,0,0,0,0,0,0,0,0,0
TR,Turkey,country,Europe and Central Asia,38.963745,35.243322,RS,Serbia,country,Europe and Central Asia,44.016521,21.005859,1311.32912950033,2000,7330,147,722,161,182,317,5,950,4743,1,26,0,21,21,18,16,0,0,0,0,0,0,0,0
TM,Turkmenistan,country,Europe and Central Asia,38.969719,59.556278,RS,Serbia,country,Europe and Central Asia,44.016521,21.005859,3232.86843749492,2000,65,0,0,0,0,0,0,0,0,65,0,0,0,0,0,0,0,0,0,0,0,0,0,0
TC,Turks and Caicos Islands,country,Latin America and the Caribbean,21.694025,-71.797928,RS,Serbia,country,Europe and Central Asia,44.016521,21.005859,8576.70434722971,2000,2,0,0,1,0,0,0,0,0,0,0,0,1,0,0,0,0,0,0,0,0,0,0,0
UG,Uganda,country,Sub-Saharan Africa,1.373333,32.290275,RS,Serbia,country,Europe and Central Asia,44.016521,21.005859,4876.45742493756,2000,970,0,0,0,0,0,0,0,0,0,0,0,970,0,0,0,0,0,0,0,0,0,0,0
UA,Ukraine,country,Europe and Central Asia,48.379433,31.16558,RS,Serbia,country,Europe and Central Asia,44.016521,21.005859,920.107979684928,2000,295,40,0,0,0,0,193,20,0,5,0,0,0,0,0,20,0,0,0,17,0,0,0,0
AE,United Arab Emirates,country,Middle East and North Africa,23.424076,53.847818,RS,Serbia,country,Europe and Central Asia,44.016521,21.005859,3766.56792777802,2000,22,0,0,0,0,0,0,0,0,0,0,0,0,0,22,0,0,0,0,0,0,0,0,0
GB,United Kingdom,country,Europe and Central Asia,55.378051,-3.435973,RS,Serbia,country,Europe and Central Asia,44.016521,21.005859,2148.73606360185,2000,1651,0,0,607,0,0,0,0,0,20,0,0,0,155,67,802,0,0,0,0,0,0,0,0
US,USA,country,North America,37.09024,-95.712891,RS,Serbia,country,Europe and Central Asia,44.016521,21.005859,8986.50934433714,2000,409,0,0,0,0,33,0,9,19,0,0,0,0,107,37,46,22,133,25,0,0,0,0,0
UY,Uruguay,country,Latin America and the Caribbean,-32.522779,-55.765835,RS,Serbia,country,Europe and Central Asia,44.016521,21.005859,11530.6449554534,2000,106,0,0,0,0,0,0,0,57,49,0,0,0,0,0,0,0,0,0,0,0,0,0,0
UZ,Uzbekistan,country,Europe and Central Asia,41.377491,64.585262,RS,Serbia,country,Europe and Central Asia,44.016521,21.005859,3535.86946731055,2000,3077,0,0,0,0,0,0,0,0,3077,0,0,0,0,0,0,0,0,0,0,0,0,0,0
VN,Vietnam,country,East Asia and Pacific,14.058324,108.277199,RS,Serbia,country,Europe and Central Asia,44.016521,21.005859,8721.44685907674,2000,1468,1013,0,0,0,0,0,0,0,0,81,0,374,0,0,0,0,0,0,0,0,0,0,0
ZW,Zimbabwe,country,Sub-Saharan Africa,-19.015438,29.154857,RS,Serbia,country,Europe and Central Asia,44.016521,21.005859,7065.71865518656,2000,155,0,0,0,0,0,0,0,0,0,0,0,0,155,0,0,0,0,0,0,0,0,0,0
AL,Albania,country,Europe and Central Asia,41.153332,20.168331,RS,Serbia,country,Europe and Central Asia,44.016521,21.005859,326.03171728063,2001,104,0,0,0,0,0,0,0,44,0,33,0,4,11,0,12,0,0,0,0,0,0,0,0
AR,Argentina,country,Latin America and the Caribbean,-38.416097,-63.616672,RS,Serbia,country,Europe and Central Asia,44.016521,21.005859,12497.7704110917,2001,29838,0,0,23,0,0,5,23,1009,1,0,28749,16,0,0,12,0,0,0,0,0,0,0,0
AU,Australia,country,East Asia and Pacific,-25.274398,133.775136,RS,Serbia,country,Europe and Central Asia,44.016521,21.005859,13720.5983494055,2001,258,2,0,1,14,1,2,26,0,147,0,0,0,0,2,50,0,0,0,13,0,0,0,0
AT,Austria,country,Europe and Central Asia,47.516231,14.550072,RS,Serbia,country,Europe and Central Asia,44.016521,21.005859,634.53944446226,2001,32440,183,5900,9790,0,3,8,2039,5661,0,47,516,1026,899,318,1224,0,4764,62,0,0,0,0,0
BS,The Bahamas,country,Latin America and the Caribbean,25.03428,-77.39628,RS,Serbia,country,Europe and Central Asia,44.016521,21.005859,8742.07537416474,2001,6,0,0,0,0,0,0,0,0,0,0,0,0,0,0,6,0,0,0,0,0,0,0,0
BH,Bahrain,country,Middle East and North Africa,25.930414,50.637772,RS,Serbia,country,Europe and Central Asia,44.016521,21.005859,3339.7801733306,2001,34,0,0,0,0,0,0,0,34,0,0,0,0,0,0,0,0,0,0,0,0,0,0,0
BD,Bangladesh,country,South Asia,23.684994,90.356331,RS,Serbia,country,Europe and Central Asia,44.016521,21.005859,6595.06138301243,2001,1420,0,0,0,0,0,0,0,0,1420,0,0,0,0,0,0,0,0,0,0,0,0,0,0
BY,Belarus,country,Europe and Central Asia,53.709807,27.953389,RS,Serbia,country,Europe and Central Asia,44.016521,21.005859,1191.63119756659,2001,52,0,0,0,0,0,0,12,40,0,0,0,0,0,0,0,0,0,0,0,0,0,0,0
BE,Belgium,country,Europe and Central Asia,50.503887,4.469936,RS,Serbia,country,Europe and Central Asia,44.016521,21.005859,1438.34599769097,2001,4667,2178,126,10,0,0,0,24,18,173,4,374,69,45,165,26,0,1396,59,0,0,0,0,0
BT,Bhutan,country,South Asia,27.514162,90.433601,RS,Serbia,country,Europe and Central Asia,44.016521,21.005859,6341.53739602771,2001,51,0,0,0,0,0,0,0,0,0,0,0,51,0,0,0,0,0,0,0,0,0,0,0
BA,Bosnia & Herzegovina,country,Europe and Central Asia,43.915886,17.679076,RS,Serbia,country,Europe and Central Asia,44.016521,21.005859,266.76612027763,2001,7546,483,195,88,17,340,186,1085,196,53,6,299,104,2355,1,272,191,420,1446,0,0,0,0,0
BR,Brazil,country,Latin America and the Caribbean,-14.235004,-51.92528,RS,Serbia,country,Europe and Central Asia,44.016521,21.005859,9803.55343945678,2001,84931,18246,0,0,0,0,7430,1,1448,0,93,29025,28468,170,40,10,0,0,0,0,0,0,0,0
BG,Bulgaria,country,Europe and Central Asia,42.733883,25.48583,RS,Serbia,country,Europe and Central Asia,44.016521,21.005859,389.537077453946,2001,15382,2857,0,2236,20,8,15,259,146,121,0,7074,165,175,1734,516,5,0,56,0,0,0,0,0
BF,Burkina Faso,country,Sub-Saharan Africa,12.238333,-1.561593,RS,Serbia,country,Europe and Central Asia,44.016521,21.005859,4143.7317033853,2001,21,0,0,0,0,0,0,0,0,0,0,0,0,21,0,0,0,0,0,0,0,0,0,0
CM,Cameroon,country,Sub-Saharan Africa,7.369722,12.354722,RS,Serbia,country,Europe and Central Asia,44.016521,21.005859,4165.43621620507,2001,122,0,0,0,0,0,0,0,0,0,0,0,122,0,0,0,0,0,0,0,0,0,0,0
CA,Canada,country,North America,56.130366,-106.346771,RS,Serbia,country,Europe and Central Asia,44.016521,21.005859,7848.12742764706,2001,472,20,0,85,235,0,0,21,0,0,0,1,0,0,2,108,0,0,0,0,0,0,0,0
CL,Chile,country,Latin America and the Caribbean,-35.675147,-71.542969,RS,Serbia,country,Europe and Central Asia,44.016521,21.005859,12862.3909629852,2001,30,0,0,0,0,0,0,0,25,0,0,0,0,3,0,2,0,0,0,0,0,0,0,0
CN,China,country,East Asia and Pacific,35.86166,104.195397,RS,Serbia,country,Europe and Central Asia,44.016521,21.005859,6853.20210928996,2001,6068,2098,1,4,170,0,2488,1135,31,18,14,17,18,71,1,2,0,0,0,0,0,0,0,0
TW,Taiwan,country,East Asia and Pacific,23.69781,120.960515,RS,Serbia,country,Europe and Central Asia,44.016521,21.005859,8958.67276651051,2001,18,0,0,0,0,0,0,0,0,0,0,0,0,0,18,0,0,0,0,0,0,0,0,0
CO,Colombia,country,Latin America and the Caribbean,4.570868,-74.297333,RS,Serbia,country,Europe and Central Asia,44.016521,21.005859,10088.1529694605,2001,4243,0,0,0,0,0,0,0,4025,0,0,0,203,15,0,0,0,0,0,0,0,0,0,0
KM,Comoros,country,Sub-Saharan Africa,-11.875001,43.872219,RS,Serbia,country,Europe and Central Asia,44.016521,21.005859,6638.90965887226,2001,1,0,0,0,0,0,0,0,0,0,1,0,0,0,0,0,0,0,0,0,0,0,0,0
CG,"Congo, Rep.",country,Sub-Saharan Africa,-0.228021,15.827659,RS,Serbia,country,Europe and Central Asia,44.016521,21.005859,4952.05147768817,2001,38,0,0,0,0,0,0,0,0,0,0,0,38,0,0,0,0,0,0,0,0,0,0,0
CR,Costa Rica,country,Latin America and the Caribbean,9.748917,-83.753428,RS,Serbia,country,Europe and Central Asia,44.016521,21.005859,10420.1986230751,2001,69,0,0,0,0,0,0,3,54,0,0,0,12,0,0,0,0,0,0,0,0,0,0,0
CI,Ivory Coast,country,Sub-Saharan Africa,7.539989,-5.54708,RS,Serbia,country,Europe and Central Asia,44.016521,21.005859,4809.61628628367,2001,2145,0,0,0,0,0,2,0,28,0,0,0,2115,0,0,0,0,0,0,0,0,0,0,0
HR,Croatia,country,Europe and Central Asia,45.1,15.2,RS,Serbia,country,Europe and Central Asia,44.016521,21.005859,475.929465356036,2001,18921,9750,64,1310,0,0,59,86,668,0,2,587,322,3973,235,925,0,185,755,0,0,0,0,0
CU,Cuba,country,Latin America and the Caribbean,21.521757,-77.781167,RS,Serbia,country,Europe and Central Asia,44.016521,21.005859,9040.87874317642,2001,17,0,0,0,0,0,0,0,0,0,0,0,17,0,0,0,0,0,0,0,0,0,0,0
CY,Cyprus,country,Europe and Central Asia,35.126413,33.429859,RS,Serbia,country,Europe and Central Asia,44.016521,21.005859,1451.60371274688,2001,1400,0,0,208,0,0,0,0,1054,0,0,0,82,38,1,17,0,0,0,0,0,0,0,0
CZ,Czech Republic,country,Europe and Central Asia,49.817492,15.472962,RS,Serbia,country,Europe and Central Asia,44.016521,21.005859,770.233140648118,2001,22464,619,681,17560,4,0,1,32,16,270,0,270,8,1217,511,483,0,0,792,0,0,0,0,0
DK,Denmark,country,Europe and Central Asia,56.26392,9.501785,RS,Serbia,country,Europe and Central Asia,44.016521,21.005859,1586.65641821047,2001,1906,972,94,28,0,0,0,0,0,0,0,488,0,164,4,21,0,20,115,0,0,0,0,0
DM,Dominica,country,Latin America and the Caribbean,15.414999,-61.370976,RS,Serbia,country,Europe and Central Asia,44.016521,21.005859,8230.80075467108,2001,4,0,0,0,0,0,0,0,0,0,0,0,4,0,0,0,0,0,0,0,0,0,0,0
DO,Dominican Republic,country,Latin America and the Caribbean,18.735693,-70.162651,RS,Serbia,country,Europe and Central Asia,44.016521,21.005859,8673.83549169584,2001,4,0,0,0,0,0,4,0,0,0,0,0,0,0,0,0,0,0,0,0,0,0,0,0
EC,Ecuador,country,Latin America and the Caribbean,-1.831239,-78.183406,RS,Serbia,country,Europe and Central Asia,44.016521,21.005859,10895.2522100197,2001,61941,0,0,0,0,0,0,0,61855,0,0,0,86,0,0,0,0,0,0,0,0,0,0,0
EG,Egypt,country,Middle East and North Africa,26.820553,30.802498,RS,Serbia,country,Europe and Central Asia,44.016521,21.005859,2106.78502342594,2001,2453,2078,0,0,0,0,0,114,1,252,0,0,0,4,0,0,0,0,4,0,0,0,0,0
SV,El Salvador,country,Latin America and the Caribbean,13.794185,-88.89653,RS,Serbia,country,Europe and Central Asia,44.016521,21.005859,10478.810458763,2001,1,0,0,0,0,0,0,0,0,0,0,0,1,0,0,0,0,0,0,0,0,0,0,0
ET,Ethiopia,country,Sub-Saharan Africa,9.145,40.489673,RS,Serbia,country,Europe and Central Asia,44.016521,21.005859,4314.70888612198,2001,49,0,0,0,0,0,0,1,0,0,0,0,48,0,0,0,0,0,0,0,0,0,0,0
FI,Finland,country,Europe and Central Asia,61.92411,25.748151,RS,Serbia,country,Europe and Central Asia,44.016521,21.005859,2017.359390771,2001,117,0,0,0,0,0,0,0,0,0,0,17,0,72,0,28,0,0,0,0,0,0,0,0
FR,France,country,Europe and Central Asia,46.227638,2.213749,RS,Serbia,country,Europe and Central Asia,44.016521,21.005859,1492.78689795462,2001,23826,18530,761,1764,0,0,4,26,136,0,0,1350,109,294,24,525,0,192,111,0,0,0,0,0
GE,Georgia,country,Europe and Central Asia,42.315407,43.356892,RS,Serbia,country,Europe and Central Asia,44.016521,21.005859,1818.97892917685,2001,4,0,0,0,0,1,0,0,0,0,0,0,3,0,0,0,0,0,0,0,0,0,0,0
DE,Germany,country,Europe and Central Asia,51.165691,10.451526,RS,Serbia,country,Europe and Central Asia,44.016521,21.005859,1120.94031227413,2001,66208,5726,1658,43943,631,6,64,359,214,34,9,5603,1158,1855,933,540,5,1154,1991,330,0,0,0,0
GH,Ghana,country,Sub-Saharan Africa,7.946527,-1.023194,RS,Serbia,country,Europe and Central Asia,44.016521,21.005859,4548.60748905586,2001,2606,0,0,0,0,0,0,0,8,0,0,0,2598,0,0,0,0,0,0,0,0,0,0,0
GR,Greece,country,Europe and Central Asia,39.074208,21.824312,RS,Serbia,country,Europe and Central Asia,44.016521,21.005859,554.376630953841,2001,59370,722,24,916,15,39,346,2724,44496,2712,3,24,1385,3213,141,1107,0,1157,346,0,0,0,0,0
GD,Grenada,country,Latin America and the Caribbean,12.262776,-61.604171,RS,Serbia,country,Europe and Central Asia,44.016521,21.005859,8486.22501894756,2001,0,0,0,0,0,0,0,0,0,0,0,0,0,0,0,0,0,0,0,0,0,0,0,0
GT,Guatemala,country,Latin America and the Caribbean,15.783471,-90.230759,RS,Serbia,country,Europe and Central Asia,44.016521,21.005859,10412.2819781951,2001,12,0,0,0,0,0,4,0,0,0,0,0,8,0,0,0,0,0,0,0,0,0,0,0
GN,Guinea,country,Sub-Saharan Africa,9.945587,-9.696645,RS,Serbia,country,Europe and Central Asia,44.016521,21.005859,4808.17242867492,2001,217,0,0,0,0,0,0,0,2,0,0,0,215,0,0,0,0,0,0,0,0,0,0,0
HT,Haiti,country,Latin America and the Caribbean,18.971187,-72.285215,RS,Serbia,country,Europe and Central Asia,44.016521,21.005859,8819.93056241168,2001,6,0,0,0,0,0,0,0,0,0,0,0,0,0,0,6,0,0,0,0,0,0,0,0
HN,Honduras,country,Latin America and the Caribbean,15.199999,-86.241905,RS,Serbia,country,Europe and Central Asia,44.016521,21.005859,10169.1787245646,2001,30,0,0,0,0,0,0,0,0,0,0,0,30,0,0,0,0,0,0,0,0,0,0,0
HU,Hungary,country,Europe and Central Asia,47.162494,19.503304,RS,Serbia,country,Europe and Central Asia,44.016521,21.005859,369.231430921197,2001,193937,161647,281,4640,300,0,5360,469,2577,3,20,4652,626,4856,2499,692,499,2683,2632,0,0,0,0,0
IS,Iceland,country,Europe and Central Asia,64.963051,-19.020835,RS,Serbia,country,Europe and Central Asia,44.016521,21.005859,3382.76128781282,2001,15,0,0,0,0,0,0,0,15,0,0,0,0,0,0,0,0,0,0,0,0,0,0,0
IN,India,country,South Asia,20.593684,78.96288,RS,Serbia,country,Europe and Central Asia,44.016521,21.005859,5901.86579449093,2001,7256,10,0,0,0,0,771,85,0,0,226,0,6096,30,28,10,0,0,0,0,0,0,0,0
ID,Indonesia,country,East Asia and Pacific,-0.789275,113.921327,RS,Serbia,country,Europe and Central Asia,44.016521,21.005859,10313.1816095711,2001,2502,0,0,0,0,0,13,0,61,0,217,0,564,743,904,0,0,0,0,0,0,0,0,0
IR,Iran,country,Middle East and North Africa,32.427908,53.688046,RS,Serbia,country,Europe and Central Asia,44.016521,21.005859,3109.24350631796,2001,258,0,0,0,0,47,0,0,211,0,0,0,0,0,0,0,0,0,0,0,0,0,0,0
IE,Ireland,country,Europe and Central Asia,53.41291,-8.24389,RS,Serbia,country,Europe and Central Asia,44.016521,21.005859,2366.90527439305,2001,875,0,0,0,0,0,0,0,0,0,0,1,0,832,0,21,0,21,0,0,0,0,0,0
IL,Israel,country,Middle East and North Africa,31.046051,34.851612,RS,Serbia,country,Europe and Central Asia,44.016521,21.005859,1886.34241583508,2001,675,0,0,0,0,0,0,0,176,235,0,0,0,264,0,0,0,0,0,0,0,0,0,0
IT,Italy,country,Europe and Central Asia,41.87194,12.56738,RS,Serbia,country,Europe and Central Asia,44.016521,21.005859,727.486840698066,2001,59280,13143,2314,20611,149,226,19,3543,5364,139,1,627,604,9304,988,1145,3,938,165,0,0,0,0,0
JM,Jamaica,country,Latin America and the Caribbean,18.109581,-77.297508,RS,Serbia,country,Europe and Central Asia,44.016521,21.005859,9269.00502517157,2001,0,0,0,0,0,0,0,0,0,0,0,0,0,0,0,0,0,0,0,0,0,0,0,0
JP,Japan,country,East Asia and Pacific,36.204824,138.252924,RS,Serbia,country,Europe and Central Asia,44.016521,21.005859,9092.13740292657,2001,11,0,0,0,0,0,4,0,0,0,0,0,0,3,4,0,0,0,0,0,0,0,0,0
JO,Jordan,country,Middle East and North Africa,30.585164,36.238414,RS,Serbia,country,Europe and Central Asia,44.016521,21.005859,2007.00569440061,2001,14,0,0,0,0,0,0,14,0,0,0,0,0,0,0,0,0,0,0,0,0,0,0,0
KZ,Kazakhstan,country,Europe and Central Asia,48.019573,66.923684,RS,Serbia,country,Europe and Central Asia,44.016521,21.005859,3524.32158022966,2001,614,0,0,0,0,0,0,0,0,614,0,0,0,0,0,0,0,0,0,0,0,0,0,0
KE,Kenya,country,Sub-Saharan Africa,-0.023559,37.906193,RS,Serbia,country,Europe and Central Asia,44.016521,21.005859,5181.27112728806,2001,0,0,0,0,0,0,0,0,0,0,0,0,0,0,0,0,0,0,0,0,0,0,0,0
KG,Kyrgyz Rep.,country,Europe and Central Asia,41.20438,74.766098,RS,Serbia,country,Europe and Central Asia,44.016521,21.005859,4336.91923931682,2001,64,0,0,0,0,0,0,0,0,64,0,0,0,0,0,0,0,0,0,0,0,0,0,0
LV,Latvia,country,Europe and Central Asia,56.879635,24.603189,RS,Serbia,country,Europe and Central Asia,44.016521,21.005859,1453.93045976415,2001,51,0,0,0,0,0,0,0,0,0,0,0,0,51,0,0,0,0,0,0,0,0,0,0
LT,Lithuania,country,Europe and Central Asia,55.169438,23.881275,RS,Serbia,country,Europe and Central Asia,44.016521,21.005859,1258.4749134443,2001,104,0,0,0,0,0,0,86,0,0,0,0,0,18,0,0,0,0,0,0,0,0,0,0
LU,Luxembourg,country,Europe and Central Asia,49.815273,6.129583,RS,Serbia,country,Europe and Central Asia,44.016521,21.005859,1299.06721262005,2001,157,0,157,0,0,0,0,0,0,0,0,0,0,0,0,0,0,0,0,0,0,0,0,0
MG,Madagascar,country,Sub-Saharan Africa,-18.766947,46.869107,RS,Serbia,country,Europe and Central Asia,44.016521,21.005859,7469.33366732548,2001,1,0,0,0,0,0,0,0,0,0,1,0,0,0,0,0,0,0,0,0,0,0,0,0
MY,Malaysia,country,East Asia and Pacific,4.210484,101.975766,RS,Serbia,country,Europe and Central Asia,44.016521,21.005859,8970.68189806037,2001,5902,0,0,0,0,0,0,0,0,0,17,0,131,3857,1897,0,0,0,0,0,0,0,0,0
ML,Mali,country,Sub-Saharan Africa,17.570692,-3.996166,RS,Serbia,country,Europe and Central Asia,44.016521,21.005859,3761.14424961962,2001,68,0,43,0,0,0,0,0,0,0,0,0,0,0,25,0,0,0,0,0,0,0,0,0
MT,Malta,country,Middle East and North Africa,35.937496,14.375416,RS,Serbia,country,Europe and Central Asia,44.016521,21.005859,1061.57823059704,2001,28,0,0,0,0,0,0,0,20,0,0,0,0,8,0,0,0,0,0,0,0,0,0,0
MX,Mexico,country,Latin America and the Caribbean,23.634501,-102.552784,RS,Serbia,country,Europe and Central Asia,44.016521,21.005859,10565.49754478,2001,314,0,0,0,0,0,0,0,0,0,6,0,215,1,0,92,0,0,0,0,0,0,0,0
MA,Morocco,country,Middle East and North Africa,31.791702,-7.09262,RS,Serbia,country,Europe and Central Asia,44.016521,21.005859,2798.4224343844,2001,10,0,0,0,0,0,0,10,0,0,0,0,0,0,0,0,0,0,0,0,0,0,0,0
MM,Myanmar,country,East Asia and Pacific,21.913965,95.956223,RS,Serbia,country,Europe and Central Asia,44.016521,21.005859,7165.54823040459,2001,10,10,0,0,0,0,0,0,0,0,0,0,0,0,0,0,0,0,0,0,0,0,0,0
NA,Namibia,country,Sub-Saharan Africa,-22.95764,18.49041,RS,Serbia,country,Europe and Central Asia,44.016521,21.005859,7459.95078257404,2001,0,0,0,0,0,0,0,0,0,0,0,0,0,0,0,0,0,0,0,0,0,0,0,0
NL,Netherlands,country,Europe and Central Asia,52.132633,5.291266,RS,Serbia,country,Europe and Central Asia,44.016521,21.005859,1472.05323585752,2001,29936,929,6295,105,235,0,8,6306,142,0,15,5531,783,2362,1066,2042,16,3971,146,0,0,0,0,0
NZ,New Zealand,country,East Asia and Pacific,-40.900557,174.885971,RS,Serbia,country,Europe and Central Asia,44.016521,21.005859,17873.8391139107,2001,98,0,0,0,21,0,0,0,2,75,0,0,0,0,0,0,0,0,0,0,0,0,0,0
NI,Nicaragua,country,Latin America and the Caribbean,12.865416,-85.207229,RS,Serbia,country,Europe and Central Asia,44.016521,21.005859,10280.5261589204,2001,55,0,0,0,0,0,0,0,0,0,0,0,55,0,0,0,0,0,0,0,0,0,0,0
NG,Nigeria,country,Sub-Saharan Africa,9.081999,8.675277,RS,Serbia,country,Europe and Central Asia,44.016521,21.005859,4067.78275872662,2001,674,0,0,0,0,0,0,0,0,0,2,0,466,206,0,0,0,0,0,0,0,0,0,0
PK,Pakistan,country,South Asia,30.375321,69.345116,RS,Serbia,country,Europe and Central Asia,44.016521,21.005859,4475.25180701753,2001,37,21,0,0,0,0,0,0,0,16,0,0,0,0,0,0,0,0,0,0,0,0,0,0
PA,Panama,country,Latin America and the Caribbean,8.537981,-80.782127,RS,Serbia,country,Europe and Central Asia,44.016521,21.005859,10287.4947752965,2001,94,0,0,0,0,0,0,71,0,0,0,0,23,0,0,0,0,0,0,0,0,0,0,0
PG,Papua New Guinea,country,East Asia and Pacific,-6.314993,143.95555,RS,Serbia,country,Europe and Central Asia,44.016521,21.005859,13104.8806291999,2001,19,0,0,0,0,0,0,0,19,0,0,0,0,0,0,0,0,0,0,0,0,0,0,0
PY,Paraguay,country,Latin America and the Caribbean,-23.442503,-58.443832,RS,Serbia,country,Europe and Central Asia,44.016521,21.005859,11015.4495166246,2001,14498,14498,0,0,0,0,0,0,0,0,0,0,0,0,0,0,0,0,0,0,0,0,0,0
PH,Philippines,country,East Asia and Pacific,12.879721,121.774017,RS,Serbia,country,Europe and Central Asia,44.016521,21.005859,9866.24527535925,2001,185,0,0,0,0,0,0,0,49,0,0,0,0,45,91,0,0,0,0,0,0,0,0,0
PL,Poland,country,Europe and Central Asia,51.919438,19.145136,RS,Serbia,country,Europe and Central Asia,44.016521,21.005859,890.532105326705,2001,8029,191,1266,231,1049,0,0,3695,199,24,3,1,1197,152,0,21,0,0,0,0,0,0,0,0
PT,Portugal,country,Europe and Central Asia,39.399872,-8.224454,RS,Serbia,country,Europe and Central Asia,44.016521,21.005859,2469.20359689191,2001,3811,0,0,3793,0,0,0,0,0,5,0,0,0,1,0,12,0,0,0,0,0,0,0,0
KR,"Korea, Rep.",country,East Asia and Pacific,35.907757,127.766922,RS,Serbia,country,Europe and Central Asia,44.016521,21.005859,8475.85993524956,2001,5,0,0,0,0,0,0,5,0,0,0,0,0,0,0,0,0,0,0,0,0,0,0,0
MD,Moldova,country,Europe and Central Asia,47.411631,28.369885,RS,Serbia,country,Europe and Central Asia,44.016521,21.005859,685.448209179316,2001,100,0,0,0,0,0,0,0,0,0,0,0,0,100,0,0,0,0,0,0,0,0,0,0
RO,Romania,country,Europe and Central Asia,45.943161,24.96676,RS,Serbia,country,Europe and Central Asia,44.016521,21.005859,378.442263028278,2001,11602,10132,21,217,100,54,393,8,0,49,0,172,13,22,274,134,0,13,0,0,0,0,0,0
RU,Russian Federation,country,Europe and Central Asia,61.52401,105.318756,RS,Serbia,country,Europe and Central Asia,44.016521,21.005859,5549.39556496858,2001,1859,112,0,27,0,0,20,210,6,503,0,0,0,901,0,80,0,0,0,0,0,0,0,0
SA,Saudi Arabia,country,Middle East and North Africa,23.885942,45.079162,RS,Serbia,country,Europe and Central Asia,44.016521,21.005859,3133.58178690718,2001,1,0,0,0,0,0,0,0,1,0,0,0,0,0,0,0,0,0,0,0,0,0,0,0
