sourceCode,sourceName,sourceGrouping,sourceRegion,sourceLat,sourceLong,destCode,destName,destGrouping,destRegion,destLat,destLong,year,totalTons,cereals,roots,sugarCrops,pulses,nuts,oilCrops,vegetables,fruits,fibers,spices,fodderCrops,coffeeTea,tobaccoRubber,oilsFats,beverages,livestock,animalMeats,animalProducts,animalHides,nimalOther,pesticides,fertilizers,machinery
DZ,Algeria,country,Middle East and North Africa,28.033886,1.659626,NL,Netherlands,country,Europe and Central Asia,52.132633,5.291266,1986,123,0,0,0,0,0,0,0,39,0,0,0,0,0,0,84,0,0,0,0,0,0,0,0
AR,Argentina,country,Latin America and the Caribbean,-38.416097,-63.616672,NL,Netherlands,country,Europe and Central Asia,52.132633,5.291266,1986,1900269,93215,0,715,528,0,154766,313,39020,3627,0,1423102,0,33,184116,0,0,832,0,2,0,0,0,0
AU,Australia,country,East Asia and Pacific,-25.274398,133.775136,NL,Netherlands,country,Europe and Central Asia,52.132633,5.291266,1986,102291,1990,0,0,5453,3,2936,631,5679,9736,1,0,10,60905,8899,150,0,4367,1252,279,0,0,0,0
AT,Austria,country,Europe and Central Asia,47.516231,14.550072,NL,Netherlands,country,Europe and Central Asia,52.132633,5.291266,1986,37089,833,0,1036,266,0,27,1046,55,38,5,20544,15,7477,2036,56,0,602,993,284,1776,0,0,0
BS,The Bahamas,country,Latin America and the Caribbean,25.03428,-77.39628,NL,Netherlands,country,Europe and Central Asia,52.132633,5.291266,1986,6,0,0,0,0,0,0,0,0,0,0,0,0,0,0,6,0,0,0,0,0,0,0,0
BD,Bangladesh,country,South Asia,23.684994,90.356331,NL,Netherlands,country,Europe and Central Asia,52.132633,5.291266,1986,302,0,0,0,0,0,0,0,0,0,0,0,209,62,0,0,0,31,0,0,0,0,0,0
BB,Barbados,country,Latin America and the Caribbean,13.193887,-59.543198,NL,Netherlands,country,Europe and Central Asia,52.132633,5.291266,1986,63,0,12,0,0,0,0,24,6,0,4,0,0,17,0,0,0,0,0,0,0,0,0,0
BE,Belgium,country,Europe and Central Asia,50.503887,4.469936,NL,Netherlands,country,Europe and Central Asia,52.132633,5.291266,1986,3164112,696316,334274,117702,10369,1504,6218,121351,139733,3661,1435,756946,27087,111179,117974,328045,7017,69134,305932,14413,839,0,0,0
BZ,Belize,country,Latin America and the Caribbean,17.189877,-88.49765,NL,Netherlands,country,Europe and Central Asia,52.132633,5.291266,1986,37,1,0,0,0,0,0,0,0,0,0,0,0,0,0,36,0,0,0,0,0,0,0,0
BR,Brazil,country,Latin America and the Caribbean,-14.235004,-51.92528,NL,Netherlands,country,Europe and Central Asia,52.132633,5.291266,1986,3247045,13245,10,69114,0,1523,219250,2871,11099,35,2241,2834104,21320,21076,38227,21,0,12868,41,0,0,0,0,0
BG,Bulgaria,country,Europe and Central Asia,42.733883,25.48583,NL,Netherlands,country,Europe and Central Asia,52.132633,5.291266,1986,2405,0,0,518,0,0,0,1494,390,0,0,0,0,0,0,3,0,0,0,0,0,0,0,0
CM,Cameroon,country,Sub-Saharan Africa,7.369722,12.354722,NL,Netherlands,country,Europe and Central Asia,52.132633,5.291266,1986,68693,0,0,0,0,0,0,0,1240,0,0,0,61453,0,6000,0,0,0,0,0,0,0,0,0
CA,Canada,country,North America,56.130366,-106.346771,NL,Netherlands,country,Europe and Central Asia,52.132633,5.291266,1986,431211,112713,25,326,33356,79,171277,272,1368,0,0,33650,172,2501,71852,133,0,2797,36,654,0,0,0,0
CL,Chile,country,Latin America and the Caribbean,-35.675147,-71.542969,NL,Netherlands,country,Europe and Central Asia,52.132633,5.291266,1986,127412,3,0,0,1416,187,0,1708,119736,3900,0,0,0,31,0,2,0,316,20,93,0,0,0,0
HK,Hong Kong,country,East Asia and Pacific,22.396428,114.109497,NL,Netherlands,country,Europe and Central Asia,52.132633,5.291266,1986,7199,996,5,29,673,168,1607,1383,320,410,290,0,556,493,65,43,0,147,14,0,0,0,0,0
TW,Taiwan,country,East Asia and Pacific,23.69781,120.960515,NL,Netherlands,country,Europe and Central Asia,52.132633,5.291266,1986,10224,458,0,17,5,0,0,8271,793,45,74,0,14,341,150,10,0,27,19,0,0,0,0,0
CO,Colombia,country,Latin America and the Caribbean,4.570868,-74.297333,NL,Netherlands,country,Europe and Central Asia,52.132633,5.291266,1986,50321,0,0,26,0,0,18,15,1446,0,0,0,48347,469,0,0,0,0,0,0,0,0,0,0
CR,Costa Rica,country,Latin America and the Caribbean,9.748917,-83.753428,NL,Netherlands,country,Europe and Central Asia,52.132633,5.291266,1986,13507,0,577,0,0,0,263,39,615,0,55,0,4807,7151,0,0,0,0,0,0,0,0,0,0
CU,Cuba,country,Latin America and the Caribbean,21.521757,-77.781167,NL,Netherlands,country,Europe and Central Asia,52.132633,5.291266,1986,2625,0,0,0,0,0,0,0,0,0,0,0,0,2625,0,0,0,0,0,0,0,0,0,0
CY,Cyprus,country,Europe and Central Asia,35.126413,33.429859,NL,Netherlands,country,Europe and Central Asia,52.132633,5.291266,1986,2318,0,0,0,0,0,0,4,2147,0,0,0,0,47,0,120,0,0,0,0,0,0,0,0
DK,Denmark,country,Europe and Central Asia,56.26392,9.501785,NL,Netherlands,country,Europe and Central Asia,52.132633,5.291266,1986,278641,120277,20,1110,29077,1,62920,86,446,117,1012,26466,1226,15614,9757,997,3,792,8632,0,91,0,0,0
EG,Egypt,country,Middle East and North Africa,26.820553,30.802498,NL,Netherlands,country,Europe and Central Asia,52.132633,5.291266,1986,20323,0,2206,5960,0,0,427,10267,319,0,20,0,0,1124,0,0,0,0,0,0,0,0,0,0
FJ,Fiji,country,East Asia and Pacific,-16.578193,179.414413,NL,Netherlands,country,Europe and Central Asia,52.132633,5.291266,1986,35,0,0,0,0,0,0,0,35,0,0,0,0,0,0,0,0,0,0,0,0,0,0,0
FI,Finland,country,Europe and Central Asia,61.92411,25.748151,NL,Netherlands,country,Europe and Central Asia,52.132633,5.291266,1986,63728,50796,0,75,0,0,0,4,207,0,12,4,211,12,9964,12,0,31,2383,17,0,0,0,0
FR,France,country,Europe and Central Asia,46.227638,2.213749,NL,Netherlands,country,Europe and Central Asia,52.132633,5.291266,1986,2612916,1087282,22727,26542,246372,480,309771,55621,75197,726,338,402666,7636,31026,42166,113188,755,10023,177325,3802,28,0,0,0
GR,Greece,country,Europe and Central Asia,39.074208,21.824312,NL,Netherlands,country,Europe and Central Asia,52.132633,5.291266,1986,319433,145119,0,10527,0,2,31569,20285,98343,855,0,3017,46,3487,19,5624,0,522,18,0,0,0,0,0
GP,Guadeloupe,country,Latin America and the Caribbean,16.995971,-62.067641,NL,Netherlands,country,Europe and Central Asia,52.132633,5.291266,1986,53,0,0,0,0,0,0,0,0,0,0,0,0,0,0,0,0,0,0,53,0,0,0,0
GT,Guatemala,country,Latin America and the Caribbean,15.783471,-90.230759,NL,Netherlands,country,Europe and Central Asia,52.132633,5.291266,1986,9037,0,0,200,0,0,1142,42,583,0,122,0,6942,6,0,0,0,0,0,0,0,0,0,0
HN,Honduras,country,Latin America and the Caribbean,15.199999,-86.241905,NL,Netherlands,country,Europe and Central Asia,52.132633,5.291266,1986,15157,0,0,19,0,0,54,0,1066,0,0,0,3855,1187,8976,0,0,0,0,0,0,0,0,0
HU,Hungary,country,Europe and Central Asia,47.162494,19.503304,NL,Netherlands,country,Europe and Central Asia,52.132633,5.291266,1986,107004,262,0,42756,7499,0,735,7528,3932,0,621,0,31,26,36260,188,0,5187,1979,0,0,0,0,0
IS,Iceland,country,Europe and Central Asia,64.963051,-19.020835,NL,Netherlands,country,Europe and Central Asia,52.132633,5.291266,1986,575,0,0,0,0,0,0,0,0,0,0,46,0,0,0,0,0,14,515,0,0,0,0,0
IN,India,country,South Asia,20.593684,78.96288,NL,Netherlands,country,Europe and Central Asia,52.132633,5.291266,1986,60132,462,0,0,0,6612,1083,907,405,1645,930,40681,3547,2220,1442,0,0,198,0,0,0,0,0,0
ID,Indonesia,country,East Asia and Pacific,-0.789275,113.921327,NL,Netherlands,country,Europe and Central Asia,52.132633,5.291266,1986,839077,2067,134678,184190,0,0,754,792,1082,0,9011,175605,68437,22046,238661,350,0,352,0,1052,0,0,0,0
IE,Ireland,country,Europe and Central Asia,53.41291,-8.24389,NL,Netherlands,country,Europe and Central Asia,52.132633,5.291266,1986,118749,6644,28,343,8,0,0,5,317,14,0,1499,47,6137,3850,1875,0,2391,89980,5611,0,0,0,0
IL,Israel,country,Middle East and North Africa,31.046051,34.851612,NL,Netherlands,country,Europe and Central Asia,52.132633,5.291266,1986,67310,0,5819,0,0,7,0,4903,54988,76,23,0,11,239,1002,66,0,59,117,0,0,0,0,0
IT,Italy,country,Europe and Central Asia,41.87194,12.56738,NL,Netherlands,country,Europe and Central Asia,52.132633,5.291266,1986,300274,92626,12094,638,101,135,15,54166,64241,120,32,15030,1686,22493,15033,15486,2,2362,3734,282,0,0,0,0
JM,Jamaica,country,Latin America and the Caribbean,18.109581,-77.297508,NL,Netherlands,country,Europe and Central Asia,52.132633,5.291266,1986,1866,0,3,0,0,0,0,0,872,0,774,0,0,134,0,83,0,0,0,0,0,0,0,0
JP,Japan,country,East Asia and Pacific,36.204824,138.252924,NL,Netherlands,country,Europe and Central Asia,52.132633,5.291266,1986,4037321,965,0,0,1,0,292,7,931,0,1,24,2,4034834,109,155,0,0,0,0,0,0,0,0
JO,Jordan,country,Middle East and North Africa,30.585164,36.238414,NL,Netherlands,country,Europe and Central Asia,52.132633,5.291266,1986,3621,0,0,0,0,0,0,5,3400,0,0,0,0,0,0,0,0,0,216,0,0,0,0,0
KE,Kenya,country,Sub-Saharan Africa,-0.023559,37.906193,NL,Netherlands,country,Europe and Central Asia,52.132633,5.291266,1986,37663,0,0,1,0,1583,925,542,6272,242,0,3600,23207,924,0,0,0,14,5,348,0,0,0,0
KI,Kiribati,country,East Asia and Pacific,-3.370417,-168.734039,NL,Netherlands,country,Europe and Central Asia,52.132633,5.291266,1986,1480,0,0,0,0,0,1480,0,0,0,0,0,0,0,0,0,0,0,0,0,0,0,0,0
KW,Kuwait,country,Middle East and North Africa,29.31166,47.481766,NL,Netherlands,country,Europe and Central Asia,52.132633,5.291266,1986,496,0,0,0,0,0,0,0,240,0,0,132,0,0,0,0,0,0,124,0,0,0,0,0
MW,Malawi,country,Sub-Saharan Africa,-13.254308,34.301525,NL,Netherlands,country,Europe and Central Asia,52.132633,5.291266,1986,7214,0,0,0,0,0,145,0,0,0,33,0,229,6807,0,0,0,0,0,0,0,0,0,0
MY,Malaysia,country,East Asia and Pacific,4.210484,101.975766,NL,Netherlands,country,Europe and Central Asia,52.132633,5.291266,1986,961860,83,38,5269,0,15,6121,117,1454,0,120,468505,41347,17768,420737,0,0,0,14,0,272,0,0,0
MX,Mexico,country,Latin America and the Caribbean,23.634501,-102.552784,NL,Netherlands,country,Europe and Central Asia,52.132633,5.291266,1986,52185,0,0,46337,36,0,573,1085,1145,329,290,0,1344,741,0,298,0,0,7,0,0,0,0,0
MA,Morocco,country,Middle East and North Africa,31.791702,-7.09262,NL,Netherlands,country,Europe and Central Asia,52.132633,5.291266,1986,51446,0,201,9150,229,50,277,3430,35012,0,2636,0,0,416,45,0,0,0,0,0,0,0,0,0
NZ,New Zealand,country,East Asia and Pacific,-40.900557,174.885971,NL,Netherlands,country,Europe and Central Asia,52.132633,5.291266,1986,46555,4,0,324,1717,0,0,522,3862,18312,0,103,14,0,14657,3,0,4206,2767,64,0,0,0,0
NG,Nigeria,country,Sub-Saharan Africa,9.081999,8.675277,NL,Netherlands,country,Europe and Central Asia,52.132633,5.291266,1986,88017,0,0,0,0,0,12237,0,0,0,0,10501,58707,19,6501,37,0,0,0,15,0,0,0,0
NO,Norway,country,Europe and Central Asia,60.472024,8.468946,NL,Netherlands,country,Europe and Central Asia,52.132633,5.291266,1986,1206,45,0,0,1,2,0,38,48,0,0,0,23,169,261,481,0,38,100,0,0,0,0,0
PA,Panama,country,Latin America and the Caribbean,8.537981,-80.782127,NL,Netherlands,country,Europe and Central Asia,52.132633,5.291266,1986,426,0,0,0,2,0,0,50,6,0,0,0,359,9,0,0,0,0,0,0,0,0,0,0
PG,Papua New Guinea,country,East Asia and Pacific,-6.314993,143.95555,NL,Netherlands,country,Europe and Central Asia,52.132633,5.291266,1986,66327,0,0,0,0,0,14217,0,0,0,22,19575,4392,288,27833,0,0,0,0,0,0,0,0,0
PY,Paraguay,country,Latin America and the Caribbean,-23.442503,-58.443832,NL,Netherlands,country,Europe and Central Asia,52.132633,5.291266,1986,264199,0,0,0,0,0,162122,0,0,40,0,91830,0,293,9690,0,0,224,0,0,0,0,0,0
PE,Peru,country,Latin America and the Caribbean,-9.189967,-75.015152,NL,Netherlands,country,Europe and Central Asia,52.132633,5.291266,1986,8232,0,0,0,0,0,0,1898,3130,200,15,0,1344,120,1525,0,0,0,0,0,0,0,0,0
PH,Philippines,country,East Asia and Pacific,12.879721,121.774017,NL,Netherlands,country,Europe and Central Asia,52.132633,5.291266,1986,841686,11,7914,0,0,0,16848,0,13247,137,4,342735,916,761,457969,0,0,0,48,0,1096,0,0,0
PL,Poland,country,Europe and Central Asia,51.919438,19.145136,NL,Netherlands,country,Europe and Central Asia,52.132633,5.291266,1986,119858,0,0,723,25,0,69012,5128,15804,0,0,0,0,20196,0,55,0,715,8200,0,0,0,0,0
PT,Portugal,country,Europe and Central Asia,39.399872,-8.224454,NL,Netherlands,country,Europe and Central Asia,52.132633,5.291266,1986,20351,3,109,0,6,1,2,6730,1839,35,0,0,9,890,2452,8230,0,0,45,0,0,0,0,0
KR,"Korea, Rep.",country,East Asia and Pacific,35.907757,127.766922,NL,Netherlands,country,Europe and Central Asia,52.132633,5.291266,1986,2493,54,0,5,0,0,43,24,753,0,2,0,1,1600,0,11,0,0,0,0,0,0,0,0
RE,Reunion,country,Sub-Saharan Africa,-21.115141,55.536384,NL,Netherlands,country,Europe and Central Asia,52.132633,5.291266,1986,257,0,0,256,0,0,0,0,0,0,0,0,0,1,0,0,0,0,0,0,0,0,0,0
SG,Singapore,country,East Asia and Pacific,1.352083,103.819836,NL,Netherlands,country,Europe and Central Asia,52.132633,5.291266,1986,40017,466,0,1,5,0,3178,14,1831,0,2624,3579,25141,316,2534,265,0,39,24,0,0,0,0,0
SB,Solomon Islands,country,East Asia and Pacific,-9.64571,160.156194,NL,Netherlands,country,Europe and Central Asia,52.132633,5.291266,1986,6729,0,0,0,0,0,6404,0,0,0,0,0,325,0,0,0,0,0,0,0,0,0,0,0
ES,Spain,country,Europe and Central Asia,40.463667,-3.74922,NL,Netherlands,country,Europe and Central Asia,52.132633,5.291266,1986,594339,8582,725,241,4,1423,702,221511,252434,60,819,52847,649,7776,1232,44382,0,753,112,87,0,0,0,0
LK,Sri Lanka,country,South Asia,7.873054,80.771797,NL,Netherlands,country,Europe and Central Asia,52.132633,5.291266,1986,51933,0,12,0,0,10,8542,18,326,0,205,23755,3826,2135,13104,0,0,0,0,0,0,0,0,0
SE,Sweden,country,Europe and Central Asia,60.128161,18.643501,NL,Netherlands,country,Europe and Central Asia,52.132633,5.291266,1986,49342,29496,88,843,6,0,7042,28,1361,1,0,69,257,516,8735,159,0,471,167,103,0,0,0,0
CH,Switzerland,country,Europe and Central Asia,46.818188,8.227512,NL,Netherlands,country,Europe and Central Asia,52.132633,5.291266,1986,10942,58,0,188,60,0,8,8,445,743,0,679,395,3165,2441,489,0,96,670,184,1313,0,0,0
SY,Syrian Arab Rep.,country,Middle East and North Africa,34.802075,38.996815,NL,Netherlands,country,Europe and Central Asia,52.132633,5.291266,1986,100,0,0,0,0,0,0,0,0,100,0,0,0,0,0,0,0,0,0,0,0,0,0,0
TH,Thailand,country,East Asia and Pacific,15.870032,100.992541,NL,Netherlands,country,Europe and Central Asia,52.132633,5.291266,1986,4516800,124077,4256157,90902,2029,0,13042,1087,9311,5,384,13418,300,3049,2935,0,0,46,18,40,0,0,0,0
TT,Trinidad and Tobago,country,Latin America and the Caribbean,10.691803,-61.222503,NL,Netherlands,country,Europe and Central Asia,52.132633,5.291266,1986,674,0,0,0,0,1,0,9,1,0,27,0,425,119,0,2,0,0,90,0,0,0,0,0
TR,Turkey,country,Europe and Central Asia,38.963745,35.243322,NL,Netherlands,country,Europe and Central Asia,52.132633,5.291266,1986,56377,507,653,193,1787,6203,416,2609,16680,3611,1427,37,381,9640,11944,167,0,0,122,0,0,0,0,0
GB,United Kingdom,country,Europe and Central Asia,55.378051,-3.435973,NL,Netherlands,country,Europe and Central Asia,52.132633,5.291266,1986,993606,544386,1103,11328,154361,480,57304,11342,7820,3214,505,15739,6659,27350,6420,15789,121,10345,107602,11839,20,0,0,0
US,USA,country,North America,37.09024,-95.712891,NL,Netherlands,country,Europe and Central Asia,52.132633,5.291266,1986,10617652,598792,376,184807,43381,13594,3523572,3210,55005,635,492,6026540,1875,29911,109790,2363,405,17417,486,5406,0,0,0,0
UY,Uruguay,country,Latin America and the Caribbean,-32.522779,-55.765835,NL,Netherlands,country,Europe and Central Asia,52.132633,5.291266,1986,103560,7431,0,27,0,0,13273,0,53079,2050,0,21973,0,163,1056,0,0,4466,39,3,0,0,0,0
RU,Russian Federation,country,Europe and Central Asia,61.52401,105.318756,NL,Netherlands,country,Europe and Central Asia,52.132633,5.291266,1986,1215,0,0,0,0,0,0,0,0,815,0,0,0,0,0,400,0,0,0,0,0,0,0,0
VE,Venezuela,country,Latin America and the Caribbean,6.42375,-66.58973,NL,Netherlands,country,Europe and Central Asia,52.132633,5.291266,1986,1265,0,0,0,0,0,0,13,576,0,0,0,645,16,0,15,0,0,0,0,0,0,0,0
BA,Bosnia & Herzegovina,country,Europe and Central Asia,43.915886,17.679076,NL,Netherlands,country,Europe and Central Asia,52.132633,5.291266,1986,27252,330,17,10,0,0,759,6422,11925,92,50,4128,0,2679,0,628,0,212,0,0,0,0,0,0
ZW,Zimbabwe,country,Sub-Saharan Africa,-19.015438,29.154857,NL,Netherlands,country,Europe and Central Asia,52.132633,5.291266,1986,12815,0,0,0,119,0,0,0,139,525,0,0,1964,10049,0,0,0,0,0,19,0,0,0,0
DZ,Algeria,country,Middle East and North Africa,28.033886,1.659626,NL,Netherlands,country,Europe and Central Asia,52.132633,5.291266,1987,70,0,0,0,0,0,0,0,0,0,0,0,0,0,0,70,0,0,0,0,0,0,0,0
AR,Argentina,country,Latin America and the Caribbean,-38.416097,-63.616672,NL,Netherlands,country,Europe and Central Asia,52.132633,5.291266,1987,2720379,51937,0,1785,22219,0,509496,1130,134314,5434,0,1843488,4419,2601,126605,29,0,16922,0,0,0,0,0,0
AU,Australia,country,East Asia and Pacific,-25.274398,133.775136,NL,Netherlands,country,Europe and Central Asia,52.132633,5.291266,1987,185745,2069,0,106,141780,0,2815,4295,7873,8721,0,0,0,48,12316,1004,0,4210,380,128,0,0,0,0
AT,Austria,country,Europe and Central Asia,47.516231,14.550072,NL,Netherlands,country,Europe and Central Asia,52.132633,5.291266,1987,41523,1336,20,1077,335,0,123,2978,287,114,15,24449,1176,4929,977,41,0,585,172,198,2711,0,0,0
BB,Barbados,country,Latin America and the Caribbean,13.193887,-59.543198,NL,Netherlands,country,Europe and Central Asia,52.132633,5.291266,1987,23,0,2,0,0,0,0,13,2,0,6,0,0,0,0,0,0,0,0,0,0,0,0,0
BE,Belgium,country,Europe and Central Asia,50.503887,4.469936,NL,Netherlands,country,Europe and Central Asia,52.132633,5.291266,1987,3571249,920507,298175,262669,21744,1311,7887,117771,146791,4256,1312,614851,28881,120793,145344,350079,9318,73011,438096,15716,2055,0,0,0
BR,Brazil,country,Latin America and the Caribbean,-14.235004,-51.92528,NL,Netherlands,country,Europe and Central Asia,52.132633,5.291266,1987,3963544,6505,11,7678,3363,1203,958412,1847,292846,154,3082,2540392,39364,19181,78459,11,0,11032,4,0,0,0,0,0
BG,Bulgaria,country,Europe and Central Asia,42.733883,25.48583,NL,Netherlands,country,Europe and Central Asia,52.132633,5.291266,1987,5087,0,0,716,0,0,0,1828,2366,0,0,0,0,35,0,142,0,0,0,0,0,0,0,0
CM,Cameroon,country,Sub-Saharan Africa,7.369722,12.354722,NL,Netherlands,country,Europe and Central Asia,52.132633,5.291266,1987,67040,0,0,0,0,0,0,0,1530,0,5,0,60349,0,5156,0,0,0,0,0,0,0,0,0
CA,Canada,country,North America,56.130366,-106.346771,NL,Netherlands,country,Europe and Central Asia,52.132633,5.291266,1987,559768,107525,16,505,125881,424,210957,204,2558,0,22,58207,78,1452,49214,160,0,2190,119,256,0,0,0,0
CL,Chile,country,Latin America and the Caribbean,-35.675147,-71.542969,NL,Netherlands,country,Europe and Central Asia,52.132633,5.291266,1987,124593,7,0,0,615,225,0,3887,116559,2649,0,0,0,53,0,16,0,514,5,63,0,0,0,0
HK,Hong Kong,country,East Asia and Pacific,22.396428,114.109497,NL,Netherlands,country,Europe and Central Asia,52.132633,5.291266,1987,8271,909,9,35,723,140,1406,2149,392,16,17,33,65,732,88,64,0,307,116,1070,0,0,0,0
CN,China,country,East Asia and Pacific,35.86166,104.195397,NL,Netherlands,country,Europe and Central Asia,52.132633,5.291266,1987,203635,3258,33027,552,17585,439,41528,10002,2463,2602,654,57355,2522,8695,19000,116,0,3716,85,36,0,0,0,0
TW,Taiwan,country,East Asia and Pacific,23.69781,120.960515,NL,Netherlands,country,Europe and Central Asia,52.132633,5.291266,1987,7589,445,0,120,0,20,2,5790,579,22,9,0,15,543,15,16,0,8,5,0,0,0,0,0
CO,Colombia,country,Latin America and the Caribbean,4.570868,-74.297333,NL,Netherlands,country,Europe and Central Asia,52.132633,5.291266,1987,43972,0,0,113,0,0,108,29,4400,0,0,0,39001,321,0,0,0,0,0,0,0,0,0,0
CR,Costa Rica,country,Latin America and the Caribbean,9.748917,-83.753428,NL,Netherlands,country,Europe and Central Asia,52.132633,5.291266,1987,17716,0,494,0,0,0,335,101,500,13,68,0,7485,8720,0,0,0,0,0,0,0,0,0,0
CU,Cuba,country,Latin America and the Caribbean,21.521757,-77.781167,NL,Netherlands,country,Europe and Central Asia,52.132633,5.291266,1987,2096,0,0,0,0,0,0,0,0,0,0,0,0,2096,0,0,0,0,0,0,0,0,0,0
CY,Cyprus,country,Europe and Central Asia,35.126413,33.429859,NL,Netherlands,country,Europe and Central Asia,52.132633,5.291266,1987,3397,0,808,0,0,29,0,1,2330,0,0,0,2,20,0,207,0,0,0,0,0,0,0,0
DK,Denmark,country,Europe and Central Asia,56.26392,9.501785,NL,Netherlands,country,Europe and Central Asia,52.132633,5.291266,1987,309401,173826,34,413,8650,0,58324,823,521,661,725,24234,1945,15571,6759,778,150,1046,15058,11,22,0,0,0
EG,Egypt,country,Middle East and North Africa,26.820553,30.802498,NL,Netherlands,country,Europe and Central Asia,52.132633,5.291266,1987,11373,0,3,0,0,0,380,8320,2254,0,103,0,0,313,0,0,0,0,0,0,0,0,0,0
ET,Ethiopia,country,Sub-Saharan Africa,9.145,40.489673,NL,Netherlands,country,Europe and Central Asia,52.132633,5.291266,1987,2358,0,0,0,395,0,468,654,0,0,1,0,389,425,0,0,0,0,0,26,0,0,0,0
FJ,Fiji,country,East Asia and Pacific,-16.578193,179.414413,NL,Netherlands,country,Europe and Central Asia,52.132633,5.291266,1987,115,0,0,0,0,0,0,0,115,0,0,0,0,0,0,0,0,0,0,0,0,0,0,0
FI,Finland,country,Europe and Central Asia,61.92411,25.748151,NL,Netherlands,country,Europe and Central Asia,52.132633,5.291266,1987,39412,18555,0,190,0,0,0,14,23,0,43,0,743,6,15639,7,0,165,3814,213,0,0,0,0
FR,France,country,Europe and Central Asia,46.227638,2.213749,NL,Netherlands,country,Europe and Central Asia,52.132633,5.291266,1987,4008131,2224482,10918,67594,259529,565,490182,47152,117292,838,117,348243,11246,32731,66588,120230,505,13643,189393,7255,133,0,0,0
GF,French Guiana,country,Latin America and the Caribbean,3.933889,-53.125782,NL,Netherlands,country,Europe and Central Asia,52.132633,5.291266,1987,21,20,0,0,0,0,0,0,0,0,0,0,0,0,0,0,0,0,1,0,0,0,0,0
GR,Greece,country,Europe and Central Asia,39.074208,21.824312,NL,Netherlands,country,Europe and Central Asia,52.132633,5.291266,1987,576304,65508,397,25,0,0,5749,16320,478485,2846,0,17,17,2200,42,4272,0,406,20,0,0,0,0,0
GP,Guadeloupe,country,Latin America and the Caribbean,16.995971,-62.067641,NL,Netherlands,country,Europe and Central Asia,52.132633,5.291266,1987,36,0,0,0,0,0,0,0,0,0,0,0,0,2,0,0,0,0,0,34,0,0,0,0
GT,Guatemala,country,Latin America and the Caribbean,15.783471,-90.230759,NL,Netherlands,country,Europe and Central Asia,52.132633,5.291266,1987,13996,0,133,137,0,0,1538,1365,194,0,129,0,10483,17,0,0,0,0,0,0,0,0,0,0
HN,Honduras,country,Latin America and the Caribbean,15.199999,-86.241905,NL,Netherlands,country,Europe and Central Asia,52.132633,5.291266,1987,18328,0,0,42,0,0,0,0,4227,0,0,0,3766,2618,7572,0,0,0,0,103,0,0,0,0
HU,Hungary,country,Europe and Central Asia,47.162494,19.503304,NL,Netherlands,country,Europe and Central Asia,52.132633,5.291266,1987,55243,1901,0,896,6687,0,2725,7688,3169,0,454,0,27,3536,22263,132,0,4284,1481,0,0,0,0,0
IS,Iceland,country,Europe and Central Asia,64.963051,-19.020835,NL,Netherlands,country,Europe and Central Asia,52.132633,5.291266,1987,269,0,0,0,0,0,0,0,0,0,0,26,0,0,0,0,0,128,115,0,0,0,0,0
IN,India,country,South Asia,20.593684,78.96288,NL,Netherlands,country,Europe and Central Asia,52.132633,5.291266,1987,37736,689,0,10000,0,6110,0,472,211,208,925,12370,3775,1959,886,0,0,91,40,0,0,0,0,0
ID,Indonesia,country,East Asia and Pacific,-0.789275,113.921327,NL,Netherlands,country,Europe and Central Asia,52.132633,5.291266,1987,973806,1997,349938,79775,0,28,23,529,1336,0,11149,168118,41121,22159,296732,370,0,243,0,288,0,0,0,0
IE,Ireland,country,Europe and Central Asia,53.41291,-8.24389,NL,Netherlands,country,Europe and Central Asia,52.132633,5.291266,1987,193191,17193,17,285,6,0,0,3483,75,18,0,5631,21,6279,4501,2754,0,3312,147082,2534,0,0,0,0
IL,Israel,country,Middle East and North Africa,31.046051,34.851612,NL,Netherlands,country,Europe and Central Asia,52.132633,5.291266,1987,51130,178,82,65,0,0,0,5078,44492,0,26,0,98,234,624,39,0,31,183,0,0,0,0,0
IT,Italy,country,Europe and Central Asia,41.87194,12.56738,NL,Netherlands,country,Europe and Central Asia,52.132633,5.291266,1987,275037,50901,13280,4335,95,605,18,70655,68184,173,7,12686,1524,20620,6271,15463,0,4917,4769,488,46,0,0,0
JP,Japan,country,East Asia and Pacific,36.204824,138.252924,NL,Netherlands,country,Europe and Central Asia,52.132633,5.291266,1987,2907170,1025,0,7,2,0,125,7,612,17,1,10,2,2905062,63,237,0,0,0,0,0,0,0,0
JO,Jordan,country,Middle East and North Africa,30.585164,36.238414,NL,Netherlands,country,Europe and Central Asia,52.132633,5.291266,1987,96,0,0,0,0,0,0,73,0,0,0,0,0,8,0,0,0,0,15,0,0,0,0,0
KE,Kenya,country,Sub-Saharan Africa,-0.023559,37.906193,NL,Netherlands,country,Europe and Central Asia,52.132633,5.291266,1987,34589,0,0,3,0,1468,841,555,6376,0,0,1000,18799,4975,0,0,0,0,10,562,0,0,0,0
KI,Kiribati,country,East Asia and Pacific,-3.370417,-168.734039,NL,Netherlands,country,Europe and Central Asia,52.132633,5.291266,1987,3785,0,0,0,0,0,3785,0,0,0,0,0,0,0,0,0,0,0,0,0,0,0,0,0
MW,Malawi,country,Sub-Saharan Africa,-13.254308,34.301525,NL,Netherlands,country,Europe and Central Asia,52.132633,5.291266,1987,10809,0,0,0,0,0,100,6,0,0,35,0,693,9975,0,0,0,0,0,0,0,0,0,0
MY,Malaysia,country,East Asia and Pacific,4.210484,101.975766,NL,Netherlands,country,Europe and Central Asia,52.132633,5.291266,1987,1007739,46,36,41,0,10,15119,14,2443,0,151,489231,54971,37679,406987,0,0,0,115,0,896,0,0,0
MT,Malta,country,Middle East and North Africa,35.937496,14.375416,NL,Netherlands,country,Europe and Central Asia,52.132633,5.291266,1987,5567,0,5132,0,0,0,0,0,143,0,0,0,0,281,0,11,0,0,0,0,0,0,0,0
MX,Mexico,country,Latin America and the Caribbean,23.634501,-102.552784,NL,Netherlands,country,Europe and Central Asia,52.132633,5.291266,1987,12105,0,0,7124,0,0,540,734,1362,175,446,0,544,903,0,270,0,0,7,0,0,0,0,0
MA,Morocco,country,Middle East and North Africa,31.791702,-7.09262,NL,Netherlands,country,Europe and Central Asia,52.132633,5.291266,1987,75468,0,1384,33437,402,47,152,1142,35962,0,2268,0,0,674,0,0,0,0,0,0,0,0,0,0
NZ,New Zealand,country,East Asia and Pacific,-40.900557,174.885971,NL,Netherlands,country,Europe and Central Asia,52.132633,5.291266,1987,41113,7,0,99,916,0,0,1017,3276,13995,0,68,13,0,12498,0,0,5713,3511,0,0,0,0,0
NO,Norway,country,Europe and Central Asia,60.472024,8.468946,NL,Netherlands,country,Europe and Central Asia,52.132633,5.291266,1987,1933,128,0,3,1,0,160,22,83,5,6,156,84,175,164,403,0,421,60,62,0,0,0,0
OM,Oman,country,Middle East and North Africa,21.512583,55.923255,NL,Netherlands,country,Europe and Central Asia,52.132633,5.291266,1987,11,0,0,0,0,0,0,0,0,0,0,0,0,0,0,11,0,0,0,0,0,0,0,0
PA,Panama,country,Latin America and the Caribbean,8.537981,-80.782127,NL,Netherlands,country,Europe and Central Asia,52.132633,5.291266,1987,247,0,0,0,0,0,0,46,6,0,0,0,37,8,0,0,0,0,0,150,0,0,0,0
PG,Papua New Guinea,country,East Asia and Pacific,-6.314993,143.95555,NL,Netherlands,country,Europe and Central Asia,52.132633,5.291266,1987,60495,0,0,0,0,0,17158,0,0,0,19,15626,6575,106,21011,0,0,0,0,0,0,0,0,0
PY,Paraguay,country,Latin America and the Caribbean,-23.442503,-58.443832,NL,Netherlands,country,Europe and Central Asia,52.132633,5.291266,1987,492782,0,0,0,0,0,446214,0,0,138,0,43832,0,232,1900,0,0,466,0,0,0,0,0,0
PE,Peru,country,Latin America and the Caribbean,-9.189967,-75.015152,NL,Netherlands,country,Europe and Central Asia,52.132633,5.291266,1987,7503,0,0,0,566,0,0,2652,2556,8,20,0,1606,93,0,2,0,0,0,0,0,0,0,0
PH,Philippines,country,East Asia and Pacific,12.879721,121.774017,NL,Netherlands,country,Europe and Central Asia,52.132633,5.291266,1987,887524,13,10350,0,0,0,20474,20,15625,68,2,457173,1116,493,381864,0,0,0,0,0,326,0,0,0
PL,Poland,country,Europe and Central Asia,51.919438,19.145136,NL,Netherlands,country,Europe and Central Asia,52.132633,5.291266,1987,128749,0,0,186,3327,0,90845,13519,13291,0,0,0,0,0,0,78,0,926,6392,185,0,0,0,0
PT,Portugal,country,Europe and Central Asia,39.399872,-8.224454,NL,Netherlands,country,Europe and Central Asia,52.132633,5.291266,1987,21275,0,24,0,4,288,12,5891,2442,39,0,52,3,805,4009,7546,0,75,35,50,0,0,0,0
KR,"Korea, Rep.",country,East Asia and Pacific,35.907757,127.766922,NL,Netherlands,country,Europe and Central Asia,52.132633,5.291266,1987,2493,73,0,19,0,0,58,53,986,0,1,6,2,1253,0,42,0,0,0,0,0,0,0,0
RE,Reunion,country,Sub-Saharan Africa,-21.115141,55.536384,NL,Netherlands,country,Europe and Central Asia,52.132633,5.291266,1987,423,0,0,423,0,0,0,0,0,0,0,0,0,0,0,0,0,0,0,0,0,0,0,0
SG,Singapore,country,East Asia and Pacific,1.352083,103.819836,NL,Netherlands,country,Europe and Central Asia,52.132633,5.291266,1987,48588,502,0,4,42,6,13404,0,1781,0,2479,0,19675,6082,4337,273,0,3,0,0,0,0,0,0
SB,Solomon Islands,country,East Asia and Pacific,-9.64571,160.156194,NL,Netherlands,country,Europe and Central Asia,52.132633,5.291266,1987,2858,0,0,0,0,0,2137,0,0,0,0,0,474,0,247,0,0,0,0,0,0,0,0,0
ES,Spain,country,Europe and Central Asia,40.463667,-3.74922,NL,Netherlands,country,Europe and Central Asia,52.132633,5.291266,1987,655246,121414,2384,448,3,1735,3577,236062,214813,144,656,12333,591,11537,963,39575,0,996,7907,108,0,0,0,0
LK,Sri Lanka,country,South Asia,7.873054,80.771797,NL,Netherlands,country,Europe and Central Asia,52.132633,5.291266,1987,12890,0,0,0,0,6,6038,18,780,0,89,0,2515,3443,1,0,0,0,0,0,0,0,0,0
SE,Sweden,country,Europe and Central Asia,60.128161,18.643501,NL,Netherlands,country,Europe and Central Asia,52.132633,5.291266,1987,33053,12006,0,711,1,0,8751,43,604,1,3,600,237,864,8389,219,0,227,374,23,0,0,0,0
CH,Switzerland,country,Europe and Central Asia,46.818188,8.227512,NL,Netherlands,country,Europe and Central Asia,52.132633,5.291266,1987,11698,106,24,183,3,0,2,242,235,487,0,1743,380,4596,1522,251,0,113,675,200,936,0,0,0
SY,Syrian Arab Rep.,country,Middle East and North Africa,34.802075,38.996815,NL,Netherlands,country,Europe and Central Asia,52.132633,5.291266,1987,32,0,0,0,0,0,0,0,0,0,0,0,0,0,0,0,0,0,32,0,0,0,0,0
TH,Thailand,country,East Asia and Pacific,15.870032,100.992541,NL,Netherlands,country,Europe and Central Asia,52.132633,5.291266,1987,4745907,24824,4656636,18900,1247,14,64,2166,14477,16,222,17906,601,4526,4064,0,0,184,50,10,0,0,0,0
TT,Trinidad and Tobago,country,Latin America and the Caribbean,10.691803,-61.222503,NL,Netherlands,country,Europe and Central Asia,52.132633,5.291266,1987,24136,0,0,23539,0,5,0,42,21,0,36,0,485,0,8,0,0,0,0,0,0,0,0,0
TN,Tunisia,country,Middle East and North Africa,33.886917,9.537499,NL,Netherlands,country,Europe and Central Asia,52.132633,5.291266,1987,5408,0,0,0,0,0,0,4,3768,0,15,1555,20,46,0,0,0,0,0,0,0,0,0,0
TR,Turkey,country,Europe and Central Asia,38.963745,35.243322,NL,Netherlands,country,Europe and Central Asia,52.132633,5.291266,1987,519858,620,3587,17432,2443,5908,704,4096,16626,1432,1302,0,40,465421,20,189,0,0,38,0,0,0,0,0
GB,United Kingdom,country,Europe and Central Asia,55.378051,-3.435973,NL,Netherlands,country,Europe and Central Asia,52.132633,5.291266,1987,816478,246705,1540,7914,190275,801,50036,13225,15194,2658,405,17178,6541,23863,17498,17601,198,16463,177080,11500,1,0,0,0
US,USA,country,North America,37.09024,-95.712891,NL,Netherlands,country,Europe and Central Asia,52.132633,5.291266,1987,10502931,461712,739,217398,11069,15063,4001924,3088,78151,1562,329,5561338,570,31033,90220,3123,589,21909,426,3277,0,0,0,0
UY,Uruguay,country,Latin America and the Caribbean,-32.522779,-55.765835,NL,Netherlands,country,Europe and Central Asia,52.132633,5.291266,1987,67339,7671,0,0,0,0,2167,1,31856,1982,0,19489,0,108,0,0,0,4053,12,0,0,0,0,0
RU,Russian Federation,country,Europe and Central Asia,61.52401,105.318756,NL,Netherlands,country,Europe and Central Asia,52.132633,5.291266,1987,1748,0,0,0,0,0,0,0,0,1146,0,0,0,0,0,602,0,0,0,0,0,0,0,0
VE,Venezuela,country,Latin America and the Caribbean,6.42375,-66.58973,NL,Netherlands,country,Europe and Central Asia,52.132633,5.291266,1987,3118,3,2,0,0,0,0,153,2001,212,0,0,732,1,0,14,0,0,0,0,0,0,0,0
BA,Bosnia & Herzegovina,country,Europe and Central Asia,43.915886,17.679076,NL,Netherlands,country,Europe and Central Asia,52.132633,5.291266,1987,18838,483,250,0,25,0,999,5404,8616,8,74,258,0,2027,84,380,0,195,35,0,0,0,0,0
ZW,Zimbabwe,country,Sub-Saharan Africa,-19.015438,29.154857,NL,Netherlands,country,Europe and Central Asia,52.132633,5.291266,1987,7928,0,0,0,68,0,0,78,16,562,0,0,16,7171,0,0,0,0,0,17,0,0,0,0
DZ,Algeria,country,Middle East and North Africa,28.033886,1.659626,NL,Netherlands,country,Europe and Central Asia,52.132633,5.291266,1988,55,0,0,0,0,0,0,0,21,0,0,0,0,0,0,34,0,0,0,0,0,0,0,0
AR,Argentina,country,Latin America and the Caribbean,-38.416097,-63.616672,NL,Netherlands,country,Europe and Central Asia,52.132633,5.291266,1988,4062111,117944,0,1635,30673,0,1160740,908,145364,7362,0,2403279,5959,3124,162035,101,0,22375,609,3,0,0,0,0
AU,Australia,country,East Asia and Pacific,-25.274398,133.775136,NL,Netherlands,country,Europe and Central Asia,52.132633,5.291266,1988,169021,97807,0,20,22518,0,849,2858,5226,9286,18,42,0,425,19318,1303,0,4494,2845,2012,0,0,0,0
AT,Austria,country,Europe and Central Asia,47.516231,14.550072,NL,Netherlands,country,Europe and Central Asia,52.132633,5.291266,1988,40818,868,11,522,282,0,731,1784,309,90,0,24723,1041,4478,2715,255,0,641,551,491,1326,0,0,0
BB,Barbados,country,Latin America and the Caribbean,13.193887,-59.543198,NL,Netherlands,country,Europe and Central Asia,52.132633,5.291266,1988,75,0,23,0,0,0,0,22,26,0,4,0,0,0,0,0,0,0,0,0,0,0,0,0
BE,Belgium,country,Europe and Central Asia,50.503887,4.469936,NL,Netherlands,country,Europe and Central Asia,52.132633,5.291266,1988,3547198,897625,325089,179598,40389,1209,9683,128303,154912,4292,897,638848,23555,110189,122047,365151,9521,85951,441260,15265,2935,0,0,0
BO,Bolivia,country,Latin America and the Caribbean,-16.290154,-63.588653,NL,Netherlands,country,Europe and Central Asia,52.132633,5.291266,1988,528,0,0,0,0,0,0,0,0,10,0,0,278,0,0,0,0,0,0,240,0,0,0,0
BR,Brazil,country,Latin America and the Caribbean,-14.235004,-51.92528,NL,Netherlands,country,Europe and Central Asia,52.132633,5.291266,1988,5022951,7187,0,57749,1550,1472,1055896,4819,288993,0,3057,3400423,58799,19571,107712,266,0,15441,16,0,0,0,0,0
BG,Bulgaria,country,Europe and Central Asia,42.733883,25.48583,NL,Netherlands,country,Europe and Central Asia,52.132633,5.291266,1988,5819,0,0,555,0,0,0,1350,2905,0,0,0,0,200,0,809,0,0,0,0,0,0,0,0
CM,Cameroon,country,Sub-Saharan Africa,7.369722,12.354722,NL,Netherlands,country,Europe and Central Asia,52.132633,5.291266,1988,78737,0,0,0,0,0,0,0,256,0,0,0,75866,25,2590,0,0,0,0,0,0,0,0,0
CA,Canada,country,North America,56.130366,-106.346771,NL,Netherlands,country,Europe and Central Asia,52.132633,5.291266,1988,325160,26170,193,685,74269,433,140167,1483,4130,0,1,24830,189,986,50034,66,12,1057,389,78,0,0,0,0
CL,Chile,country,Latin America and the Caribbean,-35.675147,-71.542969,NL,Netherlands,country,Europe and Central Asia,52.132633,5.291266,1988,159639,698,0,74,1726,732,0,10978,143495,944,0,0,0,80,0,91,0,821,0,0,0,0,0,0
HK,Hong Kong,country,East Asia and Pacific,22.396428,114.109497,NL,Netherlands,country,Europe and Central Asia,52.132633,5.291266,1988,12261,660,14,80,2099,50,1354,2141,1692,0,12,0,92,1679,75,172,0,18,25,2098,0,0,0,0
CN,China,country,East Asia and Pacific,35.86166,104.195397,NL,Netherlands,country,Europe and Central Asia,52.132633,5.291266,1988,299656,7894,109584,562,20737,685,27381,6667,2967,1457,329,100239,3402,10335,2417,169,0,4764,61,6,0,0,0,0
TW,Taiwan,country,East Asia and Pacific,23.69781,120.960515,NL,Netherlands,country,Europe and Central Asia,52.132633,5.291266,1988,6723,505,0,84,0,0,35,4728,568,0,0,0,22,665,12,49,0,51,4,0,0,0,0,0
CO,Colombia,country,Latin America and the Caribbean,4.570868,-74.297333,NL,Netherlands,country,Europe and Central Asia,52.132633,5.291266,1988,35487,0,0,110,0,0,126,226,7731,0,0,0,26597,697,0,0,0,0,0,0,0,0,0,0
CR,Costa Rica,country,Latin America and the Caribbean,9.748917,-83.753428,NL,Netherlands,country,Europe and Central Asia,52.132633,5.291266,1988,19939,0,828,0,0,0,433,94,1450,0,99,0,7092,9943,0,0,0,0,0,0,0,0,0,0
DK,Denmark,country,Europe and Central Asia,56.26392,9.501785,NL,Netherlands,country,Europe and Central Asia,52.132633,5.291266,1988,356933,185820,201,4944,21040,0,82880,3218,335,16,857,25691,264,17858,5195,809,575,1048,6757,0,0,0,0,0
EC,Ecuador,country,Latin America and the Caribbean,-1.831239,-78.183406,NL,Netherlands,country,Europe and Central Asia,52.132633,5.291266,1988,24365,0,0,0,0,0,0,566,13811,0,9,0,9609,370,0,0,0,0,0,0,0,0,0,0
EG,Egypt,country,Middle East and North Africa,26.820553,30.802498,NL,Netherlands,country,Europe and Central Asia,52.132633,5.291266,1988,11310,0,90,0,0,0,1261,6799,2405,0,82,0,0,670,3,0,0,0,0,0,0,0,0,0
ET,Ethiopia,country,Sub-Saharan Africa,9.145,40.489673,NL,Netherlands,country,Europe and Central Asia,52.132633,5.291266,1988,11398,0,0,0,432,0,191,2684,0,0,0,0,5265,0,2750,0,0,0,5,71,0,0,0,0
FJ,Fiji,country,East Asia and Pacific,-16.578193,179.414413,NL,Netherlands,country,Europe and Central Asia,52.132633,5.291266,1988,75,3,9,0,0,0,0,5,23,0,0,0,0,0,0,0,3,35,0,0,0,0,0,0
FI,Finland,country,Europe and Central Asia,61.92411,25.748151,NL,Netherlands,country,Europe and Central Asia,52.132633,5.291266,1988,14125,795,0,460,0,0,0,3,633,0,5,664,630,20,8708,13,0,168,1788,238,0,0,0,0
FR,France,country,Europe and Central Asia,46.227638,2.213749,NL,Netherlands,country,Europe and Central Asia,52.132633,5.291266,1988,6196675,3374400,10364,813705,334620,574,553297,59005,118824,1073,133,421971,12992,35194,59927,124195,908,17040,253761,5535,65,0,0,0
GF,French Guiana,country,Latin America and the Caribbean,3.933889,-53.125782,NL,Netherlands,country,Europe and Central Asia,52.132633,5.291266,1988,1596,1596,0,0,0,0,0,0,0,0,0,0,0,0,0,0,0,0,0,0,0,0,0,0
GR,Greece,country,Europe and Central Asia,39.074208,21.824312,NL,Netherlands,country,Europe and Central Asia,52.132633,5.291266,1988,82111,472,267,19,0,108,207,10291,60706,483,0,3451,20,2160,472,2742,0,661,52,0,0,0,0,0
GP,Guadeloupe,country,Latin America and the Caribbean,16.995971,-62.067641,NL,Netherlands,country,Europe and Central Asia,52.132633,5.291266,1988,2,0,0,0,0,0,0,0,0,0,0,0,0,2,0,0,0,0,0,0,0,0,0,0
GT,Guatemala,country,Latin America and the Caribbean,15.783471,-90.230759,NL,Netherlands,country,Europe and Central Asia,52.132633,5.291266,1988,15312,0,0,345,0,0,1882,1488,330,0,65,0,11184,18,0,0,0,0,0,0,0,0,0,0
HN,Honduras,country,Latin America and the Caribbean,15.199999,-86.241905,NL,Netherlands,country,Europe and Central Asia,52.132633,5.291266,1988,5637,0,0,0,0,0,0,89,168,0,0,0,3181,2199,0,0,0,0,0,0,0,0,0,0
HU,Hungary,country,Europe and Central Asia,47.162494,19.503304,NL,Netherlands,country,Europe and Central Asia,52.132633,5.291266,1988,74627,6447,0,659,6084,0,12597,15139,3302,0,535,0,24,458,22818,90,0,4922,1552,0,0,0,0,0
IS,Iceland,country,Europe and Central Asia,64.963051,-19.020835,NL,Netherlands,country,Europe and Central Asia,52.132633,5.291266,1988,243,0,0,0,0,0,0,0,0,12,0,31,0,3,0,0,0,124,73,0,0,0,0,0
IN,India,country,South Asia,20.593684,78.96288,NL,Netherlands,country,Europe and Central Asia,52.132633,5.291266,1988,52101,448,0,17,0,9949,1303,289,155,220,1759,32762,3526,1540,94,0,0,6,33,0,0,0,0,0
ID,Indonesia,country,East Asia and Pacific,-0.789275,113.921327,NL,Netherlands,country,Europe and Central Asia,52.132633,5.291266,1988,1157330,2596,501117,23,0,102,54,179,2047,0,8438,93314,38249,25786,484797,243,0,353,0,32,0,0,0,0
IE,Ireland,country,Europe and Central Asia,53.41291,-8.24389,NL,Netherlands,country,Europe and Central Asia,52.132633,5.291266,1988,252773,72029,15,1010,17,0,3,60,233,61,0,2436,44,4393,2666,2029,0,4321,157031,6425,0,0,0,0
IT,Italy,country,Europe and Central Asia,41.87194,12.56738,NL,Netherlands,country,Europe and Central Asia,52.132633,5.291266,1988,267432,39005,11379,4116,116,543,179,72017,67807,60,13,3737,1634,18219,20777,12433,0,5459,8774,1141,23,0,0,0
JM,Jamaica,country,Latin America and the Caribbean,18.109581,-77.297508,NL,Netherlands,country,Europe and Central Asia,52.132633,5.291266,1988,2084,0,0,0,0,0,0,49,1705,0,113,0,0,128,0,86,0,0,3,0,0,0,0,0
JP,Japan,country,East Asia and Pacific,36.204824,138.252924,NL,Netherlands,country,Europe and Central Asia,52.132633,5.291266,1988,2928,1397,0,20,2,0,392,11,415,6,0,64,4,262,106,243,0,0,6,0,0,0,0,0
JO,Jordan,country,Middle East and North Africa,30.585164,36.238414,NL,Netherlands,country,Europe and Central Asia,52.132633,5.291266,1988,345,0,0,0,0,0,0,174,0,0,0,0,0,0,82,0,0,0,89,0,0,0,0,0
KE,Kenya,country,Sub-Saharan Africa,-0.023559,37.906193,NL,Netherlands,country,Europe and Central Asia,52.132633,5.291266,1988,49067,2000,0,20362,0,818,844,525,5778,0,0,1658,11182,5468,0,0,0,0,11,421,0,0,0,0
MW,Malawi,country,Sub-Saharan Africa,-13.254308,34.301525,NL,Netherlands,country,Europe and Central Asia,52.132633,5.291266,1988,10533,0,0,0,0,0,400,1,0,0,81,0,2348,7703,0,0,0,0,0,0,0,0,0,0
MY,Malaysia,country,East Asia and Pacific,4.210484,101.975766,NL,Netherlands,country,Europe and Central Asia,52.132633,5.291266,1988,850866,15,69,61,0,0,1211,9,1071,5,100,409709,58689,34319,345183,0,0,0,175,0,250,0,0,0
MT,Malta,country,Middle East and North Africa,35.937496,14.375416,NL,Netherlands,country,Europe and Central Asia,52.132633,5.291266,1988,3429,0,2846,0,0,0,0,0,313,0,0,0,0,238,17,9,0,0,6,0,0,0,0,0
MX,Mexico,country,Latin America and the Caribbean,23.634501,-102.552784,NL,Netherlands,country,Europe and Central Asia,52.132633,5.291266,1988,22472,0,0,17421,0,0,464,72,2251,99,330,0,753,883,6,193,0,0,0,0,0,0,0,0
MA,Morocco,country,Middle East and North Africa,31.791702,-7.09262,NL,Netherlands,country,Europe and Central Asia,52.132633,5.291266,1988,75268,0,12,22000,20,135,168,472,49797,0,2063,0,0,562,39,0,0,0,0,0,0,0,0,0
NZ,New Zealand,country,East Asia and Pacific,-40.900557,174.885971,NL,Netherlands,country,Europe and Central Asia,52.132633,5.291266,1988,54091,0,0,162,3885,0,20,13310,2371,10219,0,63,0,538,7529,2,0,5870,10056,66,0,0,0,0
NO,Norway,country,Europe and Central Asia,60.472024,8.468946,NL,Netherlands,country,Europe and Central Asia,52.132633,5.291266,1988,2079,73,3,0,0,0,20,146,205,20,6,121,81,140,217,490,0,160,397,0,0,0,0,0
OM,Oman,country,Middle East and North Africa,21.512583,55.923255,NL,Netherlands,country,Europe and Central Asia,52.132633,5.291266,1988,118,14,0,0,0,0,0,0,0,0,0,0,53,0,0,0,0,0,51,0,0,0,0,0
PA,Panama,country,Latin America and the Caribbean,8.537981,-80.782127,NL,Netherlands,country,Europe and Central Asia,52.132633,5.291266,1988,188,0,0,0,0,0,0,35,7,0,0,0,138,8,0,0,0,0,0,0,0,0,0,0
PG,Papua New Guinea,country,East Asia and Pacific,-6.314993,143.95555,NL,Netherlands,country,Europe and Central Asia,52.132633,5.291266,1988,52498,0,0,0,0,0,20940,0,0,0,11,15950,3061,536,12000,0,0,0,0,0,0,0,0,0
PE,Peru,country,Latin America and the Caribbean,-9.189967,-75.015152,NL,Netherlands,country,Europe and Central Asia,52.132633,5.291266,1988,9439,0,0,0,0,0,16,4309,3412,9,20,0,496,179,998,0,0,0,0,0,0,0,0,0
PH,Philippines,country,East Asia and Pacific,12.879721,121.774017,NL,Netherlands,country,Europe and Central Asia,52.132633,5.291266,1988,713763,17,15423,0,0,0,8966,7,11330,57,3,405412,976,383,270636,53,0,0,0,0,500,0,0,0
PT,Portugal,country,Europe and Central Asia,39.399872,-8.224454,NL,Netherlands,country,Europe and Central Asia,52.132633,5.291266,1988,27113,3,907,6,160,87,6,6845,2407,61,23,1820,0,654,39,8160,0,53,5882,0,0,0,0,0
KR,"Korea, Rep.",country,East Asia and Pacific,35.907757,127.766922,NL,Netherlands,country,Europe and Central Asia,52.132633,5.291266,1988,3012,96,0,5,0,15,47,70,454,0,2,0,2,2301,0,20,0,0,0,0,0,0,0,0
RE,Reunion,country,Sub-Saharan Africa,-21.115141,55.536384,NL,Netherlands,country,Europe and Central Asia,52.132633,5.291266,1988,407,0,0,400,0,0,0,0,3,0,0,0,0,4,0,0,0,0,0,0,0,0,0,0
SN,Senegal,country,Sub-Saharan Africa,14.497401,-14.452362,NL,Netherlands,country,Europe and Central Asia,52.132633,5.291266,1988,78833,0,0,13,0,0,0,28,385,0,0,50694,0,8,27705,0,0,0,0,0,0,0,0,0
SG,Singapore,country,East Asia and Pacific,1.352083,103.819836,NL,Netherlands,country,Europe and Central Asia,52.132633,5.291266,1988,56981,795,0,1,4,8,2875,5,1115,48,4171,50,36045,8064,2043,410,0,75,1272,0,0,0,0,0
ES,Spain,country,Europe and Central Asia,40.463667,-3.74922,NL,Netherlands,country,Europe and Central Asia,52.132633,5.291266,1988,732053,139017,1471,368,0,879,1555,253537,210874,348,887,36198,918,14158,17367,41043,21,1205,12049,179,0,0,0,0
LK,Sri Lanka,country,South Asia,7.873054,80.771797,NL,Netherlands,country,Europe and Central Asia,52.132633,5.291266,1988,9233,18,0,0,0,13,3091,107,578,0,93,0,2630,2697,0,0,0,0,0,6,0,0,0,0
SR,Suriname,country,Latin America and the Caribbean,3.919305,-56.027783,NL,Netherlands,country,Europe and Central Asia,52.132633,5.291266,1988,56869,54904,295,0,0,0,9,997,508,0,93,0,0,20,0,0,0,0,0,43,0,0,0,0
SE,Sweden,country,Europe and Central Asia,60.128161,18.643501,NL,Netherlands,country,Europe and Central Asia,52.132633,5.291266,1988,26960,15000,3,752,4,0,7176,89,868,1,1,357,236,854,383,245,0,383,604,4,0,0,0,0
CH,Switzerland,country,Europe and Central Asia,46.818188,8.227512,NL,Netherlands,country,Europe and Central Asia,52.132633,5.291266,1988,11228,196,668,195,63,33,89,123,305,510,5,1362,961,4761,706,243,0,7,759,221,21,0,0,0
SY,Syrian Arab Rep.,country,Middle East and North Africa,34.802075,38.996815,NL,Netherlands,country,Europe and Central Asia,52.132633,5.291266,1988,91,1,0,0,0,0,0,90,0,0,0,0,0,0,0,0,0,0,0,0,0,0,0,0
TH,Thailand,country,East Asia and Pacific,15.870032,100.992541,NL,Netherlands,country,Europe and Central Asia,52.132633,5.291266,1988,4131127,39933,3970468,73663,803,0,238,2289,23757,0,117,13152,0,5743,0,20,0,642,24,278,0,0,0,0
TT,Trinidad and Tobago,country,Latin America and the Caribbean,10.691803,-61.222503,NL,Netherlands,country,Europe and Central Asia,52.132633,5.291266,1988,588,0,25,0,0,2,0,85,77,0,89,0,303,5,0,2,0,0,0,0,0,0,0,0
TN,Tunisia,country,Middle East and North Africa,33.886917,9.537499,NL,Netherlands,country,Europe and Central Asia,52.132633,5.291266,1988,1035,0,0,0,0,0,0,2,1019,0,0,0,0,14,0,0,0,0,0,0,0,0,0,0
TR,Turkey,country,Europe and Central Asia,38.963745,35.243322,NL,Netherlands,country,Europe and Central Asia,52.132633,5.291266,1988,5218495,2998,4020,28937,1572,9425,1028,6089,26003,2459,1338,267,25,5131838,2271,160,0,0,65,0,0,0,0,0
GB,United Kingdom,country,Europe and Central Asia,55.378051,-3.435973,NL,Netherlands,country,Europe and Central Asia,52.132633,5.291266,1988,500942,118318,2312,6911,48447,388,7553,11477,8512,1416,290,31319,6245,21690,29576,27853,222,17154,152169,9291,21,0,0,0
US,USA,country,North America,37.09024,-95.712891,NL,Netherlands,country,Europe and Central Asia,52.132633,5.291266,1988,8988364,120784,518,144621,23609,11365,3330973,4438,90228,2452,230,5062378,1256,35794,122405,3728,1045,17746,12171,3668,0,0,0,0
UY,Uruguay,country,Latin America and the Caribbean,-32.522779,-55.765835,NL,Netherlands,country,Europe and Central Asia,52.132633,5.291266,1988,142645,71951,0,40,0,0,16700,194,26556,1435,0,20128,0,155,798,0,0,4597,91,0,0,0,0,0
RU,Russian Federation,country,Europe and Central Asia,61.52401,105.318756,NL,Netherlands,country,Europe and Central Asia,52.132633,5.291266,1988,702,0,0,0,0,0,0,0,0,299,0,0,0,0,0,403,0,0,0,0,0,0,0,0
VE,Venezuela,country,Latin America and the Caribbean,6.42375,-66.58973,NL,Netherlands,country,Europe and Central Asia,52.132633,5.291266,1988,5134,1,0,0,0,0,0,198,1362,593,0,0,2964,2,0,14,0,0,0,0,0,0,0,0
BA,Bosnia & Herzegovina,country,Europe and Central Asia,43.915886,17.679076,NL,Netherlands,country,Europe and Central Asia,52.132633,5.291266,1988,21964,791,0,0,28,23,1045,10196,6137,6,179,971,20,1414,313,394,0,167,280,0,0,0,0,0
DZ,Algeria,country,Middle East and North Africa,28.033886,1.659626,NL,Netherlands,country,Europe and Central Asia,52.132633,5.291266,1989,20,0,0,0,0,0,0,0,20,0,0,0,0,0,0,0,0,0,0,0,0,0,0,0
AR,Argentina,country,Latin America and the Caribbean,-38.416097,-63.616672,NL,Netherlands,country,Europe and Central Asia,52.132633,5.291266,1989,3381569,71526,0,753,7749,0,330013,1195,153151,7810,0,2585428,3449,4125,190898,246,0,24308,915,3,0,0,0,0
AU,Australia,country,East Asia and Pacific,-25.274398,133.775136,NL,Netherlands,country,Europe and Central Asia,52.132633,5.291266,1989,116626,29820,0,33000,2126,0,796,0,2466,29775,17,42,0,425,8542,1012,0,4635,1271,2699,0,0,0,0
AT,Austria,country,Europe and Central Asia,47.516231,14.550072,NL,Netherlands,country,Europe and Central Asia,52.132633,5.291266,1989,39734,855,0,1042,145,0,63,2628,181,114,0,23812,1749,2361,3513,69,0,691,885,200,1426,0,0,0
BB,Barbados,country,Latin America and the Caribbean,13.193887,-59.543198,NL,Netherlands,country,Europe and Central Asia,52.132633,5.291266,1989,132,0,41,0,0,0,0,44,34,0,13,0,0,0,0,0,0,0,0,0,0,0,0,0
BE,Belgium,country,Europe and Central Asia,50.503887,4.469936,NL,Netherlands,country,Europe and Central Asia,52.132633,5.291266,1989,3525373,593652,294758,443392,30271,1232,5137,144774,142577,6786,844,619705,31435,114950,132860,403034,13538,73603,468497,16721,1145,0,0,0
BO,Bolivia,country,Latin America and the Caribbean,-16.290154,-63.588653,NL,Netherlands,country,Europe and Central Asia,52.132633,5.291266,1989,695,0,0,0,0,488,0,0,0,0,1,0,127,0,0,0,0,0,0,79,0,0,0,0
BR,Brazil,country,Latin America and the Caribbean,-14.235004,-51.92528,NL,Netherlands,country,Europe and Central Asia,52.132633,5.291266,1989,6026714,6964,26,19818,1300,1260,1750653,4654,328426,85,2887,3816365,17344,18216,46343,1395,0,10976,2,0,0,0,0,0
CM,Cameroon,country,Sub-Saharan Africa,7.369722,12.354722,NL,Netherlands,country,Europe and Central Asia,52.132633,5.291266,1989,128210,0,0,0,0,0,0,0,78,0,0,2500,119364,267,6000,1,0,0,0,0,0,0,0,0
CA,Canada,country,North America,56.130366,-106.346771,NL,Netherlands,country,Europe and Central Asia,52.132633,5.291266,1989,143963,20260,229,706,30074,20,25690,616,3869,0,17,6399,177,1583,51897,76,12,1355,235,760,0,0,0,0
CL,Chile,country,Latin America and the Caribbean,-35.675147,-71.542969,NL,Netherlands,country,Europe and Central Asia,52.132633,5.291266,1989,155676,539,0,43,421,409,0,9513,143192,815,29,0,18,135,0,110,2,452,0,0,0,0,0,0
HK,Hong Kong,country,East Asia and Pacific,22.396428,114.109497,NL,Netherlands,country,Europe and Central Asia,52.132633,5.291266,1989,11659,766,12,79,593,133,1081,2683,1617,2,429,0,172,2923,103,327,0,29,52,658,0,0,0,0
CN,China,country,East Asia and Pacific,35.86166,104.195397,NL,Netherlands,country,Europe and Central Asia,52.132633,5.291266,1989,182979,14066,32863,351,21601,536,50586,5788,1695,2511,202,26583,2898,13338,5117,261,1,4460,108,15,0,0,0,0
TW,Taiwan,country,East Asia and Pacific,23.69781,120.960515,NL,Netherlands,country,Europe and Central Asia,52.132633,5.291266,1989,5737,523,0,92,0,0,60,4149,431,20,0,81,17,230,6,80,0,30,11,7,0,0,0,0
CO,Colombia,country,Latin America and the Caribbean,4.570868,-74.297333,NL,Netherlands,country,Europe and Central Asia,52.132633,5.291266,1989,40656,15,0,135,0,0,18,230,3394,0,0,0,36321,538,0,5,0,0,0,0,0,0,0,0
CR,Costa Rica,country,Latin America and the Caribbean,9.748917,-83.753428,NL,Netherlands,country,Europe and Central Asia,52.132633,5.291266,1989,20672,0,751,0,0,0,468,69,1923,0,97,0,6324,10982,0,0,0,0,0,58,0,0,0,0
CY,Cyprus,country,Europe and Central Asia,35.126413,33.429859,NL,Netherlands,country,Europe and Central Asia,52.132633,5.291266,1989,6296,0,2282,0,0,0,0,18,3805,0,0,0,0,35,0,142,0,0,14,0,0,0,0,0
DK,Denmark,country,Europe and Central Asia,56.26392,9.501785,NL,Netherlands,country,Europe and Central Asia,52.132633,5.291266,1989,362839,201540,934,701,12323,1,60334,1716,252,8,78,27698,167,17548,18406,1168,989,1881,18046,38,0,0,0,0
EC,Ecuador,country,Latin America and the Caribbean,-1.831239,-78.183406,NL,Netherlands,country,Europe and Central Asia,52.132633,5.291266,1989,12036,0,0,0,0,0,0,727,5456,0,4,0,5484,365,0,0,0,0,0,0,0,0,0,0
EG,Egypt,country,Middle East and North Africa,26.820553,30.802498,NL,Netherlands,country,Europe and Central Asia,52.132633,5.291266,1989,63638,11,658,47700,4,0,1614,7547,4611,0,274,0,0,1031,83,0,0,105,0,0,0,0,0,0
ET,Ethiopia,country,Sub-Saharan Africa,9.145,40.489673,NL,Netherlands,country,Europe and Central Asia,52.132633,5.291266,1989,9824,0,0,0,1949,0,249,1045,215,0,0,0,4614,5,1531,0,0,0,0,216,0,0,0,0
FO,Faroe Islands,country,Europe and Central Asia,61.892635,-6.911806,NL,Netherlands,country,Europe and Central Asia,52.132633,5.291266,1989,124,0,0,0,0,0,0,0,0,0,0,0,0,0,0,0,0,0,0,124,0,0,0,0
FJ,Fiji,country,East Asia and Pacific,-16.578193,179.414413,NL,Netherlands,country,Europe and Central Asia,52.132633,5.291266,1989,3,0,0,0,0,0,0,0,0,0,3,0,0,0,0,0,0,0,0,0,0,0,0,0
FI,Finland,country,Europe and Central Asia,61.92411,25.748151,NL,Netherlands,country,Europe and Central Asia,52.132633,5.291266,1989,36272,26400,0,671,0,0,23,507,52,0,0,7,356,27,6458,17,0,366,1341,47,0,0,0,0
FR,France,country,Europe and Central Asia,46.227638,2.213749,NL,Netherlands,country,Europe and Central Asia,52.132633,5.291266,1989,6158342,3197906,10981,1041142,396982,561,445675,52617,116756,1966,664,352440,17967,41060,53090,131628,1007,19114,273030,4740,23,0,0,0
GF,French Guiana,country,Latin America and the Caribbean,3.933889,-53.125782,NL,Netherlands,country,Europe and Central Asia,52.132633,5.291266,1989,5541,5541,0,0,0,0,0,0,0,0,0,0,0,0,0,0,0,0,0,0,0,0,0,0
GR,Greece,country,Europe and Central Asia,39.074208,21.824312,NL,Netherlands,country,Europe and Central Asia,52.132633,5.291266,1989,141109,145,2504,31,0,368,294,25081,98312,1458,0,2839,20,4022,104,5351,0,504,76,0,0,0,0,0
HN,Honduras,country,Latin America and the Caribbean,15.199999,-86.241905,NL,Netherlands,country,Europe and Central Asia,52.132633,5.291266,1989,6088,0,0,0,0,0,2277,0,149,0,0,0,3458,15,0,0,0,0,0,189,0,0,0,0
IS,Iceland,country,Europe and Central Asia,64.963051,-19.020835,NL,Netherlands,country,Europe and Central Asia,52.132633,5.291266,1989,59,2,0,0,0,0,0,0,0,0,0,38,0,3,0,0,0,16,0,0,0,0,0,0
IN,India,country,South Asia,20.593684,78.96288,NL,Netherlands,country,Europe and Central Asia,52.132633,5.291266,1989,80618,2470,0,31029,0,9295,3461,421,2225,0,1879,23762,2674,934,2426,0,0,25,17,0,0,0,0,0
ID,Indonesia,country,East Asia and Pacific,-0.789275,113.921327,NL,Netherlands,country,Europe and Central Asia,52.132633,5.291266,1989,1070120,2846,194589,32271,0,28,105,106,2772,0,5120,152837,59468,24917,594760,155,0,132,0,14,0,0,0,0
IE,Ireland,country,Europe and Central Asia,53.41291,-8.24389,NL,Netherlands,country,Europe and Central Asia,52.132633,5.291266,1989,237364,71041,55,977,20,0,1485,492,23,233,0,2613,12,3270,4467,1985,0,4042,140976,5673,0,0,0,0
IL,Israel,country,Middle East and North Africa,31.046051,34.851612,NL,Netherlands,country,Europe and Central Asia,52.132633,5.291266,1989,157459,102,5513,54,0,10,25,8360,58956,31,15,1500,21,81534,0,58,0,20,1131,129,0,0,0,0
IT,Italy,country,Europe and Central Asia,41.87194,12.56738,NL,Netherlands,country,Europe and Central Asia,52.132633,5.291266,1989,328933,33407,15917,50067,72,718,65,73568,69457,165,10,12999,1507,20995,10095,19221,2,5709,14425,443,93,0,0,0
JP,Japan,country,East Asia and Pacific,36.204824,138.252924,NL,Netherlands,country,Europe and Central Asia,52.132633,5.291266,1989,3015,1571,0,8,0,0,188,17,312,30,0,61,3,496,12,317,0,0,0,0,0,0,0,0
JO,Jordan,country,Middle East and North Africa,30.585164,36.238414,NL,Netherlands,country,Europe and Central Asia,52.132633,5.291266,1989,114,0,0,0,0,0,0,101,13,0,0,0,0,0,0,0,0,0,0,0,0,0,0,0
KI,Kiribati,country,East Asia and Pacific,-3.370417,-168.734039,NL,Netherlands,country,Europe and Central Asia,52.132633,5.291266,1989,8607,0,0,0,0,0,8607,0,0,0,0,0,0,0,0,0,0,0,0,0,0,0,0,0
MW,Malawi,country,Sub-Saharan Africa,-13.254308,34.301525,NL,Netherlands,country,Europe and Central Asia,52.132633,5.291266,1989,9665,0,0,1440,0,0,0,3,0,0,111,0,2477,5634,0,0,0,0,0,0,0,0,0,0
MY,Malaysia,country,East Asia and Pacific,4.210484,101.975766,NL,Netherlands,country,Europe and Central Asia,52.132633,5.291266,1989,1147412,27,37,119,0,1,360,37,2759,0,788,586905,45372,39206,471478,8,0,0,0,0,315,0,0,0
MX,Mexico,country,Latin America and the Caribbean,23.634501,-102.552784,NL,Netherlands,country,Europe and Central Asia,52.132633,5.291266,1989,5239,0,2,323,0,0,196,863,691,0,219,15,1167,1538,49,176,0,0,0,0,0,0,0,0
MA,Morocco,country,Middle East and North Africa,31.791702,-7.09262,NL,Netherlands,country,Europe and Central Asia,52.132633,5.291266,1989,75999,0,540,27907,382,64,410,1451,43509,0,1209,40,0,395,92,0,0,0,0,0,0,0,0,0
NZ,New Zealand,country,East Asia and Pacific,-40.900557,174.885971,NL,Netherlands,country,Europe and Central Asia,52.132633,5.291266,1989,54091,0,0,162,3885,0,20,13310,2371,10219,0,63,0,538,7529,2,0,5870,10056,66,0,0,0,0
NO,Norway,country,Europe and Central Asia,60.472024,8.468946,NL,Netherlands,country,Europe and Central Asia,52.132633,5.291266,1989,4286,1797,0,3,0,24,5,11,157,25,3,60,59,184,247,777,0,185,749,0,0,0,0,0
OM,Oman,country,Middle East and North Africa,21.512583,55.923255,NL,Netherlands,country,Europe and Central Asia,52.132633,5.291266,1989,125,0,0,0,0,0,0,0,0,0,0,0,0,0,0,0,0,0,125,0,0,0,0,0
PK,Pakistan,country,South Asia,30.375321,69.345116,NL,Netherlands,country,Europe and Central Asia,52.132633,5.291266,1989,34722,0,0,34278,0,0,227,5,84,98,30,0,0,0,0,0,0,0,0,0,0,0,0,0
PA,Panama,country,Latin America and the Caribbean,8.537981,-80.782127,NL,Netherlands,country,Europe and Central Asia,52.132633,5.291266,1989,92,0,0,0,0,0,0,56,34,0,2,0,0,0,0,0,0,0,0,0,0,0,0,0
PG,Papua New Guinea,country,East Asia and Pacific,-6.314993,143.95555,NL,Netherlands,country,Europe and Central Asia,52.132633,5.291266,1989,60790,0,0,0,0,0,6740,0,0,0,3,20934,5541,1098,26474,0,0,0,0,0,0,0,0,0
PY,Paraguay,country,Latin America and the Caribbean,-23.442503,-58.443832,NL,Netherlands,country,Europe and Central Asia,52.132633,5.291266,1989,873281,0,0,0,0,0,831251,0,0,26,0,33255,0,191,8046,24,0,488,0,0,0,0,0,0
PE,Peru,country,Latin America and the Caribbean,-9.189967,-75.015152,NL,Netherlands,country,Europe and Central Asia,52.132633,5.291266,1989,11634,0,0,0,0,0,0,5914,3409,2,10,0,840,27,1432,0,0,0,0,0,0,0,0,0
PH,Philippines,country,East Asia and Pacific,12.879721,121.774017,NL,Netherlands,country,Europe and Central Asia,52.132633,5.291266,1989,717419,20,12621,0,0,0,21061,7,9107,0,2,394670,842,510,277749,61,0,0,0,0,769,0,0,0
PT,Portugal,country,Europe and Central Asia,39.399872,-8.224454,NL,Netherlands,country,Europe and Central Asia,52.132633,5.291266,1989,20065,10,2882,15,0,284,2,5724,1851,24,0,0,30,84,216,7472,0,121,1350,0,0,0,0,0
KR,"Korea, Rep.",country,East Asia and Pacific,35.907757,127.766922,NL,Netherlands,country,Europe and Central Asia,52.132633,5.291266,1989,1673,259,0,50,0,0,27,58,188,2,4,0,4,1074,0,7,0,0,0,0,0,0,0,0
RE,Reunion,country,Sub-Saharan Africa,-21.115141,55.536384,NL,Netherlands,country,Europe and Central Asia,52.132633,5.291266,1989,78,0,0,71,0,0,0,0,0,0,0,0,0,0,0,0,0,0,7,0,0,0,0,0
RO,Romania,country,Europe and Central Asia,45.943161,24.96676,NL,Netherlands,country,Europe and Central Asia,52.132633,5.291266,1989,12435,0,0,0,0,0,0,40,5026,0,0,0,0,0,0,341,0,158,6870,0,0,0,0,0
SN,Senegal,country,Sub-Saharan Africa,14.497401,-14.452362,NL,Netherlands,country,Europe and Central Asia,52.132633,5.291266,1989,39442,0,0,0,0,0,9788,12,248,0,0,18555,0,0,10822,0,0,0,0,17,0,0,0,0
SG,Singapore,country,East Asia and Pacific,1.352083,103.819836,NL,Netherlands,country,Europe and Central Asia,52.132633,5.291266,1989,53596,988,0,57,3,208,1673,103,1408,16,4876,0,20076,15250,6618,1723,0,40,557,0,0,0,0,0
ES,Spain,country,Europe and Central Asia,40.463667,-3.74922,NL,Netherlands,country,Europe and Central Asia,52.132633,5.291266,1989,508039,83338,1732,535,6,1611,958,132218,227581,482,888,9741,539,1069,1321,35488,0,1301,9150,81,0,0,0,0
LK,Sri Lanka,country,South Asia,7.873054,80.771797,NL,Netherlands,country,Europe and Central Asia,52.132633,5.291266,1989,17404,3,0,0,0,5,4624,293,187,0,122,6250,3121,2792,0,7,0,0,0,0,0,0,0,0
SR,Suriname,country,Latin America and the Caribbean,3.919305,-56.027783,NL,Netherlands,country,Europe and Central Asia,52.132633,5.291266,1989,46671,44034,189,0,0,0,29,1706,502,0,161,0,0,14,0,0,0,0,0,36,0,0,0,0
SE,Sweden,country,Europe and Central Asia,60.128161,18.643501,NL,Netherlands,country,Europe and Central Asia,52.132633,5.291266,1989,19530,1831,0,304,1,1,7621,63,939,6,0,228,488,734,5569,240,0,324,894,287,0,0,0,0
CH,Switzerland,country,Europe and Central Asia,46.818188,8.227512,NL,Netherlands,country,Europe and Central Asia,52.132633,5.291266,1989,13549,513,72,250,98,11,2,148,59,456,6,2439,755,4693,2477,154,0,108,1053,255,0,0,0,0
SY,Syrian Arab Rep.,country,Middle East and North Africa,34.802075,38.996815,NL,Netherlands,country,Europe and Central Asia,52.132633,5.291266,1989,70,0,0,0,0,0,0,70,0,0,0,0,0,0,0,0,0,0,0,0,0,0,0,0
TH,Thailand,country,East Asia and Pacific,15.870032,100.992541,NL,Netherlands,country,Europe and Central Asia,52.132633,5.291266,1989,4950788,39489,4712999,142416,1182,1,220,3122,28631,52,414,13513,25,5494,865,22,0,2295,48,0,0,0,0,0
TT,Trinidad and Tobago,country,Latin America and the Caribbean,10.691803,-61.222503,NL,Netherlands,country,Europe and Central Asia,52.132633,5.291266,1989,193,0,0,0,0,0,0,44,29,0,24,0,68,9,0,0,0,0,19,0,0,0,0,0
TN,Tunisia,country,Middle East and North Africa,33.886917,9.537499,NL,Netherlands,country,Europe and Central Asia,52.132633,5.291266,1989,3865,0,0,0,0,0,0,0,3815,0,0,0,0,50,0,0,0,0,0,0,0,0,0,0
TR,Turkey,country,Europe and Central Asia,38.963745,35.243322,NL,Netherlands,country,Europe and Central Asia,52.132633,5.291266,1989,60899,1679,2299,99,1281,8306,578,6275,21617,4436,671,15,1806,8742,2864,124,0,39,68,0,0,0,0,0
GB,United Kingdom,country,Europe and Central Asia,55.378051,-3.435973,NL,Netherlands,country,Europe and Central Asia,52.132633,5.291266,1989,851102,361054,695,10550,136851,305,3105,14875,21481,2330,309,40314,5464,22106,13230,27663,315,19375,161649,9703,43,0,0,0
US,USA,country,North America,37.09024,-95.712891,NL,Netherlands,country,Europe and Central Asia,52.132633,5.291266,1989,7426633,119988,41,64076,33267,13537,2611609,7113,80325,3507,269,4324623,465,34362,101699,6845,817,14942,1995,7949,21,0,0,0
UY,Uruguay,country,Latin America and the Caribbean,-32.522779,-55.765835,NL,Netherlands,country,Europe and Central Asia,52.132633,5.291266,1989,108353,18733,0,0,0,0,27026,130,16927,1673,0,37588,0,57,0,0,0,6219,0,0,0,0,0,0
VE,Venezuela,country,Latin America and the Caribbean,6.42375,-66.58973,NL,Netherlands,country,Europe and Central Asia,52.132633,5.291266,1989,5421,0,0,0,0,0,2,321,1876,1591,0,0,1511,92,0,28,0,0,0,0,0,0,0,0
BA,Bosnia & Herzegovina,country,Europe and Central Asia,43.915886,17.679076,NL,Netherlands,country,Europe and Central Asia,52.132633,5.291266,1989,20324,511,0,0,23,0,1175,5915,7528,73,29,3113,0,410,576,394,0,291,286,0,0,0,0,0
AR,Argentina,country,Latin America and the Caribbean,-38.416097,-63.616672,NL,Netherlands,country,Europe and Central Asia,52.132633,5.291266,1990,4871799,155218,0,1120,180,0,1388138,8502,213909,17912,0,2791655,4716,3316,261504,2627,0,22906,96,0,0,0,0,0
AU,Australia,country,East Asia and Pacific,-25.274398,133.775136,NL,Netherlands,country,Europe and Central Asia,52.132633,5.291266,1990,49068,624,0,21,42,260,383,858,2473,21034,0,900,0,216,5563,743,0,5354,9747,850,0,0,0,0
AT,Austria,country,Europe and Central Asia,47.516231,14.550072,NL,Netherlands,country,Europe and Central Asia,52.132633,5.291266,1990,42347,1890,25,925,384,0,2,1407,314,68,0,25418,720,349,6153,130,0,594,908,226,2834,0,0,0
BB,Barbados,country,Latin America and the Caribbean,13.193887,-59.543198,NL,Netherlands,country,Europe and Central Asia,52.132633,5.291266,1990,231,0,16,0,0,0,0,12,11,0,12,0,0,0,0,180,0,0,0,0,0,0,0,0
BE,Belgium,country,Europe and Central Asia,50.503887,4.469936,NL,Netherlands,country,Europe and Central Asia,52.132633,5.291266,1990,3208641,611628,336631,158467,24577,884,4084,158681,146015,7799,965,613818,40760,117694,125777,374341,16167,75617,391476,18089,1338,0,0,0
BO,Bolivia,country,Latin America and the Caribbean,-16.290154,-63.588653,NL,Netherlands,country,Europe and Central Asia,52.132633,5.291266,1990,424,18,0,0,0,406,0,0,0,0,0,0,0,0,0,0,0,0,0,0,0,0,0,0
BW,Botswana,country,Sub-Saharan Africa,-22.328474,24.684866,NL,Netherlands,country,Europe and Central Asia,52.132633,5.291266,1990,1704,0,0,0,0,0,0,0,0,0,0,0,0,0,0,0,3,1704,0,0,0,0,0,0
BR,Brazil,country,Latin America and the Caribbean,-14.235004,-51.92528,NL,Netherlands,country,Europe and Central Asia,52.132633,5.291266,1990,4958559,1616,15,50,0,1586,1500865,3596,391612,48,3526,2914734,53976,19595,56554,9,0,10767,0,10,0,0,0,0
CM,Cameroon,country,Sub-Saharan Africa,7.369722,12.354722,NL,Netherlands,country,Europe and Central Asia,52.132633,5.291266,1990,126194,0,0,0,0,0,0,0,6,0,0,0,118359,329,7500,0,1,0,0,0,0,0,0,0
CA,Canada,country,North America,56.130366,-106.346771,NL,Netherlands,country,Europe and Central Asia,52.132633,5.291266,1990,144344,9316,61,520,17226,42,39624,993,4189,24,23,713,161,2439,66572,68,12,1484,173,716,0,0,0,0
CL,Chile,country,Latin America and the Caribbean,-35.675147,-71.542969,NL,Netherlands,country,Europe and Central Asia,52.132633,5.291266,1990,204313,653,0,773,347,835,0,12589,184827,3400,13,40,3,99,27,366,0,275,0,66,0,0,0,0
HK,Hong Kong,country,East Asia and Pacific,22.396428,114.109497,NL,Netherlands,country,Europe and Central Asia,52.132633,5.291266,1990,12142,829,24,56,161,95,3665,2129,1431,17,25,0,33,2566,92,194,0,118,137,570,0,0,0,0
MO,"Macao SAR, China",country,East Asia and Pacific,22.198745,113.543873,NL,Netherlands,country,Europe and Central Asia,52.132633,5.291266,1990,0,0,0,0,0,0,0,0,0,0,0,0,0,0,0,0,0,0,0,0,0,0,0,0
CN,China,country,East Asia and Pacific,35.86166,104.195397,NL,Netherlands,country,Europe and Central Asia,52.132633,5.291266,1990,283839,11097,50814,890,16218,482,122460,9776,2907,2972,525,16851,2789,12551,30320,193,0,2881,106,7,0,0,0,0
TW,Taiwan,country,East Asia and Pacific,23.69781,120.960515,NL,Netherlands,country,Europe and Central Asia,52.132633,5.291266,1990,5074,225,0,97,1,0,67,3787,251,0,0,32,21,487,0,57,0,30,19,0,0,0,0,0
CO,Colombia,country,Latin America and the Caribbean,4.570868,-74.297333,NL,Netherlands,country,Europe and Central Asia,52.132633,5.291266,1990,55581,347,0,126,0,0,90,242,3917,0,0,0,50079,776,0,4,0,0,0,0,0,0,0,0
CY,Cyprus,country,Europe and Central Asia,35.126413,33.429859,NL,Netherlands,country,Europe and Central Asia,52.132633,5.291266,1990,7667,0,3716,0,0,0,0,0,2394,0,0,0,0,334,984,215,0,0,24,0,0,0,0,0
DK,Denmark,country,Europe and Central Asia,56.26392,9.501785,NL,Netherlands,country,Europe and Central Asia,52.132633,5.291266,1990,495141,256144,2064,1021,32277,6,93995,1043,762,34,298,30546,145,20184,28209,1552,736,3679,23128,54,0,0,0,0
EC,Ecuador,country,Latin America and the Caribbean,-1.831239,-78.183406,NL,Netherlands,country,Europe and Central Asia,52.132633,5.291266,1990,27047,0,0,0,0,0,0,953,15237,0,16,0,10237,604,0,0,0,0,0,0,0,0,0,0
EG,Egypt,country,Middle East and North Africa,26.820553,30.802498,NL,Netherlands,country,Europe and Central Asia,52.132633,5.291266,1990,15614,0,639,4500,10,0,991,5647,3478,22,255,0,0,24,44,4,0,0,0,0,0,0,0,0
ET,Ethiopia,country,Sub-Saharan Africa,9.145,40.489673,NL,Netherlands,country,Europe and Central Asia,52.132633,5.291266,1990,5146,0,0,0,3026,0,186,599,0,0,14,0,1279,0,0,0,0,0,10,32,0,0,0,0
FJ,Fiji,country,East Asia and Pacific,-16.578193,179.414413,NL,Netherlands,country,Europe and Central Asia,52.132633,5.291266,1990,153,0,0,0,0,0,0,0,0,0,133,0,20,0,0,0,0,0,0,0,0,0,0,0
FI,Finland,country,Europe and Central Asia,61.92411,25.748151,NL,Netherlands,country,Europe and Central Asia,52.132633,5.291266,1990,45816,39441,0,616,0,0,40,179,103,0,0,54,374,4,2518,20,0,279,1301,887,0,0,0,0
FR,France,country,Europe and Central Asia,46.227638,2.213749,NL,Netherlands,country,Europe and Central Asia,52.132633,5.291266,1990,7269229,4829389,13149,294338,651613,486,457308,52733,110094,654,434,326489,17745,42683,28744,153993,1238,22106,262640,4593,38,0,0,0
GR,Greece,country,Europe and Central Asia,39.074208,21.824312,NL,Netherlands,country,Europe and Central Asia,52.132633,5.291266,1990,146404,175,2813,20,4,404,458,23540,107733,791,0,0,112,6099,14,3995,0,143,103,0,0,0,0,0
GT,Guatemala,country,Latin America and the Caribbean,15.783471,-90.230759,NL,Netherlands,country,Europe and Central Asia,52.132633,5.291266,1990,12214,0,0,225,0,0,873,417,218,0,159,0,10269,0,0,53,0,0,0,0,0,0,0,0
IS,Iceland,country,Europe and Central Asia,64.963051,-19.020835,NL,Netherlands,country,Europe and Central Asia,52.132633,5.291266,1990,86,5,0,0,0,0,0,0,0,34,0,24,0,6,0,0,0,0,17,0,0,0,0,0
IN,India,country,South Asia,20.593684,78.96288,NL,Netherlands,country,Europe and Central Asia,52.132633,5.291266,1990,345334,1193,0,60714,0,7980,1678,389,1852,657,1102,259923,3006,2625,4148,67,0,0,0,0,0,0,0,0
ID,Indonesia,country,East Asia and Pacific,-0.789275,113.921327,NL,Netherlands,country,Europe and Central Asia,52.132633,5.291266,1990,1221253,3323,406274,8000,0,55,825,531,5952,18,10357,176616,66237,25898,516914,185,0,68,0,0,0,0,0,0
IE,Ireland,country,Europe and Central Asia,53.41291,-8.24389,NL,Netherlands,country,Europe and Central Asia,52.132633,5.291266,1990,151905,39310,108,1373,13,0,1662,161,75,11,0,23786,23,2932,2598,1981,0,8013,67493,2366,0,0,0,0
IT,Italy,country,Europe and Central Asia,41.87194,12.56738,NL,Netherlands,country,Europe and Central Asia,52.132633,5.291266,1990,288051,35366,9128,3885,165,491,157,71419,75483,78,46,19851,2173,21259,10012,18325,79,7549,12050,452,162,0,0,0
JP,Japan,country,East Asia and Pacific,36.204824,138.252924,NL,Netherlands,country,Europe and Central Asia,52.132633,5.291266,1990,3179,1600,0,42,0,0,189,14,312,18,0,19,3,479,134,366,0,0,3,0,0,0,0,0
JO,Jordan,country,Middle East and North Africa,30.585164,36.238414,NL,Netherlands,country,Europe and Central Asia,52.132633,5.291266,1990,177,0,10,0,0,0,0,133,0,0,0,0,0,0,0,5,0,15,14,0,0,0,0,0
KE,Kenya,country,Sub-Saharan Africa,-0.023559,37.906193,NL,Netherlands,country,Europe and Central Asia,52.132633,5.291266,1990,47959,7501,0,16224,6,17,324,942,8978,0,0,0,13967,0,0,0,0,0,0,0,0,0,0,0
KI,Kiribati,country,East Asia and Pacific,-3.370417,-168.734039,NL,Netherlands,country,Europe and Central Asia,52.132633,5.291266,1990,3572,0,0,0,0,0,3572,0,0,0,0,0,0,0,0,0,0,0,0,0,0,0,0,0
LY,Libya,country,Middle East and North Africa,26.3351,17.228331,NL,Netherlands,country,Europe and Central Asia,52.132633,5.291266,1990,203,0,76,0,0,0,0,101,14,0,0,0,0,3,0,0,0,0,0,9,0,0,0,0
MG,Madagascar,country,Sub-Saharan Africa,-18.766947,46.869107,NL,Netherlands,country,Europe and Central Asia,52.132633,5.291266,1990,7226,0,2980,0,0,0,0,0,63,0,501,0,3589,86,0,0,0,0,7,0,0,0,0,0
MY,Malaysia,country,East Asia and Pacific,4.210484,101.975766,NL,Netherlands,country,Europe and Central Asia,52.132633,5.291266,1990,1188990,20,118,9227,0,4,10343,42,2710,0,712,606424,28149,34928,494620,0,0,0,0,0,1693,0,0,0
MT,Malta,country,Middle East and North Africa,35.937496,14.375416,NL,Netherlands,country,Europe and Central Asia,52.132633,5.291266,1990,5907,0,5642,0,0,0,0,0,0,0,0,0,0,229,0,0,0,0,36,0,0,0,0,0
MU,Mauritius,country,Sub-Saharan Africa,-20.348404,57.552152,NL,Netherlands,country,Europe and Central Asia,52.132633,5.291266,1990,3075,0,0,2869,0,0,0,0,52,0,0,0,153,1,0,0,0,0,0,0,0,0,0,0
MX,Mexico,country,Latin America and the Caribbean,23.634501,-102.552784,NL,Netherlands,country,Europe and Central Asia,52.132633,5.291266,1990,6427,2,0,487,0,0,210,75,780,0,575,11,1172,189,22,2904,0,0,0,0,0,0,0,0
NZ,New Zealand,country,East Asia and Pacific,-40.900557,174.885971,NL,Netherlands,country,Europe and Central Asia,52.132633,5.291266,1990,34429,0,0,35,2713,0,86,3319,804,7020,0,29,0,438,10481,0,0,5135,4349,20,0,0,0,0
NO,Norway,country,Europe and Central Asia,60.472024,8.468946,NL,Netherlands,country,Europe and Central Asia,52.132633,5.291266,1990,1853,62,11,12,0,5,12,279,63,0,0,32,98,210,217,676,0,151,25,0,0,0,0,0
OM,Oman,country,Middle East and North Africa,21.512583,55.923255,NL,Netherlands,country,Europe and Central Asia,52.132633,5.291266,1990,19,0,0,0,0,0,0,0,0,0,0,0,0,0,0,0,0,0,19,0,0,0,0,0
PK,Pakistan,country,South Asia,30.375321,69.345116,NL,Netherlands,country,Europe and Central Asia,52.132633,5.291266,1990,116731,0,0,114449,0,0,871,3,512,669,90,0,0,137,0,0,0,0,0,0,0,0,0,0
PA,Panama,country,Latin America and the Caribbean,8.537981,-80.782127,NL,Netherlands,country,Europe and Central Asia,52.132633,5.291266,1990,296,0,0,0,0,0,0,59,40,0,0,0,0,0,0,0,0,0,0,197,0,0,0,0
PG,Papua New Guinea,country,East Asia and Pacific,-6.314993,143.95555,NL,Netherlands,country,Europe and Central Asia,52.132633,5.291266,1990,34683,0,0,0,0,0,0,0,0,0,0,17933,1596,829,14325,0,0,0,0,0,0,0,0,0
PY,Paraguay,country,Latin America and the Caribbean,-23.442503,-58.443832,NL,Netherlands,country,Europe and Central Asia,52.132633,5.291266,1990,854828,0,0,0,0,0,789307,0,0,173,15,63417,0,317,316,62,0,1221,0,0,0,0,0,0
PE,Peru,country,Latin America and the Caribbean,-9.189967,-75.015152,NL,Netherlands,country,Europe and Central Asia,52.132633,5.291266,1990,8096,0,0,0,94,0,0,3807,3194,66,10,40,684,201,0,0,0,0,0,0,0,0,0,0
PH,Philippines,country,East Asia and Pacific,12.879721,121.774017,NL,Netherlands,country,Europe and Central Asia,52.132633,5.291266,1990,966294,32,9,56,0,0,27601,10,11343,1,2,419454,804,908,506071,3,0,0,0,0,0,0,0,0
PT,Portugal,country,Europe and Central Asia,39.399872,-8.224454,NL,Netherlands,country,Europe and Central Asia,52.132633,5.291266,1990,30097,5260,2414,0,0,131,1,7567,2680,29,0,0,1,1,151,8014,0,0,3848,0,0,0,0,0
KR,"Korea, Rep.",country,East Asia and Pacific,35.907757,127.766922,NL,Netherlands,country,Europe and Central Asia,52.132633,5.291266,1990,1712,41,0,37,0,0,38,65,359,0,5,0,0,1145,16,6,0,0,0,0,0,0,0,0
RO,Romania,country,Europe and Central Asia,45.943161,24.96676,NL,Netherlands,country,Europe and Central Asia,52.132633,5.291266,1990,2655,0,0,0,0,0,0,0,2204,0,0,0,0,0,0,451,0,0,0,0,0,0,0,0
SN,Senegal,country,Sub-Saharan Africa,14.497401,-14.452362,NL,Netherlands,country,Europe and Central Asia,52.132633,5.291266,1990,85205,0,0,0,0,0,18556,14,77,0,0,46751,0,0,19805,0,0,0,0,2,0,0,0,0
SC,Seychelles,country,Sub-Saharan Africa,-4.679574,55.491977,NL,Netherlands,country,Europe and Central Asia,52.132633,5.291266,1990,13,0,0,0,0,0,0,0,0,0,0,0,0,0,0,13,0,0,0,0,0,0,0,0
SG,Singapore,country,East Asia and Pacific,1.352083,103.819836,NL,Netherlands,country,Europe and Central Asia,52.132633,5.291266,1990,28220,1310,0,6,0,257,6416,283,830,0,3847,0,11518,57,3006,509,0,1,180,0,0,0,0,0
ES,Spain,country,Europe and Central Asia,40.463667,-3.74922,NL,Netherlands,country,Europe and Central Asia,52.132633,5.291266,1990,602041,42393,876,690,3,1348,1759,226916,237408,36,1084,719,830,1927,31931,30713,0,808,22600,0,0,0,0,0
LK,Sri Lanka,country,South Asia,7.873054,80.771797,NL,Netherlands,country,Europe and Central Asia,52.132633,5.291266,1990,14546,0,206,0,1,0,7980,342,102,0,64,12,2835,2304,700,0,0,0,0,0,0,0,0,0
SR,Suriname,country,Latin America and the Caribbean,3.919305,-56.027783,NL,Netherlands,country,Europe and Central Asia,52.132633,5.291266,1990,44729,41798,287,0,0,0,33,2066,374,0,105,0,0,15,0,15,0,0,0,36,0,0,0,0
SE,Sweden,country,Europe and Central Asia,60.128161,18.643501,NL,Netherlands,country,Europe and Central Asia,52.132633,5.291266,1990,50024,20731,28,59,1,0,12831,367,1409,5,0,208,574,784,11870,494,0,317,149,197,0,0,0,0
CH,Switzerland,country,Europe and Central Asia,46.818188,8.227512,NL,Netherlands,country,Europe and Central Asia,52.132633,5.291266,1990,17373,255,0,247,72,8,6,113,500,644,2,6114,972,3994,3313,103,0,82,787,161,0,0,0,0
TH,Thailand,country,East Asia and Pacific,15.870032,100.992541,NL,Netherlands,country,Europe and Central Asia,52.132633,5.291266,1990,4196775,56215,3942629,138223,1645,0,8,3789,37066,0,658,2043,560,7660,0,30,0,6206,36,7,0,0,0,0
TT,Trinidad and Tobago,country,Latin America and the Caribbean,10.691803,-61.222503,NL,Netherlands,country,Europe and Central Asia,52.132633,5.291266,1990,1237,0,0,10,0,0,0,30,0,0,0,0,1171,0,0,26,0,0,0,0,0,0,0,0
TN,Tunisia,country,Middle East and North Africa,33.886917,9.537499,NL,Netherlands,country,Europe and Central Asia,52.132633,5.291266,1990,341,0,23,0,0,0,12,14,271,0,0,0,0,15,0,6,0,0,0,0,0,0,0,0
TR,Turkey,country,Europe and Central Asia,38.963745,35.243322,NL,Netherlands,country,Europe and Central Asia,52.132633,5.291266,1990,68073,901,2152,286,3149,8075,566,9142,26948,3670,1145,0,1433,4303,6127,106,0,18,52,0,0,0,0,0
GB,United Kingdom,country,Europe and Central Asia,55.378051,-3.435973,NL,Netherlands,country,Europe and Central Asia,52.132633,5.291266,1990,992459,632886,2003,10800,48301,327,28721,9814,15815,1785,675,34472,7304,25123,17244,25678,436,16701,106191,8595,24,0,0,0
US,USA,country,North America,37.09024,-95.712891,NL,Netherlands,country,Europe and Central Asia,52.132633,5.291266,1990,7080060,151899,97,87191,39655,15396,2398254,10969,85887,3459,366,4103791,3575,36544,115105,5190,708,11388,1718,9573,3,0,0,0
UY,Uruguay,country,Latin America and the Caribbean,-32.522779,-55.765835,NL,Netherlands,country,Europe and Central Asia,52.132633,5.291266,1990,76681,17300,0,61,0,0,2096,63,32399,3522,0,15383,0,0,2,3,0,5852,0,0,0,0,0,0
VE,Venezuela,country,Latin America and the Caribbean,6.42375,-66.58973,NL,Netherlands,country,Europe and Central Asia,52.132633,5.291266,1990,14064,0,31,0,0,0,1432,595,6111,1941,0,0,3889,24,0,41,0,0,0,0,0,0,0,0
BA,Bosnia & Herzegovina,country,Europe and Central Asia,43.915886,17.679076,NL,Netherlands,country,Europe and Central Asia,52.132633,5.291266,1990,23189,500,0,0,71,0,3154,3216,7202,0,42,5783,8,926,1706,379,0,105,28,69,0,0,0,0
ZW,Zimbabwe,country,Sub-Saharan Africa,-19.015438,29.154857,NL,Netherlands,country,Europe and Central Asia,52.132633,5.291266,1990,16195,0,0,0,0,0,1,229,313,551,6,0,1235,13858,0,0,0,2,0,0,0,0,0,0
AR,Argentina,country,Latin America and the Caribbean,-38.416097,-63.616672,NL,Netherlands,country,Europe and Central Asia,52.132633,5.291266,1991,5627075,142059,0,970,548,1,1885918,1543,186177,19430,0,3142311,2860,2011,225230,1972,0,16033,12,0,0,0,0,0
AU,Australia,country,East Asia and Pacific,-25.274398,133.775136,NL,Netherlands,country,Europe and Central Asia,52.132633,5.291266,1991,24369,1974,0,31,230,15,369,3135,1949,8518,35,256,45,76,56,814,0,3212,2163,1491,0,0,0,0
AT,Austria,country,Europe and Central Asia,47.516231,14.550072,NL,Netherlands,country,Europe and Central Asia,52.132633,5.291266,1991,46386,1454,0,1074,26,14,35,978,565,28,0,30865,527,348,7349,445,0,571,777,153,1177,0,0,0
BB,Barbados,country,Latin America and the Caribbean,13.193887,-59.543198,NL,Netherlands,country,Europe and Central Asia,52.132633,5.291266,1991,434,0,0,0,0,0,0,2,0,0,0,0,0,0,0,432,0,0,0,0,0,0,0,0
BE,Belgium,country,Europe and Central Asia,50.503887,4.469936,NL,Netherlands,country,Europe and Central Asia,52.132633,5.291266,1991,3402718,566396,399493,84447,32205,918,11527,186183,165217,8915,973,696672,42192,142183,145659,367002,23530,95558,425469,26383,5326,0,0,0
BO,Bolivia,country,Latin America and the Caribbean,-16.290154,-63.588653,NL,Netherlands,country,Europe and Central Asia,52.132633,5.291266,1991,470,18,0,0,0,234,0,0,78,0,0,0,140,0,0,0,0,0,0,0,0,0,0,0
BW,Botswana,country,Sub-Saharan Africa,-22.328474,24.684866,NL,Netherlands,country,Europe and Central Asia,52.132633,5.291266,1991,2323,0,0,0,0,0,0,0,0,0,0,0,0,0,0,0,5,2323,0,0,0,0,0,0
BR,Brazil,country,Latin America and the Caribbean,-14.235004,-51.92528,NL,Netherlands,country,Europe and Central Asia,52.132633,5.291266,1991,4654333,1502,11,201,754,966,774584,10001,454746,38,5638,3269403,77485,12814,32404,14,0,13772,0,0,0,0,0,0
CM,Cameroon,country,Sub-Saharan Africa,7.369722,12.354722,NL,Netherlands,country,Europe and Central Asia,52.132633,5.291266,1991,42372,0,15,0,0,0,0,0,0,0,0,0,41713,644,0,0,0,0,0,0,0,0,0,0
CA,Canada,country,North America,56.130366,-106.346771,NL,Netherlands,country,Europe and Central Asia,52.132633,5.291266,1991,183324,9106,19,421,27592,14,72252,1135,2016,0,4,263,128,1533,66463,65,0,1333,807,173,0,0,0,0
CL,Chile,country,Latin America and the Caribbean,-35.675147,-71.542969,NL,Netherlands,country,Europe and Central Asia,52.132633,5.291266,1991,267295,646,0,1210,1037,780,1,12472,245769,3806,26,0,39,383,50,750,0,326,0,0,0,0,0,0
HK,Hong Kong,country,East Asia and Pacific,22.396428,114.109497,NL,Netherlands,country,Europe and Central Asia,52.132633,5.291266,1991,9588,746,12,80,194,134,530,3759,1360,0,165,0,141,1882,114,226,0,81,107,57,0,0,0,0
MO,"Macao SAR, China",country,East Asia and Pacific,22.198745,113.543873,NL,Netherlands,country,Europe and Central Asia,52.132633,5.291266,1991,0,0,0,0,0,0,0,0,0,0,0,0,0,0,0,0,0,0,0,0,0,0,0,0
CN,China,country,East Asia and Pacific,35.86166,104.195397,NL,Netherlands,country,Europe and Central Asia,52.132633,5.291266,1991,455787,12250,145475,804,21517,255,138787,15217,2646,943,497,68205,2642,12999,29387,268,0,3830,62,3,0,0,0,0
TW,Taiwan,country,East Asia and Pacific,23.69781,120.960515,NL,Netherlands,country,Europe and Central Asia,52.132633,5.291266,1991,4568,117,0,152,0,0,19,3026,736,0,0,36,7,319,4,89,0,0,63,0,0,0,0,0
CO,Colombia,country,Latin America and the Caribbean,4.570868,-74.297333,NL,Netherlands,country,Europe and Central Asia,52.132633,5.291266,1991,40557,1048,0,161,0,2,0,550,10358,0,0,0,26957,1475,0,6,0,0,0,0,0,0,0,0
CR,Costa Rica,country,Latin America and the Caribbean,9.748917,-83.753428,NL,Netherlands,country,Europe and Central Asia,52.132633,5.291266,1991,16666,98,1129,17,0,19,433,766,4678,0,325,0,9201,0,0,0,0,0,0,0,0,0,0,0
DK,Denmark,country,Europe and Central Asia,56.26392,9.501785,NL,Netherlands,country,Europe and Central Asia,52.132633,5.291266,1991,688846,512884,2087,1250,20433,1,52118,965,603,67,807,48023,187,17626,9732,1805,632,6668,13452,116,22,0,0,0
EC,Ecuador,country,Latin America and the Caribbean,-1.831239,-78.183406,NL,Netherlands,country,Europe and Central Asia,52.132633,5.291266,1991,21675,0,0,0,3,0,0,376,12168,0,0,110,8534,484,0,0,0,0,0,0,0,0,0,0
EG,Egypt,country,Middle East and North Africa,26.820553,30.802498,NL,Netherlands,country,Europe and Central Asia,52.132633,5.291266,1991,15007,30,1049,0,3,0,1546,4711,7528,9,130,0,0,1,0,0,0,0,0,0,0,0,0,0
SV,El Salvador,country,Latin America and the Caribbean,13.794185,-88.89653,NL,Netherlands,country,Europe and Central Asia,52.132633,5.291266,1991,2532,14,0,0,0,0,1561,15,0,0,1,0,941,0,0,0,0,0,0,0,0,0,0,0
ET,Ethiopia,country,Sub-Saharan Africa,9.145,40.489673,NL,Netherlands,country,Europe and Central Asia,52.132633,5.291266,1991,3278,0,0,0,1934,0,137,361,244,0,0,0,589,0,0,0,0,0,0,13,0,0,0,0
FO,Faroe Islands,country,Europe and Central Asia,61.892635,-6.911806,NL,Netherlands,country,Europe and Central Asia,52.132633,5.291266,1991,13,0,0,0,0,0,0,0,0,0,0,0,0,0,0,0,0,0,0,13,0,0,0,0
FJ,Fiji,country,East Asia and Pacific,-16.578193,179.414413,NL,Netherlands,country,Europe and Central Asia,52.132633,5.291266,1991,84,0,0,0,0,0,0,0,0,0,84,0,0,0,0,0,0,0,0,0,0,0,0,0
FI,Finland,country,Europe and Central Asia,61.92411,25.748151,NL,Netherlands,country,Europe and Central Asia,52.132633,5.291266,1991,43232,38721,0,346,0,7,53,2,68,0,5,2,456,13,569,30,0,441,1851,668,0,0,0,0
FR,France,country,Europe and Central Asia,46.227638,2.213749,NL,Netherlands,country,Europe and Central Asia,52.132633,5.291266,1991,4938141,2766229,20540,63407,612282,536,399616,67540,114716,3964,124,388457,18360,48392,25059,190346,1778,23030,189369,6133,41,0,0,0
GF,French Guiana,country,Latin America and the Caribbean,3.933889,-53.125782,NL,Netherlands,country,Europe and Central Asia,52.132633,5.291266,1991,1497,1497,0,0,0,0,0,0,0,0,0,0,0,0,0,0,0,0,0,0,0,0,0,0
DE,Germany,country,Europe and Central Asia,51.165691,10.451526,NL,Netherlands,country,Europe and Central Asia,52.132633,5.291266,1991,13542649,1289271,574313,185304,4078,3187,152568,91046,133310,7138,1756,1932032,52953,60931,610423,7511112,17471,57972,825763,44952,4540,0,0,0
GR,Greece,country,Europe and Central Asia,39.074208,21.824312,NL,Netherlands,country,Europe and Central Asia,52.132633,5.291266,1991,151751,19055,5885,23,0,65,283,20721,97410,228,0,0,35,4882,6,2852,0,117,189,0,0,0,0,0
GD,Grenada,country,Latin America and the Caribbean,12.262776,-61.604171,NL,Netherlands,country,Europe and Central Asia,52.132633,5.291266,1991,1083,0,2,0,0,0,0,3,75,0,512,0,491,0,0,0,0,0,0,0,0,0,0,0
GT,Guatemala,country,Latin America and the Caribbean,15.783471,-90.230759,NL,Netherlands,country,Europe and Central Asia,52.132633,5.291266,1991,15334,0,0,85,0,0,1107,451,812,0,71,0,12808,0,0,0,0,0,0,0,0,0,0,0
HN,Honduras,country,Latin America and the Caribbean,15.199999,-86.241905,NL,Netherlands,country,Europe and Central Asia,52.132633,5.291266,1991,7231,0,179,0,0,0,181,54,239,0,10,0,6561,7,0,0,0,0,0,0,0,0,0,0
HU,Hungary,country,Europe and Central Asia,47.162494,19.503304,NL,Netherlands,country,Europe and Central Asia,52.132633,5.291266,1991,127706,15290,49,176,17789,0,20770,11387,12221,0,603,11250,388,1670,19163,532,0,9105,7278,35,0,0,0,0
IS,Iceland,country,Europe and Central Asia,64.963051,-19.020835,NL,Netherlands,country,Europe and Central Asia,52.132633,5.291266,1991,97,0,0,0,0,0,0,0,0,0,0,94,0,3,0,0,0,0,0,0,0,0,0,0
IN,India,country,South Asia,20.593684,78.96288,NL,Netherlands,country,Europe and Central Asia,52.132633,5.291266,1991,581360,2274,0,132615,0,12189,1789,815,2421,109,1066,416285,5356,1667,4768,6,0,0,0,0,0,0,0,0
ID,Indonesia,country,East Asia and Pacific,-0.789275,113.921327,NL,Netherlands,country,Europe and Central Asia,52.132633,5.291266,1991,1219330,3224,290347,632,9,119,1123,237,13451,53,8327,249343,28968,37349,585816,252,0,78,2,0,0,0,0,0
IE,Ireland,country,Europe and Central Asia,53.41291,-8.24389,NL,Netherlands,country,Europe and Central Asia,52.132633,5.291266,1991,180159,21162,85,2140,11,0,0,151,469,95,0,27541,107,3672,3705,2879,0,16269,98973,2900,0,0,0,0
IT,Italy,country,Europe and Central Asia,41.87194,12.56738,NL,Netherlands,country,Europe and Central Asia,52.132633,5.291266,1991,312717,44452,19326,2469,183,936,360,68811,83401,186,34,4274,2888,22391,9255,20279,213,15016,17928,508,20,0,0,0
JP,Japan,country,East Asia and Pacific,36.204824,138.252924,NL,Netherlands,country,Europe and Central Asia,52.132633,5.291266,1991,3761,2274,0,30,0,0,233,15,227,18,0,32,4,514,18,394,0,0,2,0,0,0,0,0
JO,Jordan,country,Middle East and North Africa,30.585164,36.238414,NL,Netherlands,country,Europe and Central Asia,52.132633,5.291266,1991,230,0,0,0,0,0,0,63,7,0,0,0,0,15,0,0,0,134,11,0,0,0,0,0
KE,Kenya,country,Sub-Saharan Africa,-0.023559,37.906193,NL,Netherlands,country,Europe and Central Asia,52.132633,5.291266,1991,75785,2,0,31223,13000,191,861,3013,7962,0,2,0,10527,8993,0,0,0,0,11,0,0,0,0,0
LY,Libya,country,Middle East and North Africa,26.3351,17.228331,NL,Netherlands,country,Europe and Central Asia,52.132633,5.291266,1991,22,0,0,0,0,0,0,9,13,0,0,0,0,0,0,0,0,0,0,0,0,0,0,0
MG,Madagascar,country,Sub-Saharan Africa,-18.766947,46.869107,NL,Netherlands,country,Europe and Central Asia,52.132633,5.291266,1991,2280,0,0,0,0,0,169,6,101,0,420,0,1394,137,0,0,0,42,11,0,0,0,0,0
MY,Malaysia,country,East Asia and Pacific,4.210484,101.975766,NL,Netherlands,country,Europe and Central Asia,52.132633,5.291266,1991,1201255,17,51,8680,0,0,3782,30,3072,2,925,572655,21389,32592,557155,16,0,0,95,0,794,0,0,0
MT,Malta,country,Middle East and North Africa,35.937496,14.375416,NL,Netherlands,country,Europe and Central Asia,52.132633,5.291266,1991,3198,0,2984,0,0,0,0,0,0,0,0,0,0,214,0,0,0,0,0,0,0,0,0,0
MU,Mauritius,country,Sub-Saharan Africa,-20.348404,57.552152,NL,Netherlands,country,Europe and Central Asia,52.132633,5.291266,1991,4558,0,0,4467,0,0,0,0,21,0,8,0,60,2,0,0,0,0,0,0,0,0,0,0
MX,Mexico,country,Latin America and the Caribbean,23.634501,-102.552784,NL,Netherlands,country,Europe and Central Asia,52.132633,5.291266,1991,7960,0,0,481,0,0,2407,78,1104,0,425,9,1999,181,38,1238,0,0,0,0,0,0,0,0
MA,Morocco,country,Middle East and North Africa,31.791702,-7.09262,NL,Netherlands,country,Europe and Central Asia,52.132633,5.291266,1991,74380,0,2511,29200,84,211,759,2020,36883,0,2053,0,0,488,171,0,0,0,0,0,0,0,0,0
NZ,New Zealand,country,East Asia and Pacific,-40.900557,174.885971,NL,Netherlands,country,Europe and Central Asia,52.132633,5.291266,1991,29863,0,0,71,1686,0,298,5332,698,4023,0,34,0,0,4579,24,0,6979,6139,0,0,0,0,0
NI,Nicaragua,country,Latin America and the Caribbean,12.865416,-85.207229,NL,Netherlands,country,Europe and Central Asia,52.132633,5.291266,1991,1760,0,0,0,0,0,557,0,4,0,0,0,1158,41,0,0,0,0,0,0,0,0,0,0
NO,Norway,country,Europe and Central Asia,60.472024,8.468946,NL,Netherlands,country,Europe and Central Asia,52.132633,5.291266,1991,4746,52,0,3171,2,2,10,14,163,0,10,16,83,38,269,607,0,136,127,46,0,0,0,0
PK,Pakistan,country,South Asia,30.375321,69.345116,NL,Netherlands,country,Europe and Central Asia,52.132633,5.291266,1991,75060,9912,0,61982,0,0,341,0,1945,630,212,0,0,38,0,0,0,0,0,0,0,0,0,0
PA,Panama,country,Latin America and the Caribbean,8.537981,-80.782127,NL,Netherlands,country,Europe and Central Asia,52.132633,5.291266,1991,53,0,0,0,0,0,0,7,28,0,0,10,0,0,0,8,0,0,0,0,0,0,0,0
PG,Papua New Guinea,country,East Asia and Pacific,-6.314993,143.95555,NL,Netherlands,country,Europe and Central Asia,52.132633,5.291266,1991,25313,0,0,0,0,0,0,0,0,0,0,11805,1456,806,11246,0,0,0,0,0,0,0,0,0
PY,Paraguay,country,Latin America and the Caribbean,-23.442503,-58.443832,NL,Netherlands,country,Europe and Central Asia,52.132633,5.291266,1991,578944,0,0,0,0,0,524541,0,0,0,0,45794,0,247,6301,0,0,2061,0,0,0,0,0,0
PE,Peru,country,Latin America and the Caribbean,-9.189967,-75.015152,NL,Netherlands,country,Europe and Central Asia,52.132633,5.291266,1991,40863,0,0,0,0,0,17,36212,3339,25,6,0,676,588,0,0,0,0,0,0,0,0,0,0
PH,Philippines,country,East Asia and Pacific,12.879721,121.774017,NL,Netherlands,country,Europe and Central Asia,52.132633,5.291266,1991,641728,41,1,15,0,18,4270,10,11369,0,3,377384,318,1861,246438,0,0,0,0,0,0,0,0,0
PT,Portugal,country,Europe and Central Asia,39.399872,-8.224454,NL,Netherlands,country,Europe and Central Asia,52.132633,5.291266,1991,40979,1226,3299,0,14,391,20,10725,7962,59,0,7,38,84,117,10184,0,0,6853,0,0,0,0,0
KR,"Korea, Rep.",country,East Asia and Pacific,35.907757,127.766922,NL,Netherlands,country,Europe and Central Asia,52.132633,5.291266,1991,1139,25,0,110,0,0,38,38,226,0,1,0,2,670,0,6,0,23,0,0,0,0,0,0
RE,Reunion,country,Sub-Saharan Africa,-21.115141,55.536384,NL,Netherlands,country,Europe and Central Asia,52.132633,5.291266,1991,29,0,0,0,0,0,0,0,0,0,0,0,0,0,0,0,0,29,0,0,0,0,0,0
RO,Romania,country,Europe and Central Asia,45.943161,24.96676,NL,Netherlands,country,Europe and Central Asia,52.132633,5.291266,1991,11560,0,0,0,0,19,0,516,8964,0,0,0,0,23,0,622,0,250,1147,19,0,0,0,0
SN,Senegal,country,Sub-Saharan Africa,14.497401,-14.452362,NL,Netherlands,country,Europe and Central Asia,52.132633,5.291266,1991,14383,0,0,0,0,0,10004,0,18,0,0,3557,0,0,800,0,0,0,4,0,0,0,0,0
SC,Seychelles,country,Sub-Saharan Africa,-4.679574,55.491977,NL,Netherlands,country,Europe and Central Asia,52.132633,5.291266,1991,48,0,0,0,0,0,0,0,0,0,34,0,0,0,0,14,0,0,0,0,0,0,0,0
SG,Singapore,country,East Asia and Pacific,1.352083,103.819836,NL,Netherlands,country,Europe and Central Asia,52.132633,5.291266,1991,30431,1372,0,8,0,66,8069,66,837,15,4140,0,9808,4269,1507,245,0,13,16,0,0,0,0,0
ES,Spain,country,Europe and Central Asia,40.463667,-3.74922,NL,Netherlands,country,Europe and Central Asia,52.132633,5.291266,1991,643477,50862,2246,722,0,930,1535,284726,243933,8,847,7745,1101,2532,931,39580,22,1267,3940,572,0,0,0,0
LK,Sri Lanka,country,South Asia,7.873054,80.771797,NL,Netherlands,country,Europe and Central Asia,52.132633,5.291266,1991,14970,0,50,0,0,0,6821,484,224,0,217,0,3635,3539,0,0,0,0,0,0,0,0,0,0
SR,Suriname,country,Latin America and the Caribbean,3.919305,-56.027783,NL,Netherlands,country,Europe and Central Asia,52.132633,5.291266,1991,44421,40513,447,0,0,0,49,2805,327,0,228,0,0,44,0,8,0,0,0,0,0,0,0,0
SE,Sweden,country,Europe and Central Asia,60.128161,18.643501,NL,Netherlands,country,Europe and Central Asia,52.132633,5.291266,1991,28474,8168,0,64,5,25,14624,280,484,14,0,162,805,556,2223,441,0,169,219,132,103,0,0,0
CH,Switzerland,country,Europe and Central Asia,46.818188,8.227512,NL,Netherlands,country,Europe and Central Asia,52.132633,5.291266,1991,17880,227,0,353,64,18,0,77,74,589,8,7562,2383,3598,1629,61,0,32,820,385,0,0,0,0
TH,Thailand,country,East Asia and Pacific,15.870032,100.992541,NL,Netherlands,country,Europe and Central Asia,52.132633,5.291266,1991,4137330,55213,3952842,64986,1066,36,74,4532,41412,16,777,5786,1080,7188,0,67,0,2178,27,50,0,0,0,0
TT,Trinidad and Tobago,country,Latin America and the Caribbean,10.691803,-61.222503,NL,Netherlands,country,Europe and Central Asia,52.132633,5.291266,1991,16487,95,0,15887,0,0,61,0,0,0,0,0,405,0,0,38,0,1,0,0,0,0,0,0
TN,Tunisia,country,Middle East and North Africa,33.886917,9.537499,NL,Netherlands,country,Europe and Central Asia,52.132633,5.291266,1991,450,0,116,0,0,0,0,6,291,0,0,0,0,37,0,0,0,0,0,0,0,0,0,0
TR,Turkey,country,Europe and Central Asia,38.963745,35.243322,NL,Netherlands,country,Europe and Central Asia,52.132633,5.291266,1991,122550,14802,1214,24550,3768,6304,1415,17873,24609,4038,928,0,232,8772,13782,195,0,0,68,0,0,0,0,0
GB,United Kingdom,country,Europe and Central Asia,55.378051,-3.435973,NL,Netherlands,country,Europe and Central Asia,52.132633,5.291266,1991,1133826,697899,3267,26963,44463,322,62134,14448,31738,1160,311,27797,8158,30130,28733,33467,381,26599,89593,6619,25,0,0,0
US,USA,country,North America,37.09024,-95.712891,NL,Netherlands,country,Europe and Central Asia,52.132633,5.291266,1991,6804048,224363,887,82722,46044,21438,2734161,18778,84150,2749,236,3373759,834,33245,151848,7276,633,8331,8260,4950,17,0,0,0
UY,Uruguay,country,Latin America and the Caribbean,-32.522779,-55.765835,NL,Netherlands,country,Europe and Central Asia,52.132633,5.291266,1991,58835,0,0,164,0,0,250,3,50076,1682,0,1630,0,41,0,3,0,4341,645,0,0,0,0,0
VE,Venezuela,country,Latin America and the Caribbean,6.42375,-66.58973,NL,Netherlands,country,Europe and Central Asia,52.132633,5.291266,1991,7655,56,100,0,12,0,109,160,2995,608,0,0,2911,15,486,203,0,0,0,0,0,0,0,0
ZW,Zimbabwe,country,Sub-Saharan Africa,-19.015438,29.154857,NL,Netherlands,country,Europe and Central Asia,52.132633,5.291266,1991,10382,0,13,0,0,41,5,980,245,70,14,0,1093,7563,0,23,0,335,0,0,0,0,0,0
DZ,Algeria,country,Middle East and North Africa,28.033886,1.659626,NL,Netherlands,country,Europe and Central Asia,52.132633,5.291266,1992,206,0,196,0,0,0,0,0,10,0,0,0,0,0,0,0,0,0,0,0,0,0,0,0
AR,Argentina,country,Latin America and the Caribbean,-38.416097,-63.616672,NL,Netherlands,country,Europe and Central Asia,52.132633,5.291266,1992,4160617,120104,10,916,256,0,1167759,2185,182193,12753,40,2447900,2231,1180,204845,1946,0,16291,0,8,0,0,0,0
AU,Australia,country,East Asia and Pacific,-25.274398,133.775136,NL,Netherlands,country,Europe and Central Asia,52.132633,5.291266,1992,96521,13123,0,36769,20342,16,568,1405,7306,9604,9,1312,63,55,916,1058,0,3018,555,402,0,0,0,0
AT,Austria,country,Europe and Central Asia,47.516231,14.550072,NL,Netherlands,country,Europe and Central Asia,52.132633,5.291266,1992,40489,1353,21,1182,0,12,217,255,381,17,20,25528,388,760,7027,812,0,603,534,522,857,0,0,0
BB,Barbados,country,Latin America and the Caribbean,13.193887,-59.543198,NL,Netherlands,country,Europe and Central Asia,52.132633,5.291266,1992,483,9,2,0,0,0,0,5,0,0,0,0,0,0,0,467,0,0,0,0,0,0,0,0
BE,Belgium,country,Europe and Central Asia,50.503887,4.469936,NL,Netherlands,country,Europe and Central Asia,52.132633,5.291266,1992,3529074,567821,599827,66857,19525,1014,15663,208367,210686,8395,948,706393,47003,45917,130322,350804,28577,112183,408543,28407,399,0,0,0
BZ,Belize,country,Latin America and the Caribbean,17.189877,-88.49765,NL,Netherlands,country,Europe and Central Asia,52.132633,5.291266,1992,194,0,0,0,0,0,0,0,159,0,0,0,0,0,0,17,0,0,18,0,0,0,0,0
BJ,Benin,country,Sub-Saharan Africa,9.30769,2.315834,NL,Netherlands,country,Europe and Central Asia,52.132633,5.291266,1992,2587,0,0,0,0,0,0,0,0,0,0,0,50,25,2512,0,0,0,0,0,0,0,0,0
BO,Bolivia,country,Latin America and the Caribbean,-16.290154,-63.588653,NL,Netherlands,country,Europe and Central Asia,52.132633,5.291266,1992,434,0,0,0,0,385,0,0,0,0,0,0,49,0,0,0,0,0,0,0,0,0,0,0
BW,Botswana,country,Sub-Saharan Africa,-22.328474,24.684866,NL,Netherlands,country,Europe and Central Asia,52.132633,5.291266,1992,1795,0,0,0,0,0,0,0,0,0,0,0,0,0,0,0,7,1795,0,0,0,0,0,0
BR,Brazil,country,Latin America and the Caribbean,-14.235004,-51.92528,NL,Netherlands,country,Europe and Central Asia,52.132633,5.291266,1992,5554050,1925,11,574,0,1399,1341322,9252,466810,222,1834,3570325,67112,19752,51085,15,0,22412,0,0,0,0,0,0
CA,Canada,country,North America,56.130366,-106.346771,NL,Netherlands,country,Europe and Central Asia,52.132633,5.291266,1992,327874,125793,18,245,39513,141,68362,473,2555,0,0,3518,231,995,83457,96,18,1192,765,520,0,0,0,0
CL,Chile,country,Latin America and the Caribbean,-35.675147,-71.542969,NL,Netherlands,country,Europe and Central Asia,52.132633,5.291266,1992,289781,452,0,1012,1033,410,0,4263,278531,1988,0,0,0,505,0,1387,0,193,0,7,0,0,0,0
HK,Hong Kong,country,East Asia and Pacific,22.396428,114.109497,NL,Netherlands,country,Europe and Central Asia,52.132633,5.291266,1992,13197,860,25,84,218,238,730,4877,1848,0,92,400,225,3083,135,236,0,10,136,0,0,0,0,0
CN,China,country,East Asia and Pacific,35.86166,104.195397,NL,Netherlands,country,Europe and Central Asia,52.132633,5.291266,1992,345735,23243,58073,30555,20332,465,104397,26306,4536,1416,589,18454,2461,24872,25005,185,0,4766,80,0,0,0,0,0
TW,Taiwan,country,East Asia and Pacific,23.69781,120.960515,NL,Netherlands,country,Europe and Central Asia,52.132633,5.291266,1992,3505,263,0,25,0,0,8,2459,149,17,0,15,14,401,11,85,10,24,15,19,0,0,0,0
CO,Colombia,country,Latin America and the Caribbean,4.570868,-74.297333,NL,Netherlands,country,Europe and Central Asia,52.132633,5.291266,1992,37236,992,0,0,0,0,36,2,8745,49,0,0,26368,1041,0,3,0,0,0,0,0,0,0,0
CR,Costa Rica,country,Latin America and the Caribbean,9.748917,-83.753428,NL,Netherlands,country,Europe and Central Asia,52.132633,5.291266,1992,8509,178,1314,20,0,1,318,303,1375,0,139,0,4861,0,0,0,0,0,0,0,0,0,0,0
HR,Croatia,country,Europe and Central Asia,45.1,15.2,NL,Netherlands,country,Europe and Central Asia,52.132633,5.291266,1992,4218,0,0,0,0,0,616,159,306,17,0,652,46,0,1156,93,0,612,514,47,0,0,0,0
DK,Denmark,country,Europe and Central Asia,56.26392,9.501785,NL,Netherlands,country,Europe and Central Asia,52.132633,5.291266,1992,299360,210528,381,2021,7355,5,11487,796,679,44,205,21418,482,1521,13912,1255,1448,10823,16064,384,0,0,0,0
EC,Ecuador,country,Latin America and the Caribbean,-1.831239,-78.183406,NL,Netherlands,country,Europe and Central Asia,52.132633,5.291266,1992,22759,0,0,0,0,0,1000,235,13549,0,0,193,7170,0,606,0,0,6,0,0,0,0,0,0
EG,Egypt,country,Middle East and North Africa,26.820553,30.802498,NL,Netherlands,country,Europe and Central Asia,52.132633,5.291266,1992,19800,510,6914,2,17,0,1377,6183,4551,110,89,0,0,38,7,0,0,2,0,0,0,0,0,0
SV,El Salvador,country,Latin America and the Caribbean,13.794185,-88.89653,NL,Netherlands,country,Europe and Central Asia,52.132633,5.291266,1992,3219,6,0,22,0,0,1363,6,140,0,1,0,1671,0,0,10,0,0,0,0,0,0,0,0
ET,Ethiopia,country,Sub-Saharan Africa,9.145,40.489673,NL,Netherlands,country,Europe and Central Asia,52.132633,5.291266,1992,1136,0,449,0,491,0,0,43,95,0,11,0,25,0,0,0,0,0,0,22,0,0,0,0
FI,Finland,country,Europe and Central Asia,61.92411,25.748151,NL,Netherlands,country,Europe and Central Asia,52.132633,5.291266,1992,41297,33010,0,241,0,0,0,10,115,0,59,811,544,2,3082,26,0,349,2956,92,0,0,0,0
FR,France,country,Europe and Central Asia,46.227638,2.213749,NL,Netherlands,country,Europe and Central Asia,52.132633,5.291266,1992,4952259,3028426,16561,42002,511768,675,366363,64150,95489,1676,74,357865,19036,15660,43441,179681,2364,27707,175494,6191,0,0,0,0
GF,French Guiana,country,Latin America and the Caribbean,3.933889,-53.125782,NL,Netherlands,country,Europe and Central Asia,52.132633,5.291266,1992,2728,2728,0,0,0,0,0,0,0,0,0,0,0,0,0,0,0,0,0,0,0,0,0,0
