sourceCode,sourceName,sourceGrouping,sourceRegion,sourceLat,sourceLong,destCode,destName,destGrouping,destRegion,destLat,destLong,distance,year,totalTons,cereals,roots,sugarCrops,pulses,nuts,oilCrops,vegetables,fruits,fibers,spices,fodderCrops,coffeeTea,tobaccoRubber,oilsFats,beverages,livestock,animalMeats,animalProducts,animalHides,nimalOther,pesticides,fertilizers,machinery
AR,Argentina,country,Latin America and the Caribbean,-38.416097,-63.616672,IE,Ireland,country,Europe and Central Asia,53.41291,-8.24389,11522.294499324,1986,47654,0,0,191,0,0,0,0,0,0,0,47326,0,129,0,8,0,0,0,0,0,0,0,0
AU,Australia,country,East Asia and Pacific,-25.274398,133.775136,IE,Ireland,country,Europe and Central Asia,53.41291,-8.24389,15600.7918271035,1986,9028,0,0,6921,0,0,0,918,278,536,0,1,0,77,2,8,0,287,0,0,0,0,0,0
AT,Austria,country,Europe and Central Asia,47.516231,14.550072,IE,Ireland,country,Europe and Central Asia,53.41291,-8.24389,1734.01805372052,1986,20,3,0,1,0,0,0,0,0,0,0,0,1,0,0,5,0,10,0,0,0,0,0,0
BS,The Bahamas,country,Latin America and the Caribbean,25.03428,-77.39628,IE,Ireland,country,Europe and Central Asia,53.41291,-8.24389,6441.08139131673,1986,389,0,0,0,0,0,0,0,0,0,0,0,0,0,0,389,0,0,0,0,0,0,0,0
BD,Bangladesh,country,South Asia,23.684994,90.356331,IE,Ireland,country,Europe and Central Asia,53.41291,-8.24389,8466.8138694039,1986,4,0,0,0,0,0,0,0,0,0,0,0,4,0,0,0,0,0,0,0,0,0,0,0
BE,Belgium,country,Europe and Central Asia,50.503887,4.469936,IE,Ireland,country,Europe and Central Asia,53.41291,-8.24389,928.771767899146,1986,35519,9801,4931,468,10,40,40,112,696,45,0,13228,0,1561,3154,569,0,498,366,0,0,0,0,0
BZ,Belize,country,Latin America and the Caribbean,17.189877,-88.49765,IE,Ireland,country,Europe and Central Asia,53.41291,-8.24389,7848.76208188446,1986,31,0,0,0,0,0,0,0,31,0,0,0,0,0,0,0,0,0,0,0,0,0,0,0
BJ,Benin,country,Sub-Saharan Africa,9.30769,2.315834,IE,Ireland,country,Europe and Central Asia,53.41291,-8.24389,5000.39888064552,1986,144,0,0,0,0,0,0,0,0,144,0,0,0,0,0,0,0,0,0,0,0,0,0,0
BM,Bermuda,country,North America,32.321384,-64.75737,IE,Ireland,country,Europe and Central Asia,53.41291,-8.24389,5008.34539550424,1986,1,0,0,0,0,0,0,0,0,0,0,0,0,0,0,1,0,0,0,0,0,0,0,0
BR,Brazil,country,Latin America and the Caribbean,-14.235004,-51.92528,IE,Ireland,country,Europe and Central Asia,53.41291,-8.24389,8601.55203375784,1986,29341,0,0,0,0,0,0,0,180,0,2,27875,75,1205,0,4,0,0,0,0,0,0,0,0
BG,Bulgaria,country,Europe and Central Asia,42.733883,25.48583,IE,Ireland,country,Europe and Central Asia,53.41291,-8.24389,2742.32315215206,1986,136,0,0,88,0,0,0,0,0,0,0,0,0,0,0,48,0,0,0,0,0,0,0,0
CM,Cameroon,country,Sub-Saharan Africa,7.369722,12.354722,IE,Ireland,country,Europe and Central Asia,53.41291,-8.24389,5452.41118825635,1986,4202,0,0,0,0,0,0,0,0,0,0,4202,0,0,0,0,0,0,0,0,0,0,0,0
CA,Canada,country,North America,56.130366,-106.346771,IE,Ireland,country,Europe and Central Asia,53.41291,-8.24389,5754.4276230661,1986,52795,1363,0,18,4267,0,124,276,28,0,0,46298,4,367,0,50,0,0,0,0,0,0,0,0
CF,Central African Rep.,country,Sub-Saharan Africa,6.611111,20.939444,IE,Ireland,country,Europe and Central Asia,53.41291,-8.24389,5839.39653926401,1986,200,0,0,0,0,0,0,0,0,200,0,0,0,0,0,0,0,0,0,0,0,0,0,0
CL,Chile,country,Latin America and the Caribbean,-35.675147,-71.542969,IE,Ireland,country,Europe and Central Asia,53.41291,-8.24389,11635.0649479557,1986,422,0,0,0,0,0,0,311,107,0,0,0,0,0,0,4,0,0,0,0,0,0,0,0
HK,Hong Kong,country,East Asia and Pacific,22.396428,114.109497,IE,Ireland,country,Europe and Central Asia,53.41291,-8.24389,9948.41595196937,1986,85,3,0,0,0,0,0,0,0,0,0,3,0,77,2,0,0,0,0,0,0,0,0,0
CN,China,country,East Asia and Pacific,35.86166,104.195397,IE,Ireland,country,Europe and Central Asia,53.41291,-8.24389,8168.71280703145,1986,23194,0,0,0,0,0,0,5,0,0,4,23103,17,65,0,0,0,0,0,0,0,0,0,0
TW,Taiwan,country,East Asia and Pacific,23.69781,120.960515,IE,Ireland,country,Europe and Central Asia,53.41291,-8.24389,10160.7918025071,1986,53,0,0,7,0,0,0,22,0,0,0,0,0,24,0,0,0,0,0,0,0,0,0,0
CO,Colombia,country,Latin America and the Caribbean,4.570868,-74.297333,IE,Ireland,country,Europe and Central Asia,53.41291,-8.24389,8040.95730221526,1986,9813,0,0,0,0,0,0,0,9757,0,0,0,6,50,0,0,0,0,0,0,0,0,0,0
CG,"Congo, Rep.",country,Sub-Saharan Africa,-0.228021,15.827659,IE,Ireland,country,Europe and Central Asia,53.41291,-8.24389,6372.76935806374,1986,6600,0,0,6600,0,0,0,0,0,0,0,0,0,0,0,0,0,0,0,0,0,0,0,0
CR,Costa Rica,country,Latin America and the Caribbean,9.748917,-83.753428,IE,Ireland,country,Europe and Central Asia,53.41291,-8.24389,8189.0532349131,1986,131,0,0,0,0,0,0,0,0,0,0,0,131,0,0,0,0,0,0,0,0,0,0,0
CI,Ivory Coast,country,Sub-Saharan Africa,7.539989,-5.54708,IE,Ireland,country,Europe and Central Asia,53.41291,-8.24389,5112.36256389571,1986,7534,0,0,0,0,0,99,0,56,77,0,7004,0,298,0,0,0,0,0,0,0,0,0,0
CU,Cuba,country,Latin America and the Caribbean,21.521757,-77.781167,IE,Ireland,country,Europe and Central Asia,53.41291,-8.24389,6764.17464337194,1986,4668,0,0,4667,0,0,0,0,0,0,0,0,0,1,0,0,0,0,0,0,0,0,0,0
CY,Cyprus,country,Europe and Central Asia,35.126413,33.429859,IE,Ireland,country,Europe and Central Asia,53.41291,-8.24389,3817.83927780648,1986,5690,0,135,0,0,0,0,0,5533,0,0,0,0,0,0,22,0,0,0,0,0,0,0,0
CZ,Czech Republic,country,Europe and Central Asia,49.817492,15.472962,IE,Ireland,country,Europe and Central Asia,53.41291,-8.24389,1678.98967209126,1986,77,0,0,0,0,19,0,0,15,0,0,0,17,26,0,0,0,0,0,0,0,0,0,0
CD,"Congo, Dem. Rep.",country,Sub-Saharan Africa,-4.038333,21.758664,IE,Ireland,country,Europe and Central Asia,53.41291,-8.24389,6981.90077263632,1986,5981,0,0,0,0,0,0,0,0,0,0,5963,18,0,0,0,0,0,0,0,0,0,0,0
DK,Denmark,country,Europe and Central Asia,56.26392,9.501785,IE,Ireland,country,Europe and Central Asia,53.41291,-8.24389,1177.33492217322,1986,22899,11044,10,159,0,0,0,20,30,0,0,8250,0,1661,35,514,0,992,184,0,0,0,0,0
EC,Ecuador,country,Latin America and the Caribbean,-1.831239,-78.183406,IE,Ireland,country,Europe and Central Asia,53.41291,-8.24389,8872.9110488254,1986,24153,0,0,0,0,0,0,0,24153,0,0,0,0,0,0,0,0,0,0,0,0,0,0,0
EG,Egypt,country,Middle East and North Africa,26.820553,30.802498,IE,Ireland,country,Europe and Central Asia,53.41291,-8.24389,4359.11107429444,1986,161,0,0,0,0,0,0,25,8,128,0,0,0,0,0,0,0,0,0,0,0,0,0,0
FI,Finland,country,Europe and Central Asia,61.92411,25.748151,IE,Ireland,country,Europe and Central Asia,53.41291,-8.24389,2200.93856776253,1986,2671,70,35,1,0,0,0,0,0,0,0,35,119,61,0,28,0,0,2322,0,0,0,0,0
FR,France,country,Europe and Central Asia,46.227638,2.213749,IE,Ireland,country,Europe and Central Asia,53.41291,-8.24389,1095.05431788211,1986,398294,257020,1426,58178,0,0,0,42,28473,613,0,50209,5,1351,114,1,0,239,623,0,0,0,0,0
GH,Ghana,country,Sub-Saharan Africa,7.946527,-1.023194,IE,Ireland,country,Europe and Central Asia,53.41291,-8.24389,5103.04925977548,1986,250,0,0,0,0,0,0,0,0,0,0,0,250,0,0,0,0,0,0,0,0,0,0,0
GR,Greece,country,Europe and Central Asia,39.074208,21.824312,IE,Ireland,country,Europe and Central Asia,53.41291,-8.24389,2778.88640997066,1986,11682,1526,0,0,0,0,0,779,4189,20,0,5146,0,21,0,1,0,0,0,0,0,0,0,0
HN,Honduras,country,Latin America and the Caribbean,15.199999,-86.241905,IE,Ireland,country,Europe and Central Asia,53.41291,-8.24389,7872.8588451857,1986,3181,0,0,0,0,0,0,0,3181,0,0,0,0,0,0,0,0,0,0,0,0,0,0,0
HU,Hungary,country,Europe and Central Asia,47.162494,19.503304,IE,Ireland,country,Europe and Central Asia,53.41291,-8.24389,2076.81007318724,1986,480,0,0,0,42,0,0,182,85,0,0,127,13,7,0,24,0,0,0,0,0,0,0,0
IS,Iceland,country,Europe and Central Asia,64.963051,-19.020835,IE,Ireland,country,Europe and Central Asia,53.41291,-8.24389,1420.52115337193,1986,17,0,0,0,0,0,0,0,0,0,0,0,16,1,0,0,0,0,0,0,0,0,0,0
IN,India,country,South Asia,20.593684,78.96288,IE,Ireland,country,Europe and Central Asia,53.41291,-8.24389,8010.96437635991,1986,3679,19,0,0,0,0,0,0,0,0,0,172,2604,884,0,0,0,0,0,0,0,0,0,0
ID,Indonesia,country,East Asia and Pacific,-0.789275,113.921327,IE,Ireland,country,Europe and Central Asia,53.41291,-8.24389,12152.5454027726,1986,11230,0,0,9900,0,0,0,0,13,0,15,0,487,215,600,0,0,0,0,0,0,0,0,0
IR,Iran,country,Middle East and North Africa,32.427908,53.688046,IE,Ireland,country,Europe and Central Asia,53.41291,-8.24389,5359.09489417283,1986,40,0,0,0,0,0,0,0,40,0,0,0,0,0,0,0,0,0,0,0,0,0,0,0
IL,Israel,country,Middle East and North Africa,31.046051,34.851612,IE,Ireland,country,Europe and Central Asia,53.41291,-8.24389,4240.62484742095,1986,9135,41,0,0,0,0,0,396,8316,0,0,0,0,376,0,6,0,0,0,0,0,0,0,0
IT,Italy,country,Europe and Central Asia,41.87194,12.56738,IE,Ireland,country,Europe and Central Asia,53.41291,-8.24389,2008.54262526765,1986,30054,1673,401,1733,0,0,0,5319,9717,1,0,9382,15,356,96,1287,0,50,24,0,0,0,0,0
JM,Jamaica,country,Latin America and the Caribbean,18.109581,-77.297508,IE,Ireland,country,Europe and Central Asia,53.41291,-8.24389,7026.56228858004,1986,275,0,0,0,0,0,0,0,53,0,2,0,0,0,0,220,0,0,0,0,0,0,0,0
JP,Japan,country,East Asia and Pacific,36.204824,138.252924,IE,Ireland,country,Europe and Central Asia,53.41291,-8.24389,9551.2243151296,1986,190,0,0,0,0,0,0,0,0,0,0,0,0,189,0,1,0,0,0,0,0,0,0,0
KE,Kenya,country,Sub-Saharan Africa,-0.023559,37.906193,IE,Ireland,country,Europe and Central Asia,53.41291,-8.24389,7306.145560576,1986,4425,0,0,0,0,0,0,0,238,0,0,0,4187,0,0,0,0,0,0,0,0,0,0,0
KW,Kuwait,country,Middle East and North Africa,29.31166,47.481766,IE,Ireland,country,Europe and Central Asia,53.41291,-8.24389,5198.92660304824,1986,18,0,0,0,0,0,0,0,0,0,0,0,0,18,0,0,0,0,0,0,0,0,0,0
LB,Lebanon,country,Middle East and North Africa,33.854721,35.862285,IE,Ireland,country,Europe and Central Asia,53.41291,-8.24389,4075.10898612936,1986,30,0,0,0,0,0,0,0,0,0,0,0,0,24,4,2,0,0,0,0,0,0,0,0
LR,Liberia,country,Sub-Saharan Africa,6.428055,-9.429499,IE,Ireland,country,Europe and Central Asia,53.41291,-8.24389,5231.43617124375,1986,730,0,0,0,0,0,0,0,0,0,0,126,0,604,0,0,0,0,0,0,0,0,0,0
LY,Libya,country,Middle East and North Africa,26.3351,17.228331,IE,Ireland,country,Europe and Central Asia,53.41291,-8.24389,3675.97000087928,1986,1500,1500,0,0,0,0,0,0,0,0,0,0,0,0,0,0,0,0,0,0,0,0,0,0
MW,Malawi,country,Sub-Saharan Africa,-13.254308,34.301525,IE,Ireland,country,Europe and Central Asia,53.41291,-8.24389,8450.97616876908,1986,575,0,0,0,0,0,0,0,0,0,0,0,121,454,0,0,0,0,0,0,0,0,0,0
MY,Malaysia,country,East Asia and Pacific,4.210484,101.975766,IE,Ireland,country,Europe and Central Asia,53.41291,-8.24389,10956.497521814,1986,7301,0,0,0,0,0,0,0,0,0,30,4035,0,2739,497,0,0,0,0,0,0,0,0,0
ML,Mali,country,Sub-Saharan Africa,17.570692,-3.996166,IE,Ireland,country,Europe and Central Asia,53.41291,-8.24389,4006.90794414824,1986,2200,0,0,0,0,0,0,0,0,2200,0,0,0,0,0,0,0,0,0,0,0,0,0,0
MT,Malta,country,Middle East and North Africa,35.937496,14.375416,IE,Ireland,country,Europe and Central Asia,53.41291,-8.24389,2621.3580739247,1986,72,4,0,0,0,0,0,0,55,0,0,0,13,0,0,0,0,0,0,0,0,0,0,0
MU,Mauritius,country,Sub-Saharan Africa,-20.348404,57.552152,IE,Ireland,country,Europe and Central Asia,53.41291,-8.24389,10338.3609780023,1986,6856,0,0,6750,0,0,0,0,0,0,0,0,106,0,0,0,0,0,0,0,0,0,0,0
MX,Mexico,country,Latin America and the Caribbean,23.634501,-102.552784,IE,Ireland,country,Europe and Central Asia,53.41291,-8.24389,8202.84619269682,1986,23,0,0,0,0,0,0,0,0,0,0,0,0,8,0,12,0,0,3,0,0,0,0,0
MA,Morocco,country,Middle East and North Africa,31.791702,-7.09262,IE,Ireland,country,Europe and Central Asia,53.41291,-8.24389,2408.63151405279,1986,8735,0,0,0,0,0,0,1,224,0,0,8510,0,0,0,0,0,0,0,0,0,0,0,0
NR,Nauru,country,East Asia and Pacific,-0.522778,166.931503,IE,Ireland,country,Europe and Central Asia,53.41291,-8.24389,14132.932778616,1986,2,0,0,0,0,0,0,2,0,0,0,0,0,0,0,0,0,0,0,0,0,0,0,0
NL,Netherlands,country,Europe and Central Asia,52.132633,5.291266,IE,Ireland,country,Europe and Central Asia,53.41291,-8.24389,921.16427694974,1986,603648,8258,87111,1170,15,2,10,263,6613,76,1,466902,1217,5591,16969,6700,0,1450,1292,8,0,0,0,0
NZ,New Zealand,country,East Asia and Pacific,-40.900557,174.885971,IE,Ireland,country,Europe and Central Asia,53.41291,-8.24389,18624.9919137641,1986,6209,0,0,0,20,0,0,0,3420,2455,0,0,0,171,0,0,0,143,0,0,0,0,0,0
NI,Nicaragua,country,Latin America and the Caribbean,12.865416,-85.207229,IE,Ireland,country,Europe and Central Asia,53.41291,-8.24389,8009.32490847683,1986,486,0,0,0,0,0,0,0,486,0,0,0,0,0,0,0,0,0,0,0,0,0,0,0
NG,Nigeria,country,Sub-Saharan Africa,9.081999,8.675277,IE,Ireland,country,Europe and Central Asia,53.41291,-8.24389,5163.2800695029,1986,3712,0,0,0,0,0,0,0,14,0,0,0,3698,0,0,0,0,0,0,0,0,0,0,0
NO,Norway,country,Europe and Central Asia,60.472024,8.468946,IE,Ireland,country,Europe and Central Asia,53.41291,-8.24389,1277.41266258184,1986,356,40,0,0,68,0,0,21,0,0,0,36,3,32,88,0,0,0,68,0,0,0,0,0
PK,Pakistan,country,South Asia,30.375321,69.345116,IE,Ireland,country,Europe and Central Asia,53.41291,-8.24389,6556.6592322392,1986,28184,0,0,24341,0,0,0,0,0,3675,0,0,0,168,0,0,0,0,0,0,0,0,0,0
PA,Panama,country,Latin America and the Caribbean,8.537981,-80.782127,IE,Ireland,country,Europe and Central Asia,53.41291,-8.24389,8101.55816029898,1986,6,0,0,0,0,0,0,0,6,0,0,0,0,0,0,0,0,0,0,0,0,0,0,0
PG,Papua New Guinea,country,East Asia and Pacific,-6.314993,143.95555,IE,Ireland,country,Europe and Central Asia,53.41291,-8.24389,14222.2761413597,1986,31,0,0,0,0,0,0,0,0,0,0,0,31,0,0,0,0,0,0,0,0,0,0,0
PE,Peru,country,Latin America and the Caribbean,-9.189967,-75.015152,IE,Ireland,country,Europe and Central Asia,53.41291,-8.24389,9355.34268491302,1986,3,0,0,0,0,0,0,0,0,0,0,0,0,3,0,0,0,0,0,0,0,0,0,0
PH,Philippines,country,East Asia and Pacific,12.879721,121.774017,IE,Ireland,country,Europe and Central Asia,53.41291,-8.24389,11268.217138742,1986,2398,0,0,0,0,0,796,0,202,0,0,1000,0,59,341,0,0,0,0,0,0,0,0,0
PL,Poland,country,Europe and Central Asia,51.919438,19.145136,IE,Ireland,country,Europe and Central Asia,53.41291,-8.24389,1845.02890970564,1986,190,6,0,0,0,0,0,170,9,0,0,0,0,4,1,0,0,0,0,0,0,0,0,0
PT,Portugal,country,Europe and Central Asia,39.399872,-8.224454,IE,Ireland,country,Europe and Central Asia,53.41291,-8.24389,1559.92495264987,1986,1026,0,0,0,0,0,0,44,3,0,0,23,0,0,0,946,0,2,8,0,0,0,0,0
QA,Qatar,country,Middle East and North Africa,25.354826,51.183884,IE,Ireland,country,Europe and Central Asia,53.41291,-8.24389,5771.27032392702,1986,100,0,0,0,0,0,0,0,0,100,0,0,0,0,0,0,0,0,0,0,0,0,0,0
KR,"Korea, Rep.",country,East Asia and Pacific,35.907757,127.766922,IE,Ireland,country,Europe and Central Asia,53.41291,-8.24389,9228.55210982868,1986,1232,0,0,0,0,0,0,0,0,0,0,0,0,1232,0,0,0,0,0,0,0,0,0,0
RO,Romania,country,Europe and Central Asia,45.943161,24.96676,IE,Ireland,country,Europe and Central Asia,53.41291,-8.24389,2505.76696060573,1986,14,0,0,14,0,0,0,0,0,0,0,0,0,0,0,0,0,0,0,0,0,0,0,0
RW,Rwanda,country,Sub-Saharan Africa,-1.940278,29.873888,IE,Ireland,country,Europe and Central Asia,53.41291,-8.24389,7102.37638110685,1986,1734,0,0,0,0,0,0,0,0,0,0,0,1734,0,0,0,0,0,0,0,0,0,0,0
SA,Saudi Arabia,country,Middle East and North Africa,23.885942,45.079162,IE,Ireland,country,Europe and Central Asia,53.41291,-8.24389,5500.17755439911,1986,65,0,0,0,0,0,0,0,0,0,0,0,0,17,0,0,0,19,0,29,0,0,0,0
SN,Senegal,country,Sub-Saharan Africa,14.497401,-14.452362,IE,Ireland,country,Europe and Central Asia,53.41291,-8.24389,4366.30526553037,1986,10861,0,0,0,0,0,0,0,0,430,0,10431,0,0,0,0,0,0,0,0,0,0,0,0
SG,Singapore,country,East Asia and Pacific,1.352083,103.819836,IE,Ireland,country,Europe and Central Asia,53.41291,-8.24389,11334.8758499209,1986,72,0,0,0,0,0,0,0,0,0,0,0,0,71,0,0,0,0,1,0,0,0,0,0
ZA,S. Africa,country,Sub-Saharan Africa,-30.559482,22.937506,IE,Ireland,country,Europe and Central Asia,53.41291,-8.24389,9821.89985064882,1986,23915,0,0,23000,0,0,162,0,595,155,0,0,0,0,0,3,0,0,0,0,0,0,0,0
ES,Spain,country,Europe and Central Asia,40.463667,-3.74922,IE,Ireland,country,Europe and Central Asia,53.41291,-8.24389,1480.6749116579,1986,27622,140,0,34,0,0,4,2352,9673,0,0,12681,0,409,31,2298,0,0,0,0,0,0,0,0
LK,Sri Lanka,country,South Asia,7.873054,80.771797,IE,Ireland,country,Europe and Central Asia,53.41291,-8.24389,9250.69354643309,1986,6454,0,0,0,0,0,195,0,0,0,0,5000,790,469,0,0,0,0,0,0,0,0,0,0
SD,Sudan,country,Sub-Saharan Africa,12.862807,30.217636,IE,Ireland,country,Europe and Central Asia,53.41291,-8.24389,5640.7971942961,1986,3515,0,0,3496,0,0,0,0,0,19,0,0,0,0,0,0,0,0,0,0,0,0,0,0
SZ,Swaziland,country,Sub-Saharan Africa,-26.522503,31.465866,IE,Ireland,country,Europe and Central Asia,53.41291,-8.24389,9688.7466711691,1986,907,0,0,10,0,0,0,0,897,0,0,0,0,0,0,0,0,0,0,0,0,0,0,0
SE,Sweden,country,Europe and Central Asia,60.128161,18.643501,IE,Ireland,country,Europe and Central Asia,53.41291,-8.24389,1786.06364301939,1986,704,185,0,106,0,0,0,0,0,0,0,0,0,287,9,0,0,117,0,0,0,0,0,0
CH,Switzerland,country,Europe and Central Asia,46.818188,8.227512,IE,Ireland,country,Europe and Central Asia,53.41291,-8.24389,1381.18878443155,1986,1590,9,10,3,0,0,0,0,39,0,0,1321,0,208,0,0,0,0,0,0,0,0,0,0
TH,Thailand,country,East Asia and Pacific,15.870032,100.992541,IE,Ireland,country,Europe and Central Asia,53.41291,-8.24389,9823.04051503784,1986,36381,0,4350,31961,0,0,0,13,0,0,0,0,0,57,0,0,0,0,0,0,0,0,0,0
TG,Togo,country,Sub-Saharan Africa,8.619543,0.824782,IE,Ireland,country,Europe and Central Asia,53.41291,-8.24389,5052.71397676685,1986,1527,0,0,0,0,0,0,0,0,0,0,1527,0,0,0,0,0,0,0,0,0,0,0,0
TT,Trinidad and Tobago,country,Latin America and the Caribbean,10.691803,-61.222503,IE,Ireland,country,Europe and Central Asia,53.41291,-8.24389,6667.20358771526,1986,4,0,0,0,0,0,0,0,0,0,0,0,0,0,0,4,0,0,0,0,0,0,0,0
TN,Tunisia,country,Middle East and North Africa,33.886917,9.537499,IE,Ireland,country,Europe and Central Asia,53.41291,-8.24389,2587.18440560557,1986,17,0,17,0,0,0,0,0,0,0,0,0,0,0,0,0,0,0,0,0,0,0,0,0
TR,Turkey,country,Europe and Central Asia,38.963745,35.243322,IE,Ireland,country,Europe and Central Asia,53.41291,-8.24389,3644.22486914243,1986,3675,9,0,0,0,0,0,281,3385,0,0,0,0,0,0,0,0,0,0,0,0,0,0,0
AE,United Arab Emirates,country,Middle East and North Africa,23.424076,53.847818,IE,Ireland,country,Europe and Central Asia,53.41291,-8.24389,6109.98739569226,1986,160,0,0,0,0,0,0,0,0,0,0,0,0,151,0,0,0,0,9,0,0,0,0,0
GB,United Kingdom,country,Europe and Central Asia,55.378051,-3.435973,IE,Ireland,country,Europe and Central Asia,53.41291,-8.24389,380.583737144846,1986,719591,285847,70696,60803,114,503,409,19508,36915,2932,56,56600,22305,61648,25924,20497,3173,35797,16395,2639,3,0,0,0
TZ,Tanzania,country,Sub-Saharan Africa,-6.369028,34.888822,IE,Ireland,country,Europe and Central Asia,53.41291,-8.24389,7784.22698619876,1986,558,0,0,0,0,0,0,0,0,0,0,0,94,464,0,0,0,0,0,0,0,0,0,0
US,USA,country,North America,37.09024,-95.712891,IE,Ireland,country,Europe and Central Asia,53.41291,-8.24389,6640.55458013614,1986,326753,4003,0,56013,2847,45,705,393,549,11034,15,248518,1,1931,171,492,24,0,0,36,0,0,0,0
UY,Uruguay,country,Latin America and the Caribbean,-32.522779,-55.765835,IE,Ireland,country,Europe and Central Asia,53.41291,-8.24389,10608.3258823974,1986,2112,0,0,0,0,0,0,0,87,0,0,2025,0,0,0,0,0,0,0,0,0,0,0,0
RU,Russian Federation,country,Europe and Central Asia,61.52401,105.318756,IE,Ireland,country,Europe and Central Asia,53.41291,-8.24389,5976.34906406588,1986,230,0,0,0,0,0,0,0,0,201,0,0,0,25,0,4,0,0,0,0,0,0,0,0
BA,Bosnia & Herzegovina,country,Europe and Central Asia,43.915886,17.679076,IE,Ireland,country,Europe and Central Asia,53.41291,-8.24389,2162.09527228656,1986,3172,0,0,15,0,0,0,0,22,0,0,3100,15,0,0,20,0,0,0,0,0,0,0,0
ZW,Zimbabwe,country,Sub-Saharan Africa,-19.015438,29.154857,IE,Ireland,country,Europe and Central Asia,53.41291,-8.24389,8825.11710948555,1986,864,0,0,0,0,0,0,0,0,0,0,0,12,852,0,0,0,0,0,0,0,0,0,0
AR,Argentina,country,Latin America and the Caribbean,-38.416097,-63.616672,IE,Ireland,country,Europe and Central Asia,53.41291,-8.24389,11522.294499324,1987,17148,0,0,298,0,0,0,0,0,0,0,16744,0,106,0,0,0,0,0,0,0,0,0,0
AU,Australia,country,East Asia and Pacific,-25.274398,133.775136,IE,Ireland,country,Europe and Central Asia,53.41291,-8.24389,15600.7918271035,1987,9932,0,0,7302,500,0,0,1056,292,375,0,0,0,8,2,26,0,354,0,17,0,0,0,0
AT,Austria,country,Europe and Central Asia,47.516231,14.550072,IE,Ireland,country,Europe and Central Asia,53.41291,-8.24389,1734.01805372052,1987,21,11,0,1,0,0,0,0,1,0,0,0,0,0,0,8,0,0,0,0,0,0,0,0
BS,The Bahamas,country,Latin America and the Caribbean,25.03428,-77.39628,IE,Ireland,country,Europe and Central Asia,53.41291,-8.24389,6441.08139131673,1987,392,0,0,0,0,0,0,0,0,0,0,0,0,0,0,392,0,0,0,0,0,0,0,0
BB,Barbados,country,Latin America and the Caribbean,13.193887,-59.543198,IE,Ireland,country,Europe and Central Asia,53.41291,-8.24389,6334.00571273339,1987,2,0,0,0,0,0,0,0,0,0,0,0,0,0,0,2,0,0,0,0,0,0,0,0
BE,Belgium,country,Europe and Central Asia,50.503887,4.469936,IE,Ireland,country,Europe and Central Asia,53.41291,-8.24389,928.771767899146,1987,72521,11521,10292,11657,674,0,0,2868,5010,756,0,22322,115,1633,4361,504,0,539,269,0,0,0,0,0
BR,Brazil,country,Latin America and the Caribbean,-14.235004,-51.92528,IE,Ireland,country,Europe and Central Asia,53.41291,-8.24389,8601.55203375784,1987,13942,0,0,16,0,0,0,39,398,0,0,12724,0,765,0,0,0,0,0,0,0,0,0,0
BG,Bulgaria,country,Europe and Central Asia,42.733883,25.48583,IE,Ireland,country,Europe and Central Asia,53.41291,-8.24389,2742.32315215206,1987,1618,0,0,106,0,0,0,0,0,1449,0,0,0,0,0,63,0,0,0,0,0,0,0,0
BI,Burundi,country,Sub-Saharan Africa,-3.373056,29.918886,IE,Ireland,country,Europe and Central Asia,53.41291,-8.24389,7250.03662391037,1987,17,0,0,0,0,0,0,0,0,0,0,0,17,0,0,0,0,0,0,0,0,0,0,0
CA,Canada,country,North America,56.130366,-106.346771,IE,Ireland,country,Europe and Central Asia,53.41291,-8.24389,5754.4276230661,1987,71371,5176,0,18,9234,0,15,1,54,0,0,56608,0,223,0,42,0,0,0,0,0,0,0,0
CL,Chile,country,Latin America and the Caribbean,-35.675147,-71.542969,IE,Ireland,country,Europe and Central Asia,53.41291,-8.24389,11635.0649479557,1987,77,0,0,0,0,0,0,22,52,0,0,0,0,0,0,3,0,0,0,0,0,0,0,0
HK,Hong Kong,country,East Asia and Pacific,22.396428,114.109497,IE,Ireland,country,Europe and Central Asia,53.41291,-8.24389,9948.41595196937,1987,126,1,0,0,0,35,0,3,14,0,0,0,18,34,21,0,0,0,0,0,0,0,0,0
CN,China,country,East Asia and Pacific,35.86166,104.195397,IE,Ireland,country,Europe and Central Asia,53.41291,-8.24389,8168.71280703145,1987,5198,0,0,0,0,1,0,1,16,0,0,5074,0,106,0,0,0,0,0,0,0,0,0,0
TW,Taiwan,country,East Asia and Pacific,23.69781,120.960515,IE,Ireland,country,Europe and Central Asia,53.41291,-8.24389,10160.7918025071,1987,39,0,0,22,0,0,0,2,0,0,0,0,0,0,0,0,0,0,15,0,0,0,0,0
CO,Colombia,country,Latin America and the Caribbean,4.570868,-74.297333,IE,Ireland,country,Europe and Central Asia,53.41291,-8.24389,8040.95730221526,1987,8372,0,0,0,0,0,0,0,8303,0,0,0,7,62,0,0,0,0,0,0,0,0,0,0
CG,"Congo, Rep.",country,Sub-Saharan Africa,-0.228021,15.827659,IE,Ireland,country,Europe and Central Asia,53.41291,-8.24389,6372.76935806374,1987,3630,0,0,3630,0,0,0,0,0,0,0,0,0,0,0,0,0,0,0,0,0,0,0,0
CR,Costa Rica,country,Latin America and the Caribbean,9.748917,-83.753428,IE,Ireland,country,Europe and Central Asia,53.41291,-8.24389,8189.0532349131,1987,244,0,0,0,0,0,0,0,122,0,0,0,122,0,0,0,0,0,0,0,0,0,0,0
CI,Ivory Coast,country,Sub-Saharan Africa,7.539989,-5.54708,IE,Ireland,country,Europe and Central Asia,53.41291,-8.24389,5112.36256389571,1987,13526,0,0,12657,0,0,169,0,128,0,0,0,400,0,0,0,0,0,172,0,0,0,0,0
CU,Cuba,country,Latin America and the Caribbean,21.521757,-77.781167,IE,Ireland,country,Europe and Central Asia,53.41291,-8.24389,6764.17464337194,1987,1,0,0,0,0,0,0,0,0,0,0,0,0,1,0,0,0,0,0,0,0,0,0,0
CY,Cyprus,country,Europe and Central Asia,35.126413,33.429859,IE,Ireland,country,Europe and Central Asia,53.41291,-8.24389,3817.83927780648,1987,7936,7,0,0,0,0,0,0,7922,0,0,0,0,1,0,6,0,0,0,0,0,0,0,0
CZ,Czech Republic,country,Europe and Central Asia,49.817492,15.472962,IE,Ireland,country,Europe and Central Asia,53.41291,-8.24389,1678.98967209126,1987,248,0,0,2,215,0,0,0,19,11,0,0,1,0,0,0,0,0,0,0,0,0,0,0
DK,Denmark,country,Europe and Central Asia,56.26392,9.501785,IE,Ireland,country,Europe and Central Asia,53.41291,-8.24389,1177.33492217322,1987,15479,7639,72,74,0,0,0,74,1150,0,1,1949,20,2632,93,584,0,1032,154,0,5,0,0,0
DO,Dominican Republic,country,Latin America and the Caribbean,18.735693,-70.162651,IE,Ireland,country,Europe and Central Asia,53.41291,-8.24389,6503.83726560053,1987,24,0,0,0,0,0,24,0,0,0,0,0,0,0,0,0,0,0,0,0,0,0,0,0
EC,Ecuador,country,Latin America and the Caribbean,-1.831239,-78.183406,IE,Ireland,country,Europe and Central Asia,53.41291,-8.24389,8872.9110488254,1987,21622,0,0,0,0,0,0,0,21622,0,0,0,0,0,0,0,0,0,0,0,0,0,0,0
FI,Finland,country,Europe and Central Asia,61.92411,25.748151,IE,Ireland,country,Europe and Central Asia,53.41291,-8.24389,2200.93856776253,1987,2404,14,0,0,0,0,0,0,57,0,0,0,77,63,0,9,0,0,2184,0,0,0,0,0
FR,France,country,Europe and Central Asia,46.227638,2.213749,IE,Ireland,country,Europe and Central Asia,53.41291,-8.24389,1095.05431788211,1987,307058,168947,1805,50867,1265,3,35,3212,29877,136,47,35950,196,2221,1432,8905,0,247,1913,0,0,0,0,0
GA,Gabon,country,Sub-Saharan Africa,-0.803689,11.609444,IE,Ireland,country,Europe and Central Asia,53.41291,-8.24389,6309.69725942021,1987,1477,0,0,0,0,0,0,0,0,0,0,1477,0,0,0,0,0,0,0,0,0,0,0,0
GH,Ghana,country,Sub-Saharan Africa,7.946527,-1.023194,IE,Ireland,country,Europe and Central Asia,53.41291,-8.24389,5103.04925977548,1987,5475,0,0,0,0,0,0,0,0,0,0,0,5475,0,0,0,0,0,0,0,0,0,0,0
GR,Greece,country,Europe and Central Asia,39.074208,21.824312,IE,Ireland,country,Europe and Central Asia,53.41291,-8.24389,2778.88640997066,1987,8513,1606,0,0,0,0,0,744,3612,716,0,1813,0,0,0,22,0,0,0,0,0,0,0,0
GT,Guatemala,country,Latin America and the Caribbean,15.783471,-90.230759,IE,Ireland,country,Europe and Central Asia,53.41291,-8.24389,8086.33929558336,1987,1424,0,0,0,0,0,0,0,1424,0,0,0,0,0,0,0,0,0,0,0,0,0,0,0
GY,Guyana,country,Latin America and the Caribbean,4.860416,-58.93018,IE,Ireland,country,Europe and Central Asia,53.41291,-8.24389,7082.24766761354,1987,1,0,0,0,0,0,0,0,0,0,0,0,0,0,0,1,0,0,0,0,0,0,0,0
HN,Honduras,country,Latin America and the Caribbean,15.199999,-86.241905,IE,Ireland,country,Europe and Central Asia,53.41291,-8.24389,7872.8588451857,1987,2701,0,0,0,0,0,0,0,2701,0,0,0,0,0,0,0,0,0,0,0,0,0,0,0
HU,Hungary,country,Europe and Central Asia,47.162494,19.503304,IE,Ireland,country,Europe and Central Asia,53.41291,-8.24389,2076.81007318724,1987,593,0,0,35,0,0,0,349,51,0,0,132,0,26,0,0,0,0,0,0,0,0,0,0
IN,India,country,South Asia,20.593684,78.96288,IE,Ireland,country,Europe and Central Asia,53.41291,-8.24389,8010.96437635991,1987,4043,0,0,0,0,0,0,0,0,0,0,0,3349,694,0,0,0,0,0,0,0,0,0,0
ID,Indonesia,country,East Asia and Pacific,-0.789275,113.921327,IE,Ireland,country,Europe and Central Asia,53.41291,-8.24389,12152.5454027726,1987,538,0,0,0,0,0,0,0,0,0,129,0,402,7,0,0,0,0,0,0,0,0,0,0
IR,Iran,country,Middle East and North Africa,32.427908,53.688046,IE,Ireland,country,Europe and Central Asia,53.41291,-8.24389,5359.09489417283,1987,110,0,0,0,0,0,0,0,86,0,0,24,0,0,0,0,0,0,0,0,0,0,0,0
IL,Israel,country,Middle East and North Africa,31.046051,34.851612,IE,Ireland,country,Europe and Central Asia,53.41291,-8.24389,4240.62484742095,1987,8381,39,0,0,0,0,0,231,7781,0,0,0,0,327,0,3,0,0,0,0,0,0,0,0
IT,Italy,country,Europe and Central Asia,41.87194,12.56738,IE,Ireland,country,Europe and Central Asia,53.41291,-8.24389,2008.54262526765,1987,32692,1209,712,8558,0,1,3,7223,10881,0,0,2333,8,257,49,1352,0,98,8,0,0,0,0,0
JM,Jamaica,country,Latin America and the Caribbean,18.109581,-77.297508,IE,Ireland,country,Europe and Central Asia,53.41291,-8.24389,7026.56228858004,1987,330,0,0,0,0,0,0,0,129,0,0,0,0,0,0,201,0,0,0,0,0,0,0,0
JP,Japan,country,East Asia and Pacific,36.204824,138.252924,IE,Ireland,country,Europe and Central Asia,53.41291,-8.24389,9551.2243151296,1987,194,20,0,0,0,0,0,0,0,0,0,0,0,171,0,3,0,0,0,0,0,0,0,0
KE,Kenya,country,Sub-Saharan Africa,-0.023559,37.906193,IE,Ireland,country,Europe and Central Asia,53.41291,-8.24389,7306.145560576,1987,3996,0,0,0,0,0,0,0,107,0,0,0,3889,0,0,0,0,0,0,0,0,0,0,0
LB,Lebanon,country,Middle East and North Africa,33.854721,35.862285,IE,Ireland,country,Europe and Central Asia,53.41291,-8.24389,4075.10898612936,1987,12,0,0,0,0,0,0,0,0,0,0,0,0,10,0,2,0,0,0,0,0,0,0,0
LR,Liberia,country,Sub-Saharan Africa,6.428055,-9.429499,IE,Ireland,country,Europe and Central Asia,53.41291,-8.24389,5231.43617124375,1987,952,0,0,0,0,0,0,0,0,0,0,785,0,167,0,0,0,0,0,0,0,0,0,0
MW,Malawi,country,Sub-Saharan Africa,-13.254308,34.301525,IE,Ireland,country,Europe and Central Asia,53.41291,-8.24389,8450.97616876908,1987,256,0,0,0,0,0,0,0,0,0,0,0,23,233,0,0,0,0,0,0,0,0,0,0
MY,Malaysia,country,East Asia and Pacific,4.210484,101.975766,IE,Ireland,country,Europe and Central Asia,53.41291,-8.24389,10956.497521814,1987,5371,0,0,0,0,0,0,0,0,0,0,1620,141,3444,151,0,0,0,15,0,0,0,0,0
ML,Mali,country,Sub-Saharan Africa,17.570692,-3.996166,IE,Ireland,country,Europe and Central Asia,53.41291,-8.24389,4006.90794414824,1987,1189,0,0,0,0,0,0,0,0,1189,0,0,0,0,0,0,0,0,0,0,0,0,0,0
MT,Malta,country,Middle East and North Africa,35.937496,14.375416,IE,Ireland,country,Europe and Central Asia,53.41291,-8.24389,2621.3580739247,1987,136,33,0,0,0,0,0,0,56,0,0,0,37,0,0,0,0,2,8,0,0,0,0,0
MU,Mauritius,country,Sub-Saharan Africa,-20.348404,57.552152,IE,Ireland,country,Europe and Central Asia,53.41291,-8.24389,10338.3609780023,1987,10704,0,0,10629,0,0,0,0,20,0,0,0,55,0,0,0,0,0,0,0,0,0,0,0
MX,Mexico,country,Latin America and the Caribbean,23.634501,-102.552784,IE,Ireland,country,Europe and Central Asia,53.41291,-8.24389,8202.84619269682,1987,31074,0,0,31038,0,0,0,0,0,0,0,0,0,23,0,13,0,0,0,0,0,0,0,0
MA,Morocco,country,Middle East and North Africa,31.791702,-7.09262,IE,Ireland,country,Europe and Central Asia,53.41291,-8.24389,2408.63151405279,1987,18,0,0,0,0,0,0,0,18,0,0,0,0,0,0,0,0,0,0,0,0,0,0,0
NL,Netherlands,country,Europe and Central Asia,52.132633,5.291266,IE,Ireland,country,Europe and Central Asia,53.41291,-8.24389,921.16427694974,1987,589830,7273,72647,9366,128,9,2044,24208,14722,1288,23,408450,1540,8585,27131,8006,0,2786,1580,44,0,0,0,0
NZ,New Zealand,country,East Asia and Pacific,-40.900557,174.885971,IE,Ireland,country,Europe and Central Asia,53.41291,-8.24389,18624.9919137641,1987,4127,0,0,0,60,0,0,92,1526,2114,0,0,0,78,0,2,0,255,0,0,0,0,0,0
NI,Nicaragua,country,Latin America and the Caribbean,12.865416,-85.207229,IE,Ireland,country,Europe and Central Asia,53.41291,-8.24389,8009.32490847683,1987,98,0,0,0,0,0,0,0,98,0,0,0,0,0,0,0,0,0,0,0,0,0,0,0
NG,Nigeria,country,Sub-Saharan Africa,9.081999,8.675277,IE,Ireland,country,Europe and Central Asia,53.41291,-8.24389,5163.2800695029,1987,448,0,0,0,0,0,0,0,0,0,0,0,400,48,0,0,0,0,0,0,0,0,0,0
NO,Norway,country,Europe and Central Asia,60.472024,8.468946,IE,Ireland,country,Europe and Central Asia,53.41291,-8.24389,1277.41266258184,1987,331,72,0,0,148,0,0,0,18,0,0,1,14,4,61,0,0,13,0,0,0,0,0,0
OM,Oman,country,Middle East and North Africa,21.512583,55.923255,IE,Ireland,country,Europe and Central Asia,53.41291,-8.24389,6410.10295861924,1987,9,0,0,0,0,0,0,0,0,0,0,0,0,9,0,0,0,0,0,0,0,0,0,0
PK,Pakistan,country,South Asia,30.375321,69.345116,IE,Ireland,country,Europe and Central Asia,53.41291,-8.24389,6556.6592322392,1987,33856,0,0,29757,0,0,0,0,0,4099,0,0,0,0,0,0,0,0,0,0,0,0,0,0
PA,Panama,country,Latin America and the Caribbean,8.537981,-80.782127,IE,Ireland,country,Europe and Central Asia,53.41291,-8.24389,8101.55816029898,1987,70,0,0,0,0,0,0,0,70,0,0,0,0,0,0,0,0,0,0,0,0,0,0,0
PG,Papua New Guinea,country,East Asia and Pacific,-6.314993,143.95555,IE,Ireland,country,Europe and Central Asia,53.41291,-8.24389,14222.2761413597,1987,71,0,0,0,0,0,0,0,0,0,0,0,71,0,0,0,0,0,0,0,0,0,0,0
PH,Philippines,country,East Asia and Pacific,12.879721,121.774017,IE,Ireland,country,Europe and Central Asia,53.41291,-8.24389,11268.217138742,1987,1712,0,0,0,0,0,572,12,95,0,0,0,0,70,963,0,0,0,0,0,0,0,0,0
PL,Poland,country,Europe and Central Asia,51.919438,19.145136,IE,Ireland,country,Europe and Central Asia,53.41291,-8.24389,1845.02890970564,1987,1470,17,0,0,0,0,0,1447,0,0,0,0,5,0,0,1,0,0,0,0,0,0,0,0
PT,Portugal,country,Europe and Central Asia,39.399872,-8.224454,IE,Ireland,country,Europe and Central Asia,53.41291,-8.24389,1559.92495264987,1987,1106,0,0,0,0,0,0,24,123,0,0,0,0,4,0,955,0,0,0,0,0,0,0,0
KR,"Korea, Rep.",country,East Asia and Pacific,35.907757,127.766922,IE,Ireland,country,Europe and Central Asia,53.41291,-8.24389,9228.55210982868,1987,1185,0,0,0,0,0,0,0,0,0,0,0,0,1185,0,0,0,0,0,0,0,0,0,0
RW,Rwanda,country,Sub-Saharan Africa,-1.940278,29.873888,IE,Ireland,country,Europe and Central Asia,53.41291,-8.24389,7102.37638110685,1987,891,0,0,0,0,0,0,0,0,0,0,0,882,0,0,0,0,9,0,0,0,0,0,0
SA,Saudi Arabia,country,Middle East and North Africa,23.885942,45.079162,IE,Ireland,country,Europe and Central Asia,53.41291,-8.24389,5500.17755439911,1987,0,0,0,0,0,0,0,0,0,0,0,0,0,0,0,0,0,0,0,0,0,0,0,0
SN,Senegal,country,Sub-Saharan Africa,14.497401,-14.452362,IE,Ireland,country,Europe and Central Asia,53.41291,-8.24389,4366.30526553037,1987,9715,0,0,0,0,0,0,0,0,9,0,9706,0,0,0,0,0,0,0,0,0,0,0,0
SL,Sierra Leone,country,Sub-Saharan Africa,8.460555,-11.779889,IE,Ireland,country,Europe and Central Asia,53.41291,-8.24389,5014.1975133662,1987,325,0,0,0,0,0,0,0,0,0,0,325,0,0,0,0,0,0,0,0,0,0,0,0
SG,Singapore,country,East Asia and Pacific,1.352083,103.819836,IE,Ireland,country,Europe and Central Asia,53.41291,-8.24389,11334.8758499209,1987,145,0,0,0,0,0,0,0,0,0,0,0,41,104,0,0,0,0,0,0,0,0,0,0
ZA,S. Africa,country,Sub-Saharan Africa,-30.559482,22.937506,IE,Ireland,country,Europe and Central Asia,53.41291,-8.24389,9821.89985064882,1987,94,0,0,0,0,0,0,0,0,0,0,18,75,0,0,1,0,0,0,0,0,0,0,0
ES,Spain,country,Europe and Central Asia,40.463667,-3.74922,IE,Ireland,country,Europe and Central Asia,53.41291,-8.24389,1480.6749116579,1987,52838,34166,23,824,0,0,14,2976,10071,0,0,2330,0,226,15,2146,0,47,0,0,0,0,0,0
LK,Sri Lanka,country,South Asia,7.873054,80.771797,IE,Ireland,country,Europe and Central Asia,53.41291,-8.24389,9250.69354643309,1987,1144,0,0,0,0,0,92,0,0,0,0,0,674,378,0,0,0,0,0,0,0,0,0,0
SD,Sudan,country,Sub-Saharan Africa,12.862807,30.217636,IE,Ireland,country,Europe and Central Asia,53.41291,-8.24389,5640.7971942961,1987,9983,0,0,9967,0,0,0,0,0,0,0,0,0,16,0,0,0,0,0,0,0,0,0,0
SZ,Swaziland,country,Sub-Saharan Africa,-26.522503,31.465866,IE,Ireland,country,Europe and Central Asia,53.41291,-8.24389,9688.7466711691,1987,1824,0,0,0,0,0,0,0,1824,0,0,0,0,0,0,0,0,0,0,0,0,0,0,0
SE,Sweden,country,Europe and Central Asia,60.128161,18.643501,IE,Ireland,country,Europe and Central Asia,53.41291,-8.24389,1786.06364301939,1987,1799,212,0,111,0,0,0,0,0,0,0,994,116,331,7,0,0,28,0,0,0,0,0,0
CH,Switzerland,country,Europe and Central Asia,46.818188,8.227512,IE,Ireland,country,Europe and Central Asia,53.41291,-8.24389,1381.18878443155,1987,401,3,14,4,0,0,0,6,24,67,2,11,17,239,8,1,0,0,5,0,0,0,0,0
TH,Thailand,country,East Asia and Pacific,15.870032,100.992541,IE,Ireland,country,Europe and Central Asia,53.41291,-8.24389,9823.04051503784,1987,29695,0,9056,20494,0,0,0,15,72,0,0,0,0,58,0,0,0,0,0,0,0,0,0,0
TT,Trinidad and Tobago,country,Latin America and the Caribbean,10.691803,-61.222503,IE,Ireland,country,Europe and Central Asia,53.41291,-8.24389,6667.20358771526,1987,4,0,0,0,0,0,0,0,0,0,0,0,0,0,0,4,0,0,0,0,0,0,0,0
TR,Turkey,country,Europe and Central Asia,38.963745,35.243322,IE,Ireland,country,Europe and Central Asia,53.41291,-8.24389,3644.22486914243,1987,5907,31,9,0,6,20,0,19,5822,0,0,0,0,0,0,0,0,0,0,0,0,0,0,0
UG,Uganda,country,Sub-Saharan Africa,1.373333,32.290275,IE,Ireland,country,Europe and Central Asia,53.41291,-8.24389,6882.67166010961,1987,24,0,0,0,0,0,0,0,0,0,0,0,24,0,0,0,0,0,0,0,0,0,0,0
GB,United Kingdom,country,Europe and Central Asia,55.378051,-3.435973,IE,Ireland,country,Europe and Central Asia,53.41291,-8.24389,380.583737144846,1987,922069,263020,42912,54575,2484,2291,4664,41678,49614,6188,909,213993,25652,61428,41523,52936,4173,36850,19145,2184,23,0,0,0
TZ,Tanzania,country,Sub-Saharan Africa,-6.369028,34.888822,IE,Ireland,country,Europe and Central Asia,53.41291,-8.24389,7784.22698619876,1987,196,0,0,0,0,0,0,0,0,0,0,0,169,27,0,0,0,0,0,0,0,0,0,0
US,USA,country,North America,37.09024,-95.712891,IE,Ireland,country,Europe and Central Asia,53.41291,-8.24389,6640.55458013614,1987,562183,1257,31,9506,2355,25,187,337,2368,12913,8,530033,15,2459,362,227,5,0,100,0,0,0,0,0
UY,Uruguay,country,Latin America and the Caribbean,-32.522779,-55.765835,IE,Ireland,country,Europe and Central Asia,53.41291,-8.24389,10608.3258823974,1987,130,0,0,0,0,0,0,0,130,0,0,0,0,0,0,0,0,0,0,0,0,0,0,0
RU,Russian Federation,country,Europe and Central Asia,61.52401,105.318756,IE,Ireland,country,Europe and Central Asia,53.41291,-8.24389,5976.34906406588,1987,4,0,0,0,0,0,0,0,0,0,0,0,0,0,0,4,0,0,0,0,0,0,0,0
VE,Venezuela,country,Latin America and the Caribbean,6.42375,-66.58973,IE,Ireland,country,Europe and Central Asia,53.41291,-8.24389,7389.38382461106,1987,14,0,0,0,0,0,0,13,1,0,0,0,0,0,0,0,0,0,0,0,0,0,0,0
BA,Bosnia & Herzegovina,country,Europe and Central Asia,43.915886,17.679076,IE,Ireland,country,Europe and Central Asia,53.41291,-8.24389,2162.09527228656,1987,32,0,0,5,0,0,0,0,5,0,0,0,16,0,0,6,0,0,0,0,0,0,0,0
ZW,Zimbabwe,country,Sub-Saharan Africa,-19.015438,29.154857,IE,Ireland,country,Europe and Central Asia,53.41291,-8.24389,8825.11710948555,1987,34,0,0,0,0,0,0,0,0,0,0,0,34,0,0,0,0,0,0,0,0,0,0,0
AR,Argentina,country,Latin America and the Caribbean,-38.416097,-63.616672,IE,Ireland,country,Europe and Central Asia,53.41291,-8.24389,11522.294499324,1988,21513,0,0,349,0,0,4180,0,22,402,0,16449,0,111,0,0,0,0,0,0,0,0,0,0
AU,Australia,country,East Asia and Pacific,-25.274398,133.775136,IE,Ireland,country,Europe and Central Asia,53.41291,-8.24389,15600.7918271035,1988,16782,0,0,12208,2080,0,1,1159,251,541,0,0,0,79,1,14,0,339,0,109,0,0,0,0
AT,Austria,country,Europe and Central Asia,47.516231,14.550072,IE,Ireland,country,Europe and Central Asia,53.41291,-8.24389,1734.01805372052,1988,26,11,0,0,0,0,0,0,0,0,0,0,7,8,0,0,0,0,0,0,0,0,0,0
BS,The Bahamas,country,Latin America and the Caribbean,25.03428,-77.39628,IE,Ireland,country,Europe and Central Asia,53.41291,-8.24389,6441.08139131673,1988,393,0,0,0,0,0,0,0,0,0,0,0,0,0,0,393,0,0,0,0,0,0,0,0
BD,Bangladesh,country,South Asia,23.684994,90.356331,IE,Ireland,country,Europe and Central Asia,53.41291,-8.24389,8466.8138694039,1988,34,0,0,0,0,0,0,0,0,34,0,0,0,0,0,0,0,0,0,0,0,0,0,0
BB,Barbados,country,Latin America and the Caribbean,13.193887,-59.543198,IE,Ireland,country,Europe and Central Asia,53.41291,-8.24389,6334.00571273339,1988,2,0,0,0,0,0,0,0,0,0,0,0,0,0,0,2,0,0,0,0,0,0,0,0
BE,Belgium,country,Europe and Central Asia,50.503887,4.469936,IE,Ireland,country,Europe and Central Asia,53.41291,-8.24389,928.771767899146,1988,80294,17643,7464,14069,951,0,0,2523,4163,516,1,23207,206,1713,6434,597,0,398,409,0,0,0,0,0
BR,Brazil,country,Latin America and the Caribbean,-14.235004,-51.92528,IE,Ireland,country,Europe and Central Asia,53.41291,-8.24389,8601.55203375784,1988,18605,0,0,86,0,0,1464,0,282,0,0,15836,15,921,0,1,0,0,0,0,0,0,0,0
BG,Bulgaria,country,Europe and Central Asia,42.733883,25.48583,IE,Ireland,country,Europe and Central Asia,53.41291,-8.24389,2742.32315215206,1988,73,0,0,35,0,0,0,0,0,21,0,0,0,0,0,0,0,0,0,17,0,0,0,0
BI,Burundi,country,Sub-Saharan Africa,-3.373056,29.918886,IE,Ireland,country,Europe and Central Asia,53.41291,-8.24389,7250.03662391037,1988,12,0,0,0,0,0,0,0,0,0,0,0,12,0,0,0,0,0,0,0,0,0,0,0
CA,Canada,country,North America,56.130366,-106.346771,IE,Ireland,country,Europe and Central Asia,53.41291,-8.24389,5754.4276230661,1988,53923,3925,0,17,18380,0,4386,154,6,0,0,26956,0,81,0,18,0,0,0,0,0,0,0,0
CL,Chile,country,Latin America and the Caribbean,-35.675147,-71.542969,IE,Ireland,country,Europe and Central Asia,53.41291,-8.24389,11635.0649479557,1988,105,0,0,0,0,0,0,18,87,0,0,0,0,0,0,0,0,0,0,0,0,0,0,0
HK,Hong Kong,country,East Asia and Pacific,22.396428,114.109497,IE,Ireland,country,Europe and Central Asia,53.41291,-8.24389,9948.41595196937,1988,69,0,0,2,0,0,19,1,1,0,0,0,0,44,2,0,0,0,0,0,0,0,0,0
CN,China,country,East Asia and Pacific,35.86166,104.195397,IE,Ireland,country,Europe and Central Asia,53.41291,-8.24389,8168.71280703145,1988,51850,0,0,0,18,0,3,0,0,0,4,51739,9,77,0,0,0,0,0,0,0,0,0,0
TW,Taiwan,country,East Asia and Pacific,23.69781,120.960515,IE,Ireland,country,Europe and Central Asia,53.41291,-8.24389,10160.7918025071,1988,49,0,0,28,0,0,0,0,0,0,0,0,0,21,0,0,0,0,0,0,0,0,0,0
CO,Colombia,country,Latin America and the Caribbean,4.570868,-74.297333,IE,Ireland,country,Europe and Central Asia,53.41291,-8.24389,8040.95730221526,1988,8437,0,0,0,0,0,0,0,8258,0,0,0,1,178,0,0,0,0,0,0,0,0,0,0
CR,Costa Rica,country,Latin America and the Caribbean,9.748917,-83.753428,IE,Ireland,country,Europe and Central Asia,53.41291,-8.24389,8189.0532349131,1988,1086,0,0,0,0,0,0,0,991,0,0,0,95,0,0,0,0,0,0,0,0,0,0,0
CI,Ivory Coast,country,Sub-Saharan Africa,7.539989,-5.54708,IE,Ireland,country,Europe and Central Asia,53.41291,-8.24389,5112.36256389571,1988,17012,0,0,11840,0,0,130,0,51,706,0,3959,100,226,0,0,0,0,0,0,0,0,0,0
CU,Cuba,country,Latin America and the Caribbean,21.521757,-77.781167,IE,Ireland,country,Europe and Central Asia,53.41291,-8.24389,6764.17464337194,1988,1,0,0,0,0,0,0,0,0,0,0,0,0,1,0,0,0,0,0,0,0,0,0,0
CY,Cyprus,country,Europe and Central Asia,35.126413,33.429859,IE,Ireland,country,Europe and Central Asia,53.41291,-8.24389,3817.83927780648,1988,9381,18,0,0,0,0,0,0,9363,0,0,0,0,0,0,0,0,0,0,0,0,0,0,0
CZ,Czech Republic,country,Europe and Central Asia,49.817492,15.472962,IE,Ireland,country,Europe and Central Asia,53.41291,-8.24389,1678.98967209126,1988,79,0,0,0,72,0,0,0,0,0,0,0,0,7,0,0,0,0,0,0,0,0,0,0
CD,"Congo, Dem. Rep.",country,Sub-Saharan Africa,-4.038333,21.758664,IE,Ireland,country,Europe and Central Asia,53.41291,-8.24389,6981.90077263632,1988,1,0,0,0,0,0,0,0,0,0,0,0,0,1,0,0,0,0,0,0,0,0,0,0
DK,Denmark,country,Europe and Central Asia,56.26392,9.501785,IE,Ireland,country,Europe and Central Asia,53.41291,-8.24389,1177.33492217322,1988,22198,11600,51,94,1100,0,2,108,886,14,1,4682,18,1983,62,541,0,941,115,0,0,0,0,0
DO,Dominican Republic,country,Latin America and the Caribbean,18.735693,-70.162651,IE,Ireland,country,Europe and Central Asia,53.41291,-8.24389,6503.83726560053,1988,72,0,0,0,0,0,72,0,0,0,0,0,0,0,0,0,0,0,0,0,0,0,0,0
EC,Ecuador,country,Latin America and the Caribbean,-1.831239,-78.183406,IE,Ireland,country,Europe and Central Asia,53.41291,-8.24389,8872.9110488254,1988,3442,0,0,0,0,15,0,0,3427,0,0,0,0,0,0,0,0,0,0,0,0,0,0,0
EG,Egypt,country,Middle East and North Africa,26.820553,30.802498,IE,Ireland,country,Europe and Central Asia,53.41291,-8.24389,4359.11107429444,1988,61,0,0,0,0,0,0,1,1,59,0,0,0,0,0,0,0,0,0,0,0,0,0,0
FI,Finland,country,Europe and Central Asia,61.92411,25.748151,IE,Ireland,country,Europe and Central Asia,53.41291,-8.24389,2200.93856776253,1988,2815,19,0,17,0,0,0,0,38,0,0,0,178,18,22,12,0,0,2511,0,0,0,0,0
FR,France,country,Europe and Central Asia,46.227638,2.213749,IE,Ireland,country,Europe and Central Asia,53.41291,-8.24389,1095.05431788211,1988,303752,128750,1168,102958,0,2,67,3463,29561,198,84,21701,252,1633,1879,6153,0,895,4987,0,1,0,0,0
GH,Ghana,country,Sub-Saharan Africa,7.946527,-1.023194,IE,Ireland,country,Europe and Central Asia,53.41291,-8.24389,5103.04925977548,1988,4252,0,0,0,0,0,52,0,0,0,0,0,4200,0,0,0,0,0,0,0,0,0,0,0
GI,Gibraltar,country,Europe and Central Asia,36.137741,-5.345374,IE,Ireland,country,Europe and Central Asia,53.41291,-8.24389,1936.24597280889,1988,1,0,0,1,0,0,0,0,0,0,0,0,0,0,0,0,0,0,0,0,0,0,0,0
GR,Greece,country,Europe and Central Asia,39.074208,21.824312,IE,Ireland,country,Europe and Central Asia,53.41291,-8.24389,2778.88640997066,1988,16928,2883,0,0,0,0,0,865,1919,70,0,11135,0,40,0,0,0,0,16,0,0,0,0,0
GT,Guatemala,country,Latin America and the Caribbean,15.783471,-90.230759,IE,Ireland,country,Europe and Central Asia,53.41291,-8.24389,8086.33929558336,1988,1516,0,0,0,0,0,0,0,1516,0,0,0,0,0,0,0,0,0,0,0,0,0,0,0
GY,Guyana,country,Latin America and the Caribbean,4.860416,-58.93018,IE,Ireland,country,Europe and Central Asia,53.41291,-8.24389,7082.24766761354,1988,2,0,0,0,0,0,0,0,0,0,0,0,0,0,0,2,0,0,0,0,0,0,0,0
HT,Haiti,country,Latin America and the Caribbean,18.971187,-72.285215,IE,Ireland,country,Europe and Central Asia,53.41291,-8.24389,6621.83858241135,1988,0,0,0,0,0,0,0,0,0,0,0,0,0,0,0,0,0,0,0,0,0,0,0,0
HN,Honduras,country,Latin America and the Caribbean,15.199999,-86.241905,IE,Ireland,country,Europe and Central Asia,53.41291,-8.24389,7872.8588451857,1988,6725,0,0,0,0,0,0,0,6725,0,0,0,0,0,0,0,0,0,0,0,0,0,0,0
HU,Hungary,country,Europe and Central Asia,47.162494,19.503304,IE,Ireland,country,Europe and Central Asia,53.41291,-8.24389,2076.81007318724,1988,694,0,0,36,20,0,0,558,0,0,0,60,0,20,0,0,0,0,0,0,0,0,0,0
IN,India,country,South Asia,20.593684,78.96288,IE,Ireland,country,Europe and Central Asia,53.41291,-8.24389,8010.96437635991,1988,2544,0,0,0,0,0,0,0,0,0,0,0,1933,611,0,0,0,0,0,0,0,0,0,0
ID,Indonesia,country,East Asia and Pacific,-0.789275,113.921327,IE,Ireland,country,Europe and Central Asia,53.41291,-8.24389,12152.5454027726,1988,1051,0,0,0,0,0,0,0,0,0,62,0,981,8,0,0,0,0,0,0,0,0,0,0
IR,Iran,country,Middle East and North Africa,32.427908,53.688046,IE,Ireland,country,Europe and Central Asia,53.41291,-8.24389,5359.09489417283,1988,74,0,0,0,0,0,0,0,74,0,0,0,0,0,0,0,0,0,0,0,0,0,0,0
IL,Israel,country,Middle East and North Africa,31.046051,34.851612,IE,Ireland,country,Europe and Central Asia,53.41291,-8.24389,4240.62484742095,1988,7668,8,0,0,0,0,0,758,6848,0,0,0,0,54,0,0,0,0,0,0,0,0,0,0
IT,Italy,country,Europe and Central Asia,41.87194,12.56738,IE,Ireland,country,Europe and Central Asia,53.41291,-8.24389,2008.54262526765,1988,30071,1118,691,1561,0,15,0,8652,10629,0,0,6150,12,326,55,730,0,126,6,0,0,0,0,0
JM,Jamaica,country,Latin America and the Caribbean,18.109581,-77.297508,IE,Ireland,country,Europe and Central Asia,53.41291,-8.24389,7026.56228858004,1988,200,0,0,0,0,0,0,0,13,0,2,0,0,0,0,185,0,0,0,0,0,0,0,0
JP,Japan,country,East Asia and Pacific,36.204824,138.252924,IE,Ireland,country,Europe and Central Asia,53.41291,-8.24389,9551.2243151296,1988,95,0,0,3,0,0,0,0,0,0,0,0,0,89,0,2,0,0,1,0,0,0,0,0
KE,Kenya,country,Sub-Saharan Africa,-0.023559,37.906193,IE,Ireland,country,Europe and Central Asia,53.41291,-8.24389,7306.145560576,1988,19245,0,0,14056,0,0,0,0,262,48,0,0,4879,0,0,0,0,0,0,0,0,0,0,0
LB,Lebanon,country,Middle East and North Africa,33.854721,35.862285,IE,Ireland,country,Europe and Central Asia,53.41291,-8.24389,4075.10898612936,1988,0,0,0,0,0,0,0,0,0,0,0,0,0,0,0,0,0,0,0,0,0,0,0,0
LR,Liberia,country,Sub-Saharan Africa,6.428055,-9.429499,IE,Ireland,country,Europe and Central Asia,53.41291,-8.24389,5231.43617124375,1988,467,0,0,0,0,0,0,0,0,0,0,0,0,467,0,0,0,0,0,0,0,0,0,0
MW,Malawi,country,Sub-Saharan Africa,-13.254308,34.301525,IE,Ireland,country,Europe and Central Asia,53.41291,-8.24389,8450.97616876908,1988,179,0,0,0,0,0,0,0,0,0,0,0,44,135,0,0,0,0,0,0,0,0,0,0
MY,Malaysia,country,East Asia and Pacific,4.210484,101.975766,IE,Ireland,country,Europe and Central Asia,53.41291,-8.24389,10956.497521814,1988,5833,0,0,0,0,0,0,0,0,0,38,986,244,3827,738,0,0,0,0,0,0,0,0,0
ML,Mali,country,Sub-Saharan Africa,17.570692,-3.996166,IE,Ireland,country,Europe and Central Asia,53.41291,-8.24389,4006.90794414824,1988,680,0,0,0,0,0,0,0,0,680,0,0,0,0,0,0,0,0,0,0,0,0,0,0
MT,Malta,country,Middle East and North Africa,35.937496,14.375416,IE,Ireland,country,Europe and Central Asia,53.41291,-8.24389,2621.3580739247,1988,40,11,0,0,0,0,0,0,0,0,0,0,29,0,0,0,0,0,0,0,0,0,0,0
MU,Mauritius,country,Sub-Saharan Africa,-20.348404,57.552152,IE,Ireland,country,Europe and Central Asia,53.41291,-8.24389,10338.3609780023,1988,171,0,0,90,0,0,0,0,0,0,0,0,81,0,0,0,0,0,0,0,0,0,0,0
MX,Mexico,country,Latin America and the Caribbean,23.634501,-102.552784,IE,Ireland,country,Europe and Central Asia,53.41291,-8.24389,8202.84619269682,1988,11986,0,0,8044,0,0,0,0,0,0,0,0,0,36,0,10,0,0,3896,0,0,0,0,0
MA,Morocco,country,Middle East and North Africa,31.791702,-7.09262,IE,Ireland,country,Europe and Central Asia,53.41291,-8.24389,2408.63151405279,1988,3306,0,0,0,0,0,0,0,176,0,0,3130,0,0,0,0,0,0,0,0,0,0,0,0
MZ,Mozambique,country,Sub-Saharan Africa,-18.665695,35.529562,IE,Ireland,country,Europe and Central Asia,53.41291,-8.24389,9053.42299748802,1988,8224,0,0,8000,0,0,0,0,224,0,0,0,0,0,0,0,0,0,0,0,0,0,0,0
MM,Myanmar,country,East Asia and Pacific,21.913965,95.956223,IE,Ireland,country,Europe and Central Asia,53.41291,-8.24389,8967.8483461142,1988,18,0,0,0,0,0,0,0,0,18,0,0,0,0,0,0,0,0,0,0,0,0,0,0
NL,Netherlands,country,Europe and Central Asia,52.132633,5.291266,IE,Ireland,country,Europe and Central Asia,53.41291,-8.24389,921.16427694974,1988,530840,10179,73335,8170,71,12,1589,24459,21980,93,10,337142,920,9457,24712,11756,0,3514,3421,20,0,0,0,0
NZ,New Zealand,country,East Asia and Pacific,-40.900557,174.885971,IE,Ireland,country,Europe and Central Asia,53.41291,-8.24389,18624.9919137641,1988,8728,0,0,0,1877,0,0,78,4590,1555,0,20,0,176,0,0,0,432,0,0,0,0,0,0
NI,Nicaragua,country,Latin America and the Caribbean,12.865416,-85.207229,IE,Ireland,country,Europe and Central Asia,53.41291,-8.24389,8009.32490847683,1988,15,0,0,0,0,0,0,0,15,0,0,0,0,0,0,0,0,0,0,0,0,0,0,0
NG,Nigeria,country,Sub-Saharan Africa,9.081999,8.675277,IE,Ireland,country,Europe and Central Asia,53.41291,-8.24389,5163.2800695029,1988,1383,0,0,0,0,0,0,0,0,0,0,0,1264,119,0,0,0,0,0,0,0,0,0,0
NO,Norway,country,Europe and Central Asia,60.472024,8.468946,IE,Ireland,country,Europe and Central Asia,53.41291,-8.24389,1277.41266258184,1988,300,70,0,0,153,0,0,0,0,0,0,12,0,2,63,0,0,0,0,0,0,0,0,0
PK,Pakistan,country,South Asia,30.375321,69.345116,IE,Ireland,country,Europe and Central Asia,53.41291,-8.24389,6556.6592322392,1988,60501,0,0,58812,0,0,0,0,0,1664,0,0,25,0,0,0,0,0,0,0,0,0,0,0
PA,Panama,country,Latin America and the Caribbean,8.537981,-80.782127,IE,Ireland,country,Europe and Central Asia,53.41291,-8.24389,8101.55816029898,1988,1171,0,0,0,0,0,0,0,1171,0,0,0,0,0,0,0,0,0,0,0,0,0,0,0
PG,Papua New Guinea,country,East Asia and Pacific,-6.314993,143.95555,IE,Ireland,country,Europe and Central Asia,53.41291,-8.24389,14222.2761413597,1988,77,0,0,0,0,0,0,0,0,0,0,0,66,11,0,0,0,0,0,0,0,0,0,0
PE,Peru,country,Latin America and the Caribbean,-9.189967,-75.015152,IE,Ireland,country,Europe and Central Asia,53.41291,-8.24389,9355.34268491302,1988,0,0,0,0,0,0,0,0,0,0,0,0,0,0,0,0,0,0,0,0,0,0,0,0
PH,Philippines,country,East Asia and Pacific,12.879721,121.774017,IE,Ireland,country,Europe and Central Asia,53.41291,-8.24389,11268.217138742,1988,3105,0,0,0,0,0,514,0,219,0,0,0,0,151,2221,0,0,0,0,0,0,0,0,0
PL,Poland,country,Europe and Central Asia,51.919438,19.145136,IE,Ireland,country,Europe and Central Asia,53.41291,-8.24389,1845.02890970564,1988,5455,0,0,0,0,0,0,5455,0,0,0,0,0,0,0,0,0,0,0,0,0,0,0,0
PT,Portugal,country,Europe and Central Asia,39.399872,-8.224454,IE,Ireland,country,Europe and Central Asia,53.41291,-8.24389,1559.92495264987,1988,617,0,0,0,0,0,0,24,471,0,0,0,0,0,0,122,0,0,0,0,0,0,0,0
KR,"Korea, Rep.",country,East Asia and Pacific,35.907757,127.766922,IE,Ireland,country,Europe and Central Asia,53.41291,-8.24389,9228.55210982868,1988,635,0,0,0,0,0,0,0,0,0,0,0,0,635,0,0,0,0,0,0,0,0,0,0
RO,Romania,country,Europe and Central Asia,45.943161,24.96676,IE,Ireland,country,Europe and Central Asia,53.41291,-8.24389,2505.76696060573,1988,19,0,0,0,0,0,0,0,0,0,0,0,0,0,0,0,0,0,19,0,0,0,0,0
RW,Rwanda,country,Sub-Saharan Africa,-1.940278,29.873888,IE,Ireland,country,Europe and Central Asia,53.41291,-8.24389,7102.37638110685,1988,1267,0,0,0,0,0,0,0,0,0,0,0,1267,0,0,0,0,0,0,0,0,0,0,0
SN,Senegal,country,Sub-Saharan Africa,14.497401,-14.452362,IE,Ireland,country,Europe and Central Asia,53.41291,-8.24389,4366.30526553037,1988,15446,0,0,5715,0,0,0,0,0,283,0,9448,0,0,0,0,0,0,0,0,0,0,0,0
SG,Singapore,country,East Asia and Pacific,1.352083,103.819836,IE,Ireland,country,Europe and Central Asia,53.41291,-8.24389,11334.8758499209,1988,51,0,0,0,0,0,0,0,0,0,0,0,0,25,20,0,0,0,5,1,0,0,0,0
SB,Solomon Islands,country,East Asia and Pacific,-9.64571,160.156194,IE,Ireland,country,Europe and Central Asia,53.41291,-8.24389,15055.6820659815,1988,10,10,0,0,0,0,0,0,0,0,0,0,0,0,0,0,0,0,0,0,0,0,0,0
ZA,S. Africa,country,Sub-Saharan Africa,-30.559482,22.937506,IE,Ireland,country,Europe and Central Asia,53.41291,-8.24389,9821.89985064882,1988,1325,0,0,17,0,0,0,0,0,182,0,1100,25,0,0,1,0,0,0,0,0,0,0,0
ES,Spain,country,Europe and Central Asia,40.463667,-3.74922,IE,Ireland,country,Europe and Central Asia,53.41291,-8.24389,1480.6749116579,1988,51007,13580,19,1540,8,0,11,4642,9486,106,0,19806,0,192,35,1517,0,14,51,0,0,0,0,0
LK,Sri Lanka,country,South Asia,7.873054,80.771797,IE,Ireland,country,Europe and Central Asia,53.41291,-8.24389,9250.69354643309,1988,2000,0,0,0,0,0,46,0,0,0,0,0,414,544,996,0,0,0,0,0,0,0,0,0
SD,Sudan,country,Sub-Saharan Africa,12.862807,30.217636,IE,Ireland,country,Europe and Central Asia,53.41291,-8.24389,5640.7971942961,1988,28,0,0,0,0,0,0,0,18,10,0,0,0,0,0,0,0,0,0,0,0,0,0,0
SZ,Swaziland,country,Sub-Saharan Africa,-26.522503,31.465866,IE,Ireland,country,Europe and Central Asia,53.41291,-8.24389,9688.7466711691,1988,3597,0,0,2800,0,0,0,0,797,0,0,0,0,0,0,0,0,0,0,0,0,0,0,0
SE,Sweden,country,Europe and Central Asia,60.128161,18.643501,IE,Ireland,country,Europe and Central Asia,53.41291,-8.24389,1786.06364301939,1988,723,288,13,68,0,0,0,0,0,0,0,0,116,231,7,0,0,0,0,0,0,0,0,0
CH,Switzerland,country,Europe and Central Asia,46.818188,8.227512,IE,Ireland,country,Europe and Central Asia,53.41291,-8.24389,1381.18878443155,1988,343,45,0,1,0,0,0,1,1,20,3,66,1,184,0,4,0,0,13,4,0,0,0,0
TH,Thailand,country,East Asia and Pacific,15.870032,100.992541,IE,Ireland,country,Europe and Central Asia,53.41291,-8.24389,9823.04051503784,1988,96,0,0,0,0,0,0,0,51,0,0,0,0,45,0,0,0,0,0,0,0,0,0,0
TT,Trinidad and Tobago,country,Latin America and the Caribbean,10.691803,-61.222503,IE,Ireland,country,Europe and Central Asia,53.41291,-8.24389,6667.20358771526,1988,2,0,0,0,0,0,0,0,0,0,0,0,0,0,0,2,0,0,0,0,0,0,0,0
TR,Turkey,country,Europe and Central Asia,38.963745,35.243322,IE,Ireland,country,Europe and Central Asia,53.41291,-8.24389,3644.22486914243,1988,5915,6,0,0,0,80,0,0,5829,0,0,0,0,0,0,0,0,0,0,0,0,0,0,0
UG,Uganda,country,Sub-Saharan Africa,1.373333,32.290275,IE,Ireland,country,Europe and Central Asia,53.41291,-8.24389,6882.67166010961,1988,10,0,0,0,0,0,0,0,0,0,0,0,10,0,0,0,0,0,0,0,0,0,0,0
GB,United Kingdom,country,Europe and Central Asia,55.378051,-3.435973,IE,Ireland,country,Europe and Central Asia,53.41291,-8.24389,380.583737144846,1988,937591,270827,32277,51339,5969,1118,3611,41705,48786,8500,652,226056,28578,51374,40419,71762,5867,37300,15737,1505,76,0,0,0
TZ,Tanzania,country,Sub-Saharan Africa,-6.369028,34.888822,IE,Ireland,country,Europe and Central Asia,53.41291,-8.24389,7784.22698619876,1988,71,0,0,0,0,0,0,0,0,0,0,0,52,19,0,0,0,0,0,0,0,0,0,0
US,USA,country,North America,37.09024,-95.712891,IE,Ireland,country,Europe and Central Asia,53.41291,-8.24389,6640.55458013614,1988,635264,4165,2,20757,280,50,4286,763,1634,13046,20,587252,21,1935,757,211,0,67,18,0,0,0,0,0
UY,Uruguay,country,Latin America and the Caribbean,-32.522779,-55.765835,IE,Ireland,country,Europe and Central Asia,53.41291,-8.24389,10608.3258823974,1988,97,0,0,0,0,0,0,0,86,0,0,0,0,11,0,0,0,0,0,0,0,0,0,0
RU,Russian Federation,country,Europe and Central Asia,61.52401,105.318756,IE,Ireland,country,Europe and Central Asia,53.41291,-8.24389,5976.34906406588,1988,707,0,0,0,0,0,0,0,0,20,0,0,0,0,0,3,0,0,0,684,0,0,0,0
VE,Venezuela,country,Latin America and the Caribbean,6.42375,-66.58973,IE,Ireland,country,Europe and Central Asia,53.41291,-8.24389,7389.38382461106,1988,12,0,0,0,0,0,0,12,0,0,0,0,0,0,0,0,0,0,0,0,0,0,0,0
VN,Vietnam,country,East Asia and Pacific,14.058324,108.277199,IE,Ireland,country,Europe and Central Asia,53.41291,-8.24389,10421.6979722882,1988,45,0,0,0,0,0,0,0,0,0,0,0,45,0,0,0,0,0,0,0,0,0,0,0
BA,Bosnia & Herzegovina,country,Europe and Central Asia,43.915886,17.679076,IE,Ireland,country,Europe and Central Asia,53.41291,-8.24389,2162.09527228656,1988,20,0,0,0,0,0,0,20,0,0,0,0,0,0,0,0,0,0,0,0,0,0,0,0
ZM,Zambia,country,Sub-Saharan Africa,-13.133897,27.849332,IE,Ireland,country,Europe and Central Asia,53.41291,-8.24389,8164.86582817381,1988,52,0,0,0,0,0,0,0,0,23,0,0,0,29,0,0,0,0,0,0,0,0,0,0
ZW,Zimbabwe,country,Sub-Saharan Africa,-19.015438,29.154857,IE,Ireland,country,Europe and Central Asia,53.41291,-8.24389,8825.11710948555,1988,667,0,0,0,0,0,0,0,0,0,0,0,94,573,0,0,0,0,0,0,0,0,0,0
DZ,Algeria,country,Middle East and North Africa,28.033886,1.659626,IE,Ireland,country,Europe and Central Asia,53.41291,-8.24389,2939.68334227574,1989,25,0,0,0,0,0,25,0,0,0,0,0,0,0,0,0,0,0,0,0,0,0,0,0
AR,Argentina,country,Latin America and the Caribbean,-38.416097,-63.616672,IE,Ireland,country,Europe and Central Asia,53.41291,-8.24389,11522.294499324,1989,25103,0,0,739,0,0,1050,0,5,1384,0,21050,0,125,750,0,0,0,0,0,0,0,0,0
AU,Australia,country,East Asia and Pacific,-25.274398,133.775136,IE,Ireland,country,Europe and Central Asia,53.41291,-8.24389,15600.7918271035,1989,3156,0,0,0,0,0,0,1767,410,78,0,0,0,180,0,277,0,87,0,357,0,0,0,0
AT,Austria,country,Europe and Central Asia,47.516231,14.550072,IE,Ireland,country,Europe and Central Asia,53.41291,-8.24389,1734.01805372052,1989,12,3,0,0,0,0,0,0,0,0,0,2,1,6,0,0,0,0,0,0,0,0,0,0
BS,The Bahamas,country,Latin America and the Caribbean,25.03428,-77.39628,IE,Ireland,country,Europe and Central Asia,53.41291,-8.24389,6441.08139131673,1989,258,0,0,0,0,0,0,0,0,0,0,0,0,0,0,258,0,0,0,0,0,0,0,0
BE,Belgium,country,Europe and Central Asia,50.503887,4.469936,IE,Ireland,country,Europe and Central Asia,53.41291,-8.24389,928.771767899146,1989,121205,14998,8728,4709,2457,1,7,3824,9519,606,0,61216,312,1800,11697,575,0,546,210,0,0,0,0,0
BR,Brazil,country,Latin America and the Caribbean,-14.235004,-51.92528,IE,Ireland,country,Europe and Central Asia,53.41291,-8.24389,8601.55203375784,1989,35347,0,0,46,0,0,500,0,740,61,0,32872,17,911,200,0,0,0,0,0,0,0,0,0
BG,Bulgaria,country,Europe and Central Asia,42.733883,25.48583,IE,Ireland,country,Europe and Central Asia,53.41291,-8.24389,2742.32315215206,1989,0,0,0,0,0,0,0,0,0,0,0,0,0,0,0,0,0,0,0,0,0,0,0,0
BF,Burkina Faso,country,Sub-Saharan Africa,12.238333,-1.561593,IE,Ireland,country,Europe and Central Asia,53.41291,-8.24389,4621.73881196405,1989,448,0,0,0,0,0,0,0,0,0,0,448,0,0,0,0,0,0,0,0,0,0,0,0
BI,Burundi,country,Sub-Saharan Africa,-3.373056,29.918886,IE,Ireland,country,Europe and Central Asia,53.41291,-8.24389,7250.03662391037,1989,19,0,0,0,0,0,0,0,0,0,0,0,19,0,0,0,0,0,0,0,0,0,0,0
CM,Cameroon,country,Sub-Saharan Africa,7.369722,12.354722,IE,Ireland,country,Europe and Central Asia,53.41291,-8.24389,5452.41118825635,1989,998,0,0,0,0,0,0,0,0,998,0,0,0,0,0,0,0,0,0,0,0,0,0,0
CA,Canada,country,North America,56.130366,-106.346771,IE,Ireland,country,Europe and Central Asia,53.41291,-8.24389,5754.4276230661,1989,35630,758,0,1,3011,0,9811,118,0,0,0,21320,2,123,0,66,0,0,0,420,0,0,0,0
KY,Cayman Islands,country,Latin America and the Caribbean,19.513469,-80.566956,IE,Ireland,country,Europe and Central Asia,53.41291,-8.24389,7121.39123189127,1989,197,0,0,0,0,0,0,0,197,0,0,0,0,0,0,0,0,0,0,0,0,0,0,0
CF,Central African Rep.,country,Sub-Saharan Africa,6.611111,20.939444,IE,Ireland,country,Europe and Central Asia,53.41291,-8.24389,5839.39653926401,1989,216,0,0,0,0,0,0,0,0,216,0,0,0,0,0,0,0,0,0,0,0,0,0,0
CL,Chile,country,Latin America and the Caribbean,-35.675147,-71.542969,IE,Ireland,country,Europe and Central Asia,53.41291,-8.24389,11635.0649479557,1989,277,0,0,0,0,0,0,0,194,0,0,0,0,73,0,10,0,0,0,0,0,0,0,0
HK,Hong Kong,country,East Asia and Pacific,22.396428,114.109497,IE,Ireland,country,Europe and Central Asia,53.41291,-8.24389,9948.41595196937,1989,40,0,0,5,0,0,23,1,0,0,1,0,0,9,1,0,0,0,0,0,0,0,0,0
CN,China,country,East Asia and Pacific,35.86166,104.195397,IE,Ireland,country,Europe and Central Asia,53.41291,-8.24389,8168.71280703145,1989,25337,0,0,33,0,0,11,0,0,0,1,25056,8,228,0,0,0,0,0,0,0,0,0,0
TW,Taiwan,country,East Asia and Pacific,23.69781,120.960515,IE,Ireland,country,Europe and Central Asia,53.41291,-8.24389,10160.7918025071,1989,53,0,0,18,0,0,0,0,0,0,0,0,0,35,0,0,0,0,0,0,0,0,0,0
CO,Colombia,country,Latin America and the Caribbean,4.570868,-74.297333,IE,Ireland,country,Europe and Central Asia,53.41291,-8.24389,8040.95730221526,1989,10157,13,0,0,0,0,0,0,9855,0,0,0,13,276,0,0,0,0,0,0,0,0,0,0
CR,Costa Rica,country,Latin America and the Caribbean,9.748917,-83.753428,IE,Ireland,country,Europe and Central Asia,53.41291,-8.24389,8189.0532349131,1989,26489,0,0,0,0,0,0,0,26379,0,0,0,104,6,0,0,0,0,0,0,0,0,0,0
CI,Ivory Coast,country,Sub-Saharan Africa,7.539989,-5.54708,IE,Ireland,country,Europe and Central Asia,53.41291,-8.24389,5112.36256389571,1989,14639,0,0,10467,0,0,52,0,6,1302,0,1965,592,255,0,0,0,0,0,0,0,0,0,0
CU,Cuba,country,Latin America and the Caribbean,21.521757,-77.781167,IE,Ireland,country,Europe and Central Asia,53.41291,-8.24389,6764.17464337194,1989,1,0,0,0,0,0,0,0,0,0,0,0,0,1,0,0,0,0,0,0,0,0,0,0
CY,Cyprus,country,Europe and Central Asia,35.126413,33.429859,IE,Ireland,country,Europe and Central Asia,53.41291,-8.24389,3817.83927780648,1989,7663,7,46,0,0,0,0,0,5599,0,0,1982,0,12,0,17,0,0,0,0,0,0,0,0
CZ,Czech Republic,country,Europe and Central Asia,49.817492,15.472962,IE,Ireland,country,Europe and Central Asia,53.41291,-8.24389,1678.98967209126,1989,52,0,0,0,0,0,0,9,23,0,0,20,0,0,0,0,0,0,0,0,0,0,0,0
CD,"Congo, Dem. Rep.",country,Sub-Saharan Africa,-4.038333,21.758664,IE,Ireland,country,Europe and Central Asia,53.41291,-8.24389,6981.90077263632,1989,13,0,0,0,0,0,0,0,0,0,0,0,10,3,0,0,0,0,0,0,0,0,0,0
DK,Denmark,country,Europe and Central Asia,56.26392,9.501785,IE,Ireland,country,Europe and Central Asia,53.41291,-8.24389,1177.33492217322,1989,33851,16752,20,51,790,0,0,4,636,0,0,11387,19,1979,101,119,0,1898,95,0,0,0,0,0
DO,Dominican Republic,country,Latin America and the Caribbean,18.735693,-70.162651,IE,Ireland,country,Europe and Central Asia,53.41291,-8.24389,6503.83726560053,1989,147,0,0,0,0,0,48,0,99,0,0,0,0,0,0,0,0,0,0,0,0,0,0,0
EC,Ecuador,country,Latin America and the Caribbean,-1.831239,-78.183406,IE,Ireland,country,Europe and Central Asia,53.41291,-8.24389,8872.9110488254,1989,2886,0,0,0,0,0,0,0,2886,0,0,0,0,0,0,0,0,0,0,0,0,0,0,0
EG,Egypt,country,Middle East and North Africa,26.820553,30.802498,IE,Ireland,country,Europe and Central Asia,53.41291,-8.24389,4359.11107429444,1989,75,0,0,0,0,0,0,0,0,75,0,0,0,0,0,0,0,0,0,0,0,0,0,0
FI,Finland,country,Europe and Central Asia,61.92411,25.748151,IE,Ireland,country,Europe and Central Asia,53.41291,-8.24389,2200.93856776253,1989,2618,313,0,13,0,0,0,0,0,0,0,0,129,0,0,7,0,0,2156,0,0,0,0,0
FR,France,country,Europe and Central Asia,46.227638,2.213749,IE,Ireland,country,Europe and Central Asia,53.41291,-8.24389,1095.05431788211,1989,222055,109951,874,33842,0,2,13,4302,29783,362,54,19802,413,1726,3266,10949,0,2077,4629,7,3,0,0,0
GH,Ghana,country,Sub-Saharan Africa,7.946527,-1.023194,IE,Ireland,country,Europe and Central Asia,53.41291,-8.24389,5103.04925977548,1989,5930,0,0,0,0,0,0,0,0,0,0,0,5930,0,0,0,0,0,0,0,0,0,0,0
GR,Greece,country,Europe and Central Asia,39.074208,21.824312,IE,Ireland,country,Europe and Central Asia,53.41291,-8.24389,2778.88640997066,1989,12278,429,0,3,0,0,2,980,1946,1040,0,7869,0,0,0,9,0,0,0,0,0,0,0,0
GT,Guatemala,country,Latin America and the Caribbean,15.783471,-90.230759,IE,Ireland,country,Europe and Central Asia,53.41291,-8.24389,8086.33929558336,1989,873,0,0,0,0,0,0,0,872,0,0,0,1,0,0,0,0,0,0,0,0,0,0,0
GN,Guinea,country,Sub-Saharan Africa,9.945587,-9.696645,IE,Ireland,country,Europe and Central Asia,53.41291,-8.24389,4840.50957937737,1989,0,0,0,0,0,0,0,0,0,0,0,0,0,0,0,0,0,0,0,0,0,0,0,0
HN,Honduras,country,Latin America and the Caribbean,15.199999,-86.241905,IE,Ireland,country,Europe and Central Asia,53.41291,-8.24389,7872.8588451857,1989,2509,0,0,0,0,0,0,0,2440,0,0,0,69,0,0,0,0,0,0,0,0,0,0,0
HU,Hungary,country,Europe and Central Asia,47.162494,19.503304,IE,Ireland,country,Europe and Central Asia,53.41291,-8.24389,2076.81007318724,1989,226,0,0,0,0,0,0,210,0,0,0,0,0,0,0,16,0,0,0,0,0,0,0,0
IS,Iceland,country,Europe and Central Asia,64.963051,-19.020835,IE,Ireland,country,Europe and Central Asia,53.41291,-8.24389,1420.52115337193,1989,19,0,0,0,0,0,0,19,0,0,0,0,0,0,0,0,0,0,0,0,0,0,0,0
IN,India,country,South Asia,20.593684,78.96288,IE,Ireland,country,Europe and Central Asia,53.41291,-8.24389,8010.96437635991,1989,39408,0,0,35868,0,0,0,0,0,0,0,916,2131,493,0,0,0,0,0,0,0,0,0,0
ID,Indonesia,country,East Asia and Pacific,-0.789275,113.921327,IE,Ireland,country,Europe and Central Asia,53.41291,-8.24389,12152.5454027726,1989,18995,0,17380,0,0,0,0,0,0,0,46,0,1423,146,0,0,0,0,0,0,0,0,0,0
IR,Iran,country,Middle East and North Africa,32.427908,53.688046,IE,Ireland,country,Europe and Central Asia,53.41291,-8.24389,5359.09489417283,1989,19,0,0,0,0,0,0,0,19,0,0,0,0,0,0,0,0,0,0,0,0,0,0,0
IL,Israel,country,Middle East and North Africa,31.046051,34.851612,IE,Ireland,country,Europe and Central Asia,53.41291,-8.24389,4240.62484742095,1989,9546,0,0,0,0,0,0,799,8690,0,0,0,0,56,0,1,0,0,0,0,0,0,0,0
IT,Italy,country,Europe and Central Asia,41.87194,12.56738,IE,Ireland,country,Europe and Central Asia,53.41291,-8.24389,2008.54262526765,1989,32978,1200,2387,4745,0,0,0,10206,11199,0,0,22,128,577,95,2159,0,226,20,14,0,0,0,0
JM,Jamaica,country,Latin America and the Caribbean,18.109581,-77.297508,IE,Ireland,country,Europe and Central Asia,53.41291,-8.24389,7026.56228858004,1989,197,0,0,0,0,0,0,0,99,0,0,0,0,0,0,98,0,0,0,0,0,0,0,0
JP,Japan,country,East Asia and Pacific,36.204824,138.252924,IE,Ireland,country,Europe and Central Asia,53.41291,-8.24389,9551.2243151296,1989,111,0,0,9,0,0,0,0,0,0,0,0,0,100,0,2,0,0,0,0,0,0,0,0
KE,Kenya,country,Sub-Saharan Africa,-0.023559,37.906193,IE,Ireland,country,Europe and Central Asia,53.41291,-8.24389,7306.145560576,1989,4432,0,0,0,0,0,0,0,50,8,0,0,4374,0,0,0,0,0,0,0,0,0,0,0
LB,Lebanon,country,Middle East and North Africa,33.854721,35.862285,IE,Ireland,country,Europe and Central Asia,53.41291,-8.24389,4075.10898612936,1989,2,0,0,0,0,0,0,0,0,0,0,0,0,0,0,2,0,0,0,0,0,0,0,0
LR,Liberia,country,Sub-Saharan Africa,6.428055,-9.429499,IE,Ireland,country,Europe and Central Asia,53.41291,-8.24389,5231.43617124375,1989,709,0,0,0,0,0,0,0,0,0,0,0,0,709,0,0,0,0,0,0,0,0,0,0
MW,Malawi,country,Sub-Saharan Africa,-13.254308,34.301525,IE,Ireland,country,Europe and Central Asia,53.41291,-8.24389,8450.97616876908,1989,78,0,0,0,0,0,0,0,0,0,0,0,78,0,0,0,0,0,0,0,0,0,0,0
MY,Malaysia,country,East Asia and Pacific,4.210484,101.975766,IE,Ireland,country,Europe and Central Asia,53.41291,-8.24389,10956.497521814,1989,5569,0,0,0,0,0,24,0,31,0,78,1588,537,3131,180,0,0,0,0,0,0,0,0,0
ML,Mali,country,Sub-Saharan Africa,17.570692,-3.996166,IE,Ireland,country,Europe and Central Asia,53.41291,-8.24389,4006.90794414824,1989,771,0,0,0,0,0,0,0,0,771,0,0,0,0,0,0,0,0,0,0,0,0,0,0
MT,Malta,country,Middle East and North Africa,35.937496,14.375416,IE,Ireland,country,Europe and Central Asia,53.41291,-8.24389,2621.3580739247,1989,110,70,0,0,0,0,0,0,0,0,0,0,40,0,0,0,0,0,0,0,0,0,0,0
MU,Mauritius,country,Sub-Saharan Africa,-20.348404,57.552152,IE,Ireland,country,Europe and Central Asia,53.41291,-8.24389,10338.3609780023,1989,13602,0,0,13537,0,0,0,0,0,0,0,0,65,0,0,0,0,0,0,0,0,0,0,0
MX,Mexico,country,Latin America and the Caribbean,23.634501,-102.552784,IE,Ireland,country,Europe and Central Asia,53.41291,-8.24389,8202.84619269682,1989,113,0,0,61,0,0,0,0,0,0,0,0,0,41,0,11,0,0,0,0,0,0,0,0
MN,Mongolia,country,East Asia and Pacific,46.862496,103.846656,IE,Ireland,country,Europe and Central Asia,53.41291,-8.24389,7164.91690381345,1989,12,0,0,0,0,0,12,0,0,0,0,0,0,0,0,0,0,0,0,0,0,0,0,0
MA,Morocco,country,Middle East and North Africa,31.791702,-7.09262,IE,Ireland,country,Europe and Central Asia,53.41291,-8.24389,2408.63151405279,1989,4687,0,0,0,0,0,0,0,467,0,0,4220,0,0,0,0,0,0,0,0,0,0,0,0
MZ,Mozambique,country,Sub-Saharan Africa,-18.665695,35.529562,IE,Ireland,country,Europe and Central Asia,53.41291,-8.24389,9053.42299748802,1989,309,0,0,0,0,0,0,0,309,0,0,0,0,0,0,0,0,0,0,0,0,0,0,0
NL,Netherlands,country,Europe and Central Asia,52.132633,5.291266,IE,Ireland,country,Europe and Central Asia,53.41291,-8.24389,921.16427694974,1989,591814,7149,101839,9848,104,16,4595,28388,23814,152,7,365864,1350,8276,23439,10022,0,4840,2087,24,0,0,0,0
NZ,New Zealand,country,East Asia and Pacific,-40.900557,174.885971,IE,Ireland,country,Europe and Central Asia,53.41291,-8.24389,18624.9919137641,1989,7043,1,0,0,63,0,0,0,3922,2485,0,20,0,78,0,2,0,472,0,0,0,0,0,0
NG,Nigeria,country,Sub-Saharan Africa,9.081999,8.675277,IE,Ireland,country,Europe and Central Asia,53.41291,-8.24389,5163.2800695029,1989,907,0,0,0,0,0,0,0,0,0,0,0,671,236,0,0,0,0,0,0,0,0,0,0
NO,Norway,country,Europe and Central Asia,60.472024,8.468946,IE,Ireland,country,Europe and Central Asia,53.41291,-8.24389,1277.41266258184,1989,562,86,0,0,208,0,0,0,0,0,1,116,0,4,128,0,0,19,0,0,0,0,0,0
PK,Pakistan,country,South Asia,30.375321,69.345116,IE,Ireland,country,Europe and Central Asia,53.41291,-8.24389,6556.6592322392,1989,47214,0,0,46486,0,0,0,0,0,728,0,0,0,0,0,0,0,0,0,0,0,0,0,0
PA,Panama,country,Latin America and the Caribbean,8.537981,-80.782127,IE,Ireland,country,Europe and Central Asia,53.41291,-8.24389,8101.55816029898,1989,1618,0,0,0,0,0,0,0,1618,0,0,0,0,0,0,0,0,0,0,0,0,0,0,0
PG,Papua New Guinea,country,East Asia and Pacific,-6.314993,143.95555,IE,Ireland,country,Europe and Central Asia,53.41291,-8.24389,14222.2761413597,1989,70,0,0,0,0,0,0,0,0,0,0,0,70,0,0,0,0,0,0,0,0,0,0,0
PY,Paraguay,country,Latin America and the Caribbean,-23.442503,-58.443832,IE,Ireland,country,Europe and Central Asia,53.41291,-8.24389,9823.52142274336,1989,3119,0,0,0,0,0,0,0,0,299,0,2820,0,0,0,0,0,0,0,0,0,0,0,0
PE,Peru,country,Latin America and the Caribbean,-9.189967,-75.015152,IE,Ireland,country,Europe and Central Asia,53.41291,-8.24389,9355.34268491302,1989,105,0,0,0,0,0,0,0,2,101,0,0,0,2,0,0,0,0,0,0,0,0,0,0
PH,Philippines,country,East Asia and Pacific,12.879721,121.774017,IE,Ireland,country,Europe and Central Asia,53.41291,-8.24389,11268.217138742,1989,2017,0,0,0,0,0,558,0,46,0,0,0,0,185,1228,0,0,0,0,0,0,0,0,0
PL,Poland,country,Europe and Central Asia,51.919438,19.145136,IE,Ireland,country,Europe and Central Asia,53.41291,-8.24389,1845.02890970564,1989,5529,0,0,2331,0,0,0,3198,0,0,0,0,0,0,0,0,0,0,0,0,0,0,0,0
PT,Portugal,country,Europe and Central Asia,39.399872,-8.224454,IE,Ireland,country,Europe and Central Asia,53.41291,-8.24389,1559.92495264987,1989,457,0,0,0,0,0,0,159,150,13,0,0,0,10,0,125,0,0,0,0,0,0,0,0
KR,"Korea, Rep.",country,East Asia and Pacific,35.907757,127.766922,IE,Ireland,country,Europe and Central Asia,53.41291,-8.24389,9228.55210982868,1989,606,0,0,0,0,0,0,0,0,0,0,0,0,606,0,0,0,0,0,0,0,0,0,0
RO,Romania,country,Europe and Central Asia,45.943161,24.96676,IE,Ireland,country,Europe and Central Asia,53.41291,-8.24389,2505.76696060573,1989,2,0,0,0,0,0,0,0,0,0,0,0,0,0,0,2,0,0,0,0,0,0,0,0
RW,Rwanda,country,Sub-Saharan Africa,-1.940278,29.873888,IE,Ireland,country,Europe and Central Asia,53.41291,-8.24389,7102.37638110685,1989,1084,0,0,0,0,0,0,0,0,0,0,0,1084,0,0,0,0,0,0,0,0,0,0,0
SA,Saudi Arabia,country,Middle East and North Africa,23.885942,45.079162,IE,Ireland,country,Europe and Central Asia,53.41291,-8.24389,5500.17755439911,1989,40,32,0,0,0,0,0,0,0,0,0,0,0,0,0,0,0,0,8,0,0,0,0,0
SN,Senegal,country,Sub-Saharan Africa,14.497401,-14.452362,IE,Ireland,country,Europe and Central Asia,53.41291,-8.24389,4366.30526553037,1989,10424,0,0,0,0,0,0,0,0,0,0,10424,0,0,0,0,0,0,0,0,0,0,0,0
SL,Sierra Leone,country,Sub-Saharan Africa,8.460555,-11.779889,IE,Ireland,country,Europe and Central Asia,53.41291,-8.24389,5014.1975133662,1989,5,0,0,0,0,0,0,0,0,0,0,0,0,5,0,0,0,0,0,0,0,0,0,0
SG,Singapore,country,East Asia and Pacific,1.352083,103.819836,IE,Ireland,country,Europe and Central Asia,53.41291,-8.24389,11334.8758499209,1989,257,0,0,0,0,0,3,0,0,0,12,0,218,4,20,0,0,0,0,0,0,0,0,0
ZA,S. Africa,country,Sub-Saharan Africa,-30.559482,22.937506,IE,Ireland,country,Europe and Central Asia,53.41291,-8.24389,9821.89985064882,1989,5379,0,0,0,0,0,0,0,0,0,0,5368,10,0,0,1,0,0,0,0,0,0,0,0
ES,Spain,country,Europe and Central Asia,40.463667,-3.74922,IE,Ireland,country,Europe and Central Asia,53.41291,-8.24389,1480.6749116579,1989,31094,7285,0,1219,0,0,16,7042,11400,683,3,1694,27,218,70,1436,0,0,1,0,0,0,0,0
LK,Sri Lanka,country,South Asia,7.873054,80.771797,IE,Ireland,country,Europe and Central Asia,53.41291,-8.24389,9250.69354643309,1989,3502,0,0,0,0,0,59,0,0,0,0,0,212,497,2734,0,0,0,0,0,0,0,0,0
SZ,Swaziland,country,Sub-Saharan Africa,-26.522503,31.465866,IE,Ireland,country,Europe and Central Asia,53.41291,-8.24389,9688.7466711691,1989,1616,0,0,0,0,0,0,0,1305,311,0,0,0,0,0,0,0,0,0,0,0,0,0,0
SE,Sweden,country,Europe and Central Asia,60.128161,18.643501,IE,Ireland,country,Europe and Central Asia,53.41291,-8.24389,1786.06364301939,1989,551,163,0,80,0,0,0,0,0,0,0,0,79,212,2,15,0,0,0,0,0,0,0,0
CH,Switzerland,country,Europe and Central Asia,46.818188,8.227512,IE,Ireland,country,Europe and Central Asia,53.41291,-8.24389,1381.18878443155,1989,285,34,0,2,0,0,2,0,0,0,1,7,2,213,0,4,0,0,20,0,0,0,0,0
TH,Thailand,country,East Asia and Pacific,15.870032,100.992541,IE,Ireland,country,Europe and Central Asia,53.41291,-8.24389,9823.04051503784,1989,21236,0,10147,10510,0,0,0,27,510,0,0,1,0,41,0,0,0,0,0,0,0,0,0,0
TG,Togo,country,Sub-Saharan Africa,8.619543,0.824782,IE,Ireland,country,Europe and Central Asia,53.41291,-8.24389,5052.71397676685,1989,2252,0,0,0,0,0,0,0,0,80,0,2171,0,1,0,0,0,0,0,0,0,0,0,0
TT,Trinidad and Tobago,country,Latin America and the Caribbean,10.691803,-61.222503,IE,Ireland,country,Europe and Central Asia,53.41291,-8.24389,6667.20358771526,1989,1,0,0,0,0,0,0,0,0,0,0,0,0,0,0,1,0,0,0,0,0,0,0,0
TN,Tunisia,country,Middle East and North Africa,33.886917,9.537499,IE,Ireland,country,Europe and Central Asia,53.41291,-8.24389,2587.18440560557,1989,14,1,0,0,0,0,0,0,0,0,4,0,0,9,0,0,0,0,0,0,0,0,0,0
TR,Turkey,country,Europe and Central Asia,38.963745,35.243322,IE,Ireland,country,Europe and Central Asia,53.41291,-8.24389,3644.22486914243,1989,5789,0,0,25,0,75,0,0,5671,18,0,0,0,0,0,0,0,0,0,0,0,0,0,0
GB,United Kingdom,country,Europe and Central Asia,55.378051,-3.435973,IE,Ireland,country,Europe and Central Asia,53.41291,-8.24389,380.583737144846,1989,1044536,273718,54482,60285,18000,1130,4407,38370,44862,8741,742,231729,26612,53691,38070,89418,5402,44802,53990,1478,9,0,0,0
TZ,Tanzania,country,Sub-Saharan Africa,-6.369028,34.888822,IE,Ireland,country,Europe and Central Asia,53.41291,-8.24389,7784.22698619876,1989,154,0,0,0,0,0,0,0,0,0,0,0,9,145,0,0,0,0,0,0,0,0,0,0
US,USA,country,North America,37.09024,-95.712891,IE,Ireland,country,Europe and Central Asia,53.41291,-8.24389,6640.55458013614,1989,757670,11770,0,42991,1702,35,6563,886,1023,12429,23,677346,28,1932,607,227,0,104,4,0,0,0,0,0
UY,Uruguay,country,Latin America and the Caribbean,-32.522779,-55.765835,IE,Ireland,country,Europe and Central Asia,53.41291,-8.24389,10608.3258823974,1989,43,0,0,0,0,0,0,0,41,0,0,0,0,2,0,0,0,0,0,0,0,0,0,0
RU,Russian Federation,country,Europe and Central Asia,61.52401,105.318756,IE,Ireland,country,Europe and Central Asia,53.41291,-8.24389,5976.34906406588,1989,331,0,0,0,0,0,0,0,0,325,0,0,0,0,0,6,0,0,0,0,0,0,0,0
VE,Venezuela,country,Latin America and the Caribbean,6.42375,-66.58973,IE,Ireland,country,Europe and Central Asia,53.41291,-8.24389,7389.38382461106,1989,3,0,0,0,0,0,0,3,0,0,0,0,0,0,0,0,0,0,0,0,0,0,0,0
VN,Vietnam,country,East Asia and Pacific,14.058324,108.277199,IE,Ireland,country,Europe and Central Asia,53.41291,-8.24389,10421.6979722882,1989,44,0,0,0,0,0,0,0,0,0,0,0,44,0,0,0,0,0,0,0,0,0,0,0
BA,Bosnia & Herzegovina,country,Europe and Central Asia,43.915886,17.679076,IE,Ireland,country,Europe and Central Asia,53.41291,-8.24389,2162.09527228656,1989,6,0,0,0,0,0,0,0,0,0,0,0,0,0,0,6,0,0,0,0,0,0,0,0
ZM,Zambia,country,Sub-Saharan Africa,-13.133897,27.849332,IE,Ireland,country,Europe and Central Asia,53.41291,-8.24389,8164.86582817381,1989,131,0,0,0,0,0,0,0,0,54,0,0,0,77,0,0,0,0,0,0,0,0,0,0
ZW,Zimbabwe,country,Sub-Saharan Africa,-19.015438,29.154857,IE,Ireland,country,Europe and Central Asia,53.41291,-8.24389,8825.11710948555,1989,973,0,0,0,0,0,0,0,0,0,0,0,255,718,0,0,0,0,0,0,0,0,0,0
AF,Afghanistan,country,South Asia,33.93911,67.709953,IE,Ireland,country,Europe and Central Asia,53.41291,-8.24389,6163.46033461371,1990,174,0,0,0,0,0,0,0,153,0,0,0,0,0,21,0,0,0,0,0,0,0,0,0
DZ,Algeria,country,Middle East and North Africa,28.033886,1.659626,IE,Ireland,country,Europe and Central Asia,53.41291,-8.24389,2939.68334227574,1990,10,0,0,0,0,0,0,0,0,0,0,0,0,0,0,10,0,0,0,0,0,0,0,0
AR,Argentina,country,Latin America and the Caribbean,-38.416097,-63.616672,IE,Ireland,country,Europe and Central Asia,53.41291,-8.24389,11522.294499324,1990,24173,0,0,590,0,0,4894,0,44,107,0,18446,0,92,0,0,0,0,0,0,0,0,0,0
AU,Australia,country,East Asia and Pacific,-25.274398,133.775136,IE,Ireland,country,Europe and Central Asia,53.41291,-8.24389,15600.7918271035,1990,2154,0,0,0,0,0,0,28,866,435,7,0,0,63,0,336,0,156,0,263,0,0,0,0
AT,Austria,country,Europe and Central Asia,47.516231,14.550072,IE,Ireland,country,Europe and Central Asia,53.41291,-8.24389,1734.01805372052,1990,27,1,0,0,0,0,0,0,0,0,0,4,0,21,0,1,0,0,0,0,0,0,0,0
BS,The Bahamas,country,Latin America and the Caribbean,25.03428,-77.39628,IE,Ireland,country,Europe and Central Asia,53.41291,-8.24389,6441.08139131673,1990,638,0,0,0,0,0,0,0,0,0,0,0,0,0,0,614,0,24,0,0,0,0,0,0
BH,Bahrain,country,Middle East and North Africa,25.930414,50.637772,IE,Ireland,country,Europe and Central Asia,53.41291,-8.24389,5686.95619860809,1990,5,0,0,0,0,0,0,0,0,0,0,0,0,5,0,0,0,0,0,0,0,0,0,0
BD,Bangladesh,country,South Asia,23.684994,90.356331,IE,Ireland,country,Europe and Central Asia,53.41291,-8.24389,8466.8138694039,1990,26,0,0,0,0,0,0,0,0,26,0,0,0,0,0,0,0,0,0,0,0,0,0,0
BE,Belgium,country,Europe and Central Asia,50.503887,4.469936,IE,Ireland,country,Europe and Central Asia,53.41291,-8.24389,928.771767899146,1990,109240,9571,9181,9466,2767,2,1377,4115,9116,983,0,50033,560,2271,8564,480,0,541,213,0,0,0,0,0
BR,Brazil,country,Latin America and the Caribbean,-14.235004,-51.92528,IE,Ireland,country,Europe and Central Asia,53.41291,-8.24389,8601.55203375784,1990,47966,0,0,11,0,0,413,1,888,0,0,45688,49,916,0,0,0,0,0,0,0,0,0,0
BG,Bulgaria,country,Europe and Central Asia,42.733883,25.48583,IE,Ireland,country,Europe and Central Asia,53.41291,-8.24389,2742.32315215206,1990,66,0,0,0,0,0,0,0,0,0,0,0,0,0,0,0,0,0,0,66,0,0,0,0
BI,Burundi,country,Sub-Saharan Africa,-3.373056,29.918886,IE,Ireland,country,Europe and Central Asia,53.41291,-8.24389,7250.03662391037,1990,59,0,0,0,0,0,0,0,0,0,0,0,59,0,0,0,0,0,0,0,0,0,0,0
CA,Canada,country,North America,56.130366,-106.346771,IE,Ireland,country,Europe and Central Asia,53.41291,-8.24389,5754.4276230661,1990,37420,3090,0,0,9595,0,4620,161,3,0,1,19630,0,96,0,10,0,0,0,214,0,0,0,0
CL,Chile,country,Latin America and the Caribbean,-35.675147,-71.542969,IE,Ireland,country,Europe and Central Asia,53.41291,-8.24389,11635.0649479557,1990,285,0,0,0,0,0,0,0,162,0,0,0,0,1,0,122,0,0,0,0,0,0,0,0
HK,Hong Kong,country,East Asia and Pacific,22.396428,114.109497,IE,Ireland,country,Europe and Central Asia,53.41291,-8.24389,9948.41595196937,1990,107,0,0,4,0,0,58,0,0,0,1,0,0,43,1,0,0,0,0,0,0,0,0,0
CN,China,country,East Asia and Pacific,35.86166,104.195397,IE,Ireland,country,Europe and Central Asia,53.41291,-8.24389,8168.71280703145,1990,28658,0,0,0,0,43,1,1,20,0,2,28384,0,206,1,0,0,0,0,0,0,0,0,0
TW,Taiwan,country,East Asia and Pacific,23.69781,120.960515,IE,Ireland,country,Europe and Central Asia,53.41291,-8.24389,10160.7918025071,1990,45,0,0,10,0,0,0,0,16,0,0,0,0,19,0,0,0,0,0,0,0,0,0,0
CO,Colombia,country,Latin America and the Caribbean,4.570868,-74.297333,IE,Ireland,country,Europe and Central Asia,53.41291,-8.24389,8040.95730221526,1990,3244,0,0,0,0,0,0,0,2862,0,0,0,7,375,0,0,0,0,0,0,0,0,0,0
CR,Costa Rica,country,Latin America and the Caribbean,9.748917,-83.753428,IE,Ireland,country,Europe and Central Asia,53.41291,-8.24389,8189.0532349131,1990,2959,0,0,0,0,0,0,17,2841,0,0,0,93,8,0,0,0,0,0,0,0,0,0,0
CI,Ivory Coast,country,Sub-Saharan Africa,7.539989,-5.54708,IE,Ireland,country,Europe and Central Asia,53.41291,-8.24389,5112.36256389571,1990,14338,0,0,12000,0,0,312,0,0,1227,0,0,701,98,0,0,0,0,0,0,0,0,0,0
CU,Cuba,country,Latin America and the Caribbean,21.521757,-77.781167,IE,Ireland,country,Europe and Central Asia,53.41291,-8.24389,6764.17464337194,1990,1,0,0,0,0,0,0,0,0,0,0,0,0,1,0,0,0,0,0,0,0,0,0,0
CY,Cyprus,country,Europe and Central Asia,35.126413,33.429859,IE,Ireland,country,Europe and Central Asia,53.41291,-8.24389,3817.83927780648,1990,3175,0,20,0,0,0,0,0,3120,23,0,0,0,12,0,0,0,0,0,0,0,0,0,0
CZ,Czech Republic,country,Europe and Central Asia,49.817492,15.472962,IE,Ireland,country,Europe and Central Asia,53.41291,-8.24389,1678.98967209126,1990,36,0,0,0,0,0,0,0,0,0,0,0,0,36,0,0,0,0,0,0,0,0,0,0
CD,"Congo, Dem. Rep.",country,Sub-Saharan Africa,-4.038333,21.758664,IE,Ireland,country,Europe and Central Asia,53.41291,-8.24389,6981.90077263632,1990,11,0,0,0,0,0,0,0,0,0,0,0,11,0,0,0,0,0,0,0,0,0,0,0
DK,Denmark,country,Europe and Central Asia,56.26392,9.501785,IE,Ireland,country,Europe and Central Asia,53.41291,-8.24389,1177.33492217322,1990,26715,15778,10,91,0,0,20,3,554,0,0,5885,39,1776,66,244,0,2121,128,0,0,0,0,0
DO,Dominican Republic,country,Latin America and the Caribbean,18.735693,-70.162651,IE,Ireland,country,Europe and Central Asia,53.41291,-8.24389,6503.83726560053,1990,628,0,0,0,0,0,30,0,598,0,0,0,0,0,0,0,0,0,0,0,0,0,0,0
EC,Ecuador,country,Latin America and the Caribbean,-1.831239,-78.183406,IE,Ireland,country,Europe and Central Asia,53.41291,-8.24389,8872.9110488254,1990,25405,0,0,0,0,0,0,0,25405,0,0,0,0,0,0,0,0,0,0,0,0,0,0,0
EG,Egypt,country,Middle East and North Africa,26.820553,30.802498,IE,Ireland,country,Europe and Central Asia,53.41291,-8.24389,4359.11107429444,1990,96,0,0,48,0,0,0,0,0,48,0,0,0,0,0,0,0,0,0,0,0,0,0,0
ET,Ethiopia,country,Sub-Saharan Africa,9.145,40.489673,IE,Ireland,country,Europe and Central Asia,53.41291,-8.24389,6562.57602685108,1990,4706,0,0,4706,0,0,0,0,0,0,0,0,0,0,0,0,0,0,0,0,0,0,0,0
FI,Finland,country,Europe and Central Asia,61.92411,25.748151,IE,Ireland,country,Europe and Central Asia,53.41291,-8.24389,2200.93856776253,1990,1471,4,0,3,0,0,0,0,0,0,0,20,138,0,1,4,0,0,1301,0,0,0,0,0
FR,France,country,Europe and Central Asia,46.227638,2.213749,IE,Ireland,country,Europe and Central Asia,53.41291,-8.24389,1095.05431788211,1990,249628,120418,665,41224,9336,12,16,4094,27272,266,6,22239,194,1635,3073,11597,0,1503,6072,0,6,0,0,0
GH,Ghana,country,Sub-Saharan Africa,7.946527,-1.023194,IE,Ireland,country,Europe and Central Asia,53.41291,-8.24389,5103.04925977548,1990,9766,0,0,0,0,0,0,0,0,0,0,0,9766,0,0,0,0,0,0,0,0,0,0,0
GR,Greece,country,Europe and Central Asia,39.074208,21.824312,IE,Ireland,country,Europe and Central Asia,53.41291,-8.24389,2778.88640997066,1990,8164,267,0,0,0,0,0,611,7198,0,0,0,5,36,23,10,0,14,0,0,0,0,0,0
GT,Guatemala,country,Latin America and the Caribbean,15.783471,-90.230759,IE,Ireland,country,Europe and Central Asia,53.41291,-8.24389,8086.33929558336,1990,218,0,0,0,0,0,0,0,218,0,0,0,0,0,0,0,0,0,0,0,0,0,0,0
HN,Honduras,country,Latin America and the Caribbean,15.199999,-86.241905,IE,Ireland,country,Europe and Central Asia,53.41291,-8.24389,7872.8588451857,1990,2161,0,0,0,0,0,0,0,2065,0,0,0,96,0,0,0,0,0,0,0,0,0,0,0
HU,Hungary,country,Europe and Central Asia,47.162494,19.503304,IE,Ireland,country,Europe and Central Asia,53.41291,-8.24389,2076.81007318724,1990,1850,0,0,17,0,0,0,71,0,0,0,1720,0,20,0,22,0,0,0,0,0,0,0,0
IS,Iceland,country,Europe and Central Asia,64.963051,-19.020835,IE,Ireland,country,Europe and Central Asia,53.41291,-8.24389,1420.52115337193,1990,25,0,0,0,0,0,0,0,0,0,0,0,0,0,0,25,0,0,0,0,0,0,0,0
IN,India,country,South Asia,20.593684,78.96288,IE,Ireland,country,Europe and Central Asia,53.41291,-8.24389,8010.96437635991,1990,11501,0,0,7436,0,30,0,0,0,155,0,0,2593,1287,0,0,0,0,0,0,0,0,0,0
ID,Indonesia,country,East Asia and Pacific,-0.789275,113.921327,IE,Ireland,country,Europe and Central Asia,53.41291,-8.24389,12152.5454027726,1990,39412,0,37810,0,0,0,0,0,0,0,72,0,990,540,0,0,0,0,0,0,0,0,0,0
IR,Iran,country,Middle East and North Africa,32.427908,53.688046,IE,Ireland,country,Europe and Central Asia,53.41291,-8.24389,5359.09489417283,1990,37,0,0,0,0,0,0,0,37,0,0,0,0,0,0,0,0,0,0,0,0,0,0,0
IL,Israel,country,Middle East and North Africa,31.046051,34.851612,IE,Ireland,country,Europe and Central Asia,53.41291,-8.24389,4240.62484742095,1990,9952,0,0,0,0,0,0,455,9496,0,0,0,0,1,0,0,0,0,0,0,0,0,0,0
IT,Italy,country,Europe and Central Asia,41.87194,12.56738,IE,Ireland,country,Europe and Central Asia,53.41291,-8.24389,2008.54262526765,1990,31885,1324,2052,6518,1,0,0,9538,9543,0,0,42,107,623,69,2020,0,41,7,0,0,0,0,0
JM,Jamaica,country,Latin America and the Caribbean,18.109581,-77.297508,IE,Ireland,country,Europe and Central Asia,53.41291,-8.24389,7026.56228858004,1990,185,0,0,0,0,0,0,0,0,0,0,0,0,0,0,110,0,0,75,0,0,0,0,0
JP,Japan,country,East Asia and Pacific,36.204824,138.252924,IE,Ireland,country,Europe and Central Asia,53.41291,-8.24389,9551.2243151296,1990,14,0,0,1,0,0,1,1,0,0,0,0,0,5,0,6,0,0,0,0,0,0,0,0
KE,Kenya,country,Sub-Saharan Africa,-0.023559,37.906193,IE,Ireland,country,Europe and Central Asia,53.41291,-8.24389,7306.145560576,1990,5505,0,0,0,0,0,0,0,79,0,0,0,5426,0,0,0,0,0,0,0,0,0,0,0
LB,Lebanon,country,Middle East and North Africa,33.854721,35.862285,IE,Ireland,country,Europe and Central Asia,53.41291,-8.24389,4075.10898612936,1990,3,0,0,0,0,0,0,0,0,0,0,0,0,0,0,3,0,0,0,0,0,0,0,0
LS,Lesotho,country,Sub-Saharan Africa,-29.609988,28.233608,IE,Ireland,country,Europe and Central Asia,53.41291,-8.24389,9891.49447035648,1990,2,0,0,0,0,0,0,0,0,0,0,0,0,2,0,0,0,0,0,0,0,0,0,0
LR,Liberia,country,Sub-Saharan Africa,6.428055,-9.429499,IE,Ireland,country,Europe and Central Asia,53.41291,-8.24389,5231.43617124375,1990,182,0,0,0,0,0,0,0,0,0,0,0,0,182,0,0,0,0,0,0,0,0,0,0
MW,Malawi,country,Sub-Saharan Africa,-13.254308,34.301525,IE,Ireland,country,Europe and Central Asia,53.41291,-8.24389,8450.97616876908,1990,216,0,0,0,0,0,0,0,0,0,0,0,129,87,0,0,0,0,0,0,0,0,0,0
MY,Malaysia,country,East Asia and Pacific,4.210484,101.975766,IE,Ireland,country,Europe and Central Asia,53.41291,-8.24389,10956.497521814,1990,4132,0,0,0,0,0,0,0,0,0,48,863,549,2672,0,0,0,0,0,0,0,0,0,0
ML,Mali,country,Sub-Saharan Africa,17.570692,-3.996166,IE,Ireland,country,Europe and Central Asia,53.41291,-8.24389,4006.90794414824,1990,1964,0,0,0,0,0,0,0,0,1964,0,0,0,0,0,0,0,0,0,0,0,0,0,0
MT,Malta,country,Middle East and North Africa,35.937496,14.375416,IE,Ireland,country,Europe and Central Asia,53.41291,-8.24389,2621.3580739247,1990,258,180,0,0,0,0,0,0,0,0,0,0,78,0,0,0,0,0,0,0,0,0,0,0
MU,Mauritius,country,Sub-Saharan Africa,-20.348404,57.552152,IE,Ireland,country,Europe and Central Asia,53.41291,-8.24389,10338.3609780023,1990,77,0,0,40,0,0,0,0,0,0,0,0,37,0,0,0,0,0,0,0,0,0,0,0
MX,Mexico,country,Latin America and the Caribbean,23.634501,-102.552784,IE,Ireland,country,Europe and Central Asia,53.41291,-8.24389,8202.84619269682,1990,94,0,0,0,0,0,0,0,0,0,1,0,0,36,0,57,0,0,0,0,0,0,0,0
MA,Morocco,country,Middle East and North Africa,31.791702,-7.09262,IE,Ireland,country,Europe and Central Asia,53.41291,-8.24389,2408.63151405279,1990,434,0,0,0,0,0,0,0,434,0,0,0,0,0,0,0,0,0,0,0,0,0,0,0
MZ,Mozambique,country,Sub-Saharan Africa,-18.665695,35.529562,IE,Ireland,country,Europe and Central Asia,53.41291,-8.24389,9053.42299748802,1990,321,0,0,0,0,0,0,0,295,0,0,0,26,0,0,0,0,0,0,0,0,0,0,0
NL,Netherlands,country,Europe and Central Asia,52.132633,5.291266,IE,Ireland,country,Europe and Central Asia,53.41291,-8.24389,921.16427694974,1990,556538,10344,46630,12935,1155,1,3185,30397,24171,594,38,379063,1079,8845,17132,11164,0,6356,3418,15,16,0,0,0
NZ,New Zealand,country,East Asia and Pacific,-40.900557,174.885971,IE,Ireland,country,Europe and Central Asia,53.41291,-8.24389,18624.9919137641,1990,4395,1,0,1,119,0,0,19,1977,1897,0,40,0,205,0,1,0,117,18,0,0,0,0,0
NI,Nicaragua,country,Latin America and the Caribbean,12.865416,-85.207229,IE,Ireland,country,Europe and Central Asia,53.41291,-8.24389,8009.32490847683,1990,17,0,0,0,0,0,0,0,0,0,0,0,17,0,0,0,0,0,0,0,0,0,0,0
NE,Niger,country,Sub-Saharan Africa,17.607789,8.081666,IE,Ireland,country,Europe and Central Asia,53.41291,-8.24389,4229.16440180947,1990,11,0,0,0,0,0,0,0,0,0,0,0,0,11,0,0,0,0,0,0,0,0,0,0
NG,Nigeria,country,Sub-Saharan Africa,9.081999,8.675277,IE,Ireland,country,Europe and Central Asia,53.41291,-8.24389,5163.2800695029,1990,9242,0,0,0,0,0,0,0,0,0,0,6797,1550,895,0,0,0,0,0,0,0,0,0,0
NO,Norway,country,Europe and Central Asia,60.472024,8.468946,IE,Ireland,country,Europe and Central Asia,53.41291,-8.24389,1277.41266258184,1990,416,73,0,1,202,0,0,0,0,0,0,48,0,6,64,0,0,0,0,22,0,0,0,0
PK,Pakistan,country,South Asia,30.375321,69.345116,IE,Ireland,country,Europe and Central Asia,53.41291,-8.24389,6556.6592322392,1990,40703,0,0,40251,0,0,0,0,0,445,0,0,0,7,0,0,0,0,0,0,0,0,0,0
PA,Panama,country,Latin America and the Caribbean,8.537981,-80.782127,IE,Ireland,country,Europe and Central Asia,53.41291,-8.24389,8101.55816029898,1990,1959,0,0,0,0,0,0,0,1918,0,0,0,0,41,0,0,0,0,0,0,0,0,0,0
PG,Papua New Guinea,country,East Asia and Pacific,-6.314993,143.95555,IE,Ireland,country,Europe and Central Asia,53.41291,-8.24389,14222.2761413597,1990,149,0,0,0,0,0,0,0,0,0,0,0,149,0,0,0,0,0,0,0,0,0,0,0
PY,Paraguay,country,Latin America and the Caribbean,-23.442503,-58.443832,IE,Ireland,country,Europe and Central Asia,53.41291,-8.24389,9823.52142274336,1990,211,0,0,0,0,0,0,0,0,211,0,0,0,0,0,0,0,0,0,0,0,0,0,0
PE,Peru,country,Latin America and the Caribbean,-9.189967,-75.015152,IE,Ireland,country,Europe and Central Asia,53.41291,-8.24389,9355.34268491302,1990,20,0,0,0,0,0,0,0,16,0,0,0,4,0,0,0,0,0,0,0,0,0,0,0
PH,Philippines,country,East Asia and Pacific,12.879721,121.774017,IE,Ireland,country,Europe and Central Asia,53.41291,-8.24389,11268.217138742,1990,1593,0,0,0,0,0,309,0,0,0,0,1050,0,125,42,67,0,0,0,0,0,0,0,0
PL,Poland,country,Europe and Central Asia,51.919438,19.145136,IE,Ireland,country,Europe and Central Asia,53.41291,-8.24389,1845.02890970564,1990,56791,0,0,49364,1050,0,0,2508,0,0,0,3869,0,0,0,0,0,0,0,0,0,0,0,0
PT,Portugal,country,Europe and Central Asia,39.399872,-8.224454,IE,Ireland,country,Europe and Central Asia,53.41291,-8.24389,1559.92495264987,1990,718,120,0,0,0,0,0,278,53,0,0,0,0,1,0,266,0,0,0,0,0,0,0,0
KR,"Korea, Rep.",country,East Asia and Pacific,35.907757,127.766922,IE,Ireland,country,Europe and Central Asia,53.41291,-8.24389,9228.55210982868,1990,606,0,0,0,0,0,0,0,0,0,0,0,0,606,0,0,0,0,0,0,0,0,0,0
RO,Romania,country,Europe and Central Asia,45.943161,24.96676,IE,Ireland,country,Europe and Central Asia,53.41291,-8.24389,2505.76696060573,1990,6,0,0,0,0,0,0,0,0,0,0,0,0,0,0,6,0,0,0,0,0,0,0,0
RW,Rwanda,country,Sub-Saharan Africa,-1.940278,29.873888,IE,Ireland,country,Europe and Central Asia,53.41291,-8.24389,7102.37638110685,1990,993,0,0,0,0,0,0,0,0,0,0,0,993,0,0,0,0,0,0,0,0,0,0,0
SA,Saudi Arabia,country,Middle East and North Africa,23.885942,45.079162,IE,Ireland,country,Europe and Central Asia,53.41291,-8.24389,5500.17755439911,1990,13,12,0,0,0,0,0,0,1,0,0,0,0,0,0,0,0,0,0,0,0,0,0,0
SN,Senegal,country,Sub-Saharan Africa,14.497401,-14.452362,IE,Ireland,country,Europe and Central Asia,53.41291,-8.24389,4366.30526553037,1990,8516,0,0,0,0,0,0,0,0,422,0,8094,0,0,0,0,0,0,0,0,0,0,0,0
SL,Sierra Leone,country,Sub-Saharan Africa,8.460555,-11.779889,IE,Ireland,country,Europe and Central Asia,53.41291,-8.24389,5014.1975133662,1990,4,0,0,0,0,0,0,0,0,0,0,0,0,4,0,0,0,0,0,0,0,0,0,0
SG,Singapore,country,East Asia and Pacific,1.352083,103.819836,IE,Ireland,country,Europe and Central Asia,53.41291,-8.24389,11334.8758499209,1990,328,0,0,0,0,0,7,0,0,0,13,0,219,49,40,0,0,0,0,0,0,0,0,0
ZA,S. Africa,country,Sub-Saharan Africa,-30.559482,22.937506,IE,Ireland,country,Europe and Central Asia,53.41291,-8.24389,9821.89985064882,1990,63,0,0,0,0,0,0,0,0,0,0,0,63,0,0,0,0,0,0,0,0,0,0,0
ES,Spain,country,Europe and Central Asia,40.463667,-3.74922,IE,Ireland,country,Europe and Central Asia,53.41291,-8.24389,1480.6749116579,1990,26731,6652,24,43,0,0,2,6111,9879,1,4,2255,33,307,80,1307,0,0,14,19,0,0,0,0
LK,Sri Lanka,country,South Asia,7.873054,80.771797,IE,Ireland,country,Europe and Central Asia,53.41291,-8.24389,9250.69354643309,1990,5529,0,0,0,0,0,146,0,0,0,0,0,364,410,4609,0,0,0,0,0,0,0,0,0
SD,Sudan,country,Sub-Saharan Africa,12.862807,30.217636,IE,Ireland,country,Europe and Central Asia,53.41291,-8.24389,5640.7971942961,1990,12065,0,0,12065,0,0,0,0,0,0,0,0,0,0,0,0,0,0,0,0,0,0,0,0
SZ,Swaziland,country,Sub-Saharan Africa,-26.522503,31.465866,IE,Ireland,country,Europe and Central Asia,53.41291,-8.24389,9688.7466711691,1990,9551,0,0,7780,0,0,0,2,830,939,0,0,0,0,0,0,0,0,0,0,0,0,0,0
SE,Sweden,country,Europe and Central Asia,60.128161,18.643501,IE,Ireland,country,Europe and Central Asia,53.41291,-8.24389,1786.06364301939,1990,575,158,0,183,0,0,0,40,0,0,1,2,93,82,15,1,0,0,0,0,0,0,0,0
CH,Switzerland,country,Europe and Central Asia,46.818188,8.227512,IE,Ireland,country,Europe and Central Asia,53.41291,-8.24389,1381.18878443155,1990,394,9,0,15,3,0,0,2,20,0,0,29,1,286,10,0,0,0,19,0,0,0,0,0
SY,Syrian Arab Rep.,country,Middle East and North Africa,34.802075,38.996815,IE,Ireland,country,Europe and Central Asia,53.41291,-8.24389,4203.6371903274,1990,38,0,0,0,0,0,0,0,38,0,0,0,0,0,0,0,0,0,0,0,0,0,0,0
TH,Thailand,country,East Asia and Pacific,15.870032,100.992541,IE,Ireland,country,Europe and Central Asia,53.41291,-8.24389,9823.04051503784,1990,38857,0,1100,36944,0,0,0,8,766,0,0,0,0,39,0,0,0,0,0,0,0,0,0,0
TG,Togo,country,Sub-Saharan Africa,8.619543,0.824782,IE,Ireland,country,Europe and Central Asia,53.41291,-8.24389,5052.71397676685,1990,1,0,0,0,0,0,0,0,0,0,0,0,0,1,0,0,0,0,0,0,0,0,0,0
TT,Trinidad and Tobago,country,Latin America and the Caribbean,10.691803,-61.222503,IE,Ireland,country,Europe and Central Asia,53.41291,-8.24389,6667.20358771526,1990,16,0,0,0,0,0,0,0,0,0,0,0,16,0,0,0,0,0,0,0,0,0,0,0
TN,Tunisia,country,Middle East and North Africa,33.886917,9.537499,IE,Ireland,country,Europe and Central Asia,53.41291,-8.24389,2587.18440560557,1990,15,13,0,0,0,0,0,0,0,0,2,0,0,0,0,0,0,0,0,0,0,0,0,0
TR,Turkey,country,Europe and Central Asia,38.963745,35.243322,IE,Ireland,country,Europe and Central Asia,53.41291,-8.24389,3644.22486914243,1990,5386,0,0,11,0,55,0,0,5320,0,0,0,0,0,0,0,0,0,0,0,0,0,0,0
UG,Uganda,country,Sub-Saharan Africa,1.373333,32.290275,IE,Ireland,country,Europe and Central Asia,53.41291,-8.24389,6882.67166010961,1990,34,0,0,0,0,0,0,0,0,0,0,0,34,0,0,0,0,0,0,0,0,0,0,0
AE,United Arab Emirates,country,Middle East and North Africa,23.424076,53.847818,IE,Ireland,country,Europe and Central Asia,53.41291,-8.24389,6109.98739569226,1990,19,0,0,0,0,0,0,0,0,0,0,0,0,0,0,19,0,0,0,0,0,0,0,0
GB,United Kingdom,country,Europe and Central Asia,55.378051,-3.435973,IE,Ireland,country,Europe and Central Asia,53.41291,-8.24389,380.583737144846,1990,1133806,267292,55335,53975,14249,1054,10917,44450,45937,5863,784,248504,27678,65698,59987,111624,5782,31012,87779,1638,30,0,0,0
TZ,Tanzania,country,Sub-Saharan Africa,-6.369028,34.888822,IE,Ireland,country,Europe and Central Asia,53.41291,-8.24389,7784.22698619876,1990,199,0,0,0,0,0,0,0,0,0,0,0,25,174,0,0,0,0,0,0,0,0,0,0
US,USA,country,North America,37.09024,-95.712891,IE,Ireland,country,Europe and Central Asia,53.41291,-8.24389,6640.55458013614,1990,717718,4220,0,24324,1866,185,3393,634,2181,9675,23,668007,14,2407,353,293,0,21,3,119,0,0,0,0
UY,Uruguay,country,Latin America and the Caribbean,-32.522779,-55.765835,IE,Ireland,country,Europe and Central Asia,53.41291,-8.24389,10608.3258823974,1990,774,0,0,0,0,0,0,0,24,0,0,750,0,0,0,0,0,0,0,0,0,0,0,0
RU,Russian Federation,country,Europe and Central Asia,61.52401,105.318756,IE,Ireland,country,Europe and Central Asia,53.41291,-8.24389,5976.34906406588,1990,939,0,0,0,0,0,0,0,0,910,0,0,0,0,0,13,0,16,0,0,0,0,0,0
VE,Venezuela,country,Latin America and the Caribbean,6.42375,-66.58973,IE,Ireland,country,Europe and Central Asia,53.41291,-8.24389,7389.38382461106,1990,227,0,0,0,0,0,0,0,0,226,0,0,0,1,0,0,0,0,0,0,0,0,0,0
BA,Bosnia & Herzegovina,country,Europe and Central Asia,43.915886,17.679076,IE,Ireland,country,Europe and Central Asia,53.41291,-8.24389,2162.09527228656,1990,6,0,0,0,0,0,0,0,0,0,0,0,0,6,0,0,0,0,0,0,0,0,0,0
ZM,Zambia,country,Sub-Saharan Africa,-13.133897,27.849332,IE,Ireland,country,Europe and Central Asia,53.41291,-8.24389,8164.86582817381,1990,654,0,0,0,0,0,0,0,0,578,0,0,0,59,0,17,0,0,0,0,0,0,0,0
ZW,Zimbabwe,country,Sub-Saharan Africa,-19.015438,29.154857,IE,Ireland,country,Europe and Central Asia,53.41291,-8.24389,8825.11710948555,1990,732,0,0,0,0,0,0,7,29,0,0,0,255,441,0,0,0,0,0,0,0,0,0,0
AF,Afghanistan,country,South Asia,33.93911,67.709953,IE,Ireland,country,Europe and Central Asia,53.41291,-8.24389,6163.46033461371,1991,238,0,0,0,0,0,0,0,238,0,0,0,0,0,0,0,0,0,0,0,0,0,0,0
DZ,Algeria,country,Middle East and North Africa,28.033886,1.659626,IE,Ireland,country,Europe and Central Asia,53.41291,-8.24389,2939.68334227574,1991,2833,0,0,2833,0,0,0,0,0,0,0,0,0,0,0,0,0,0,0,0,0,0,0,0
AR,Argentina,country,Latin America and the Caribbean,-38.416097,-63.616672,IE,Ireland,country,Europe and Central Asia,53.41291,-8.24389,11522.294499324,1991,42053,0,0,574,0,0,3587,0,19,1018,0,36851,0,0,0,4,0,0,0,0,0,0,0,0
AU,Australia,country,East Asia and Pacific,-25.274398,133.775136,IE,Ireland,country,Europe and Central Asia,53.41291,-8.24389,15600.7918271035,1991,1944,0,0,0,0,0,0,152,590,587,0,1,0,46,0,543,0,0,0,25,0,0,0,0
AT,Austria,country,Europe and Central Asia,47.516231,14.550072,IE,Ireland,country,Europe and Central Asia,53.41291,-8.24389,1734.01805372052,1991,38,0,0,0,0,0,0,0,0,2,0,4,4,28,0,0,0,0,0,0,0,0,0,0
BS,The Bahamas,country,Latin America and the Caribbean,25.03428,-77.39628,IE,Ireland,country,Europe and Central Asia,53.41291,-8.24389,6441.08139131673,1991,433,0,0,0,0,0,0,0,0,0,0,0,0,0,0,433,0,0,0,0,0,0,0,0
BE,Belgium,country,Europe and Central Asia,50.503887,4.469936,IE,Ireland,country,Europe and Central Asia,53.41291,-8.24389,928.771767899146,1991,96336,6480,12204,11243,555,2,12,4620,6747,443,0,41620,674,2151,7457,1157,0,747,224,0,0,0,0,0
BJ,Benin,country,Sub-Saharan Africa,9.30769,2.315834,IE,Ireland,country,Europe and Central Asia,53.41291,-8.24389,5000.39888064552,1991,91,0,0,0,0,0,0,0,0,91,0,0,0,0,0,0,0,0,0,0,0,0,0,0
BR,Brazil,country,Latin America and the Caribbean,-14.235004,-51.92528,IE,Ireland,country,Europe and Central Asia,53.41291,-8.24389,8601.55203375784,1991,67589,0,0,15,0,0,0,1,414,0,0,66456,65,638,0,0,0,0,0,0,0,0,0,0
BG,Bulgaria,country,Europe and Central Asia,42.733883,25.48583,IE,Ireland,country,Europe and Central Asia,53.41291,-8.24389,2742.32315215206,1991,33,0,0,0,0,0,0,0,0,0,0,33,0,0,0,0,0,0,0,0,0,0,0,0
BF,Burkina Faso,country,Sub-Saharan Africa,12.238333,-1.561593,IE,Ireland,country,Europe and Central Asia,53.41291,-8.24389,4621.73881196405,1991,1000,0,0,0,0,0,0,0,0,0,0,1000,0,0,0,0,0,0,0,0,0,0,0,0
BI,Burundi,country,Sub-Saharan Africa,-3.373056,29.918886,IE,Ireland,country,Europe and Central Asia,53.41291,-8.24389,7250.03662391037,1991,28,0,0,0,0,0,0,0,0,0,0,0,28,0,0,0,0,0,0,0,0,0,0,0
