sourceCode,sourceName,sourceGrouping,sourceRegion,sourceLat,sourceLong,destCode,destName,destGrouping,destRegion,destLat,destLong,year,totalTons,cereals,roots,sugarCrops,pulses,nuts,oilCrops,vegetables,fruits,fibers,spices,fodderCrops,coffeeTea,tobaccoRubber,oilsFats,beverages,livestock,animalMeats,animalProducts,animalHides,nimalOther,pesticides,fertilizers,machinery
DZ,Algeria,country,Middle East and North Africa,28.033886,1.659626,US,USA,country,North America,37.09024,-95.712891,1986,0,0,0,0,0,0,0,0,0,0,0,0,0,0,0,0,0,0,0,0,0,0,0,0
AR,Argentina,country,Latin America and the Caribbean,-38.416097,-63.616672,US,USA,country,North America,37.09024,-95.712891,1986,269321,78617,0,10023,445,0,836,2552,17747,1347,0,14141,16565,1114,81214,2536,0,38574,3610,0,0,0,0,0
AU,Australia,country,East Asia and Pacific,-25.274398,133.775136,US,USA,country,North America,37.09024,-95.712891,1986,2476860,255,0,159826,2061,406,8850,127,1101881,31413,9,532,474,789749,1641,28789,0,325517,6596,18734,0,0,0,0
AT,Austria,country,Europe and Central Asia,47.516231,14.550072,US,USA,country,North America,37.09024,-95.712891,1986,6249,1041,0,3329,0,0,1,262,58,0,0,3,1260,40,0,221,0,0,34,0,0,0,0,0
BS,The Bahamas,country,Latin America and the Caribbean,25.03428,-77.39628,US,USA,country,North America,37.09024,-95.712891,1986,1606,3,0,20,0,0,0,15,214,0,0,0,0,216,0,512,2,6,620,0,0,0,0,0
BD,Bangladesh,country,South Asia,23.684994,90.356331,US,USA,country,North America,37.09024,-95.712891,1986,2541,0,0,0,0,0,0,31,0,0,0,0,323,0,0,0,0,2187,0,0,0,0,0,0
BB,Barbados,country,Latin America and the Caribbean,13.193887,-59.543198,US,USA,country,North America,37.09024,-95.712891,1986,13422,0,0,12956,0,0,0,0,0,0,0,0,0,66,0,400,0,0,0,0,0,0,0,0
BE,Belgium,country,Europe and Central Asia,50.503887,4.469936,US,USA,country,North America,37.09024,-95.712891,1986,328747,45668,0,6323,359,57,31,15337,41464,10282,5,271,5720,1310,136,1782,0,192655,7256,91,0,0,0,0
BZ,Belize,country,Latin America and the Caribbean,17.189877,-88.49765,US,USA,country,North America,37.09024,-95.712891,1986,61036,0,0,52806,0,0,0,422,7515,0,2,0,86,95,0,0,0,100,10,0,0,0,0,0
BR,Brazil,country,Latin America and the Caribbean,-14.235004,-51.92528,US,USA,country,North America,37.09024,-95.712891,1986,1208050,2315,389,403555,0,19500,101,1021,421259,5683,10339,4467,231460,65667,41793,290,0,0,211,0,0,0,0,0
BG,Bulgaria,country,Europe and Central Asia,42.733883,25.48583,US,USA,country,North America,37.09024,-95.712891,1986,7467,0,0,0,0,0,0,23,7,0,0,0,0,6311,0,1,0,0,1125,0,0,0,0,0
CM,Cameroon,country,Sub-Saharan Africa,7.369722,12.354722,US,USA,country,North America,37.09024,-95.712891,1986,2035,0,0,0,0,0,0,0,0,0,0,0,1379,651,0,5,0,0,0,0,0,0,0,0
CA,Canada,country,North America,56.130366,-106.346771,US,USA,country,North America,37.09024,-95.712891,1986,3417636,886720,200615,363897,13025,1735,159165,157204,80632,998,3065,550985,58154,149058,67443,392616,9184,308959,9677,13688,0,0,0,0
CL,Chile,country,Latin America and the Caribbean,-35.675147,-71.542969,US,USA,country,North America,37.09024,-95.712891,1986,311509,181,0,572,377,0,73,10114,291273,814,637,53,165,5121,0,2073,0,3,40,13,0,0,0,0
HK,Hong Kong,country,East Asia and Pacific,22.396428,114.109497,US,USA,country,North America,37.09024,-95.712891,1986,109365,10607,1018,2790,1491,1509,10042,45147,3233,1909,1780,36,1354,23245,718,3587,0,13,886,0,0,0,0,0
MO,"Macao SAR, China",country,East Asia and Pacific,22.198745,113.543873,US,USA,country,North America,37.09024,-95.712891,1986,911,0,0,0,0,0,0,0,0,0,0,0,0,0,0,911,0,0,0,0,0,0,0,0
TW,Taiwan,country,East Asia and Pacific,23.69781,120.960515,US,USA,country,North America,37.09024,-95.712891,1986,141775,7279,49,19215,418,0,2130,90291,12279,50,118,8,1373,6558,378,791,3,370,464,4,0,0,0,0
CO,Colombia,country,Latin America and the Caribbean,4.570868,-74.297333,US,USA,country,North America,37.09024,-95.712891,1986,1040732,3212,15,246819,30,0,20,1112,595823,57,126,0,133244,59245,0,989,0,40,0,0,0,0,0,0
CR,Costa Rica,country,Latin America and the Caribbean,9.748917,-83.753428,US,USA,country,North America,37.09024,-95.712891,1986,655418,330,8428,76777,0,55,487,6614,491973,0,192,1,26169,9555,8,2,0,34824,3,0,0,0,0,0
CY,Cyprus,country,Europe and Central Asia,35.126413,33.429859,US,USA,country,North America,37.09024,-95.712891,1986,538,82,0,0,4,0,0,3,2,0,0,0,9,270,0,61,0,0,107,0,0,0,0,0
DK,Denmark,country,Europe and Central Asia,56.26392,9.501785,US,USA,country,North America,37.09024,-95.712891,1986,188630,30013,0,4800,2,0,0,27,3037,0,3,62,371,3701,335,5138,0,130005,11136,0,0,0,0,0
EG,Egypt,country,Middle East and North Africa,26.820553,30.802498,US,USA,country,North America,37.09024,-95.712891,1986,13436,0,2041,2940,0,0,45,216,23,3810,2184,0,0,2166,0,11,0,0,0,0,0,0,0,0
FJ,Fiji,country,East Asia and Pacific,-16.578193,179.414413,US,USA,country,North America,37.09024,-95.712891,1986,14691,96,1,14000,0,0,85,0,105,0,375,0,1,28,0,0,0,0,0,0,0,0,0,0
FI,Finland,country,Europe and Central Asia,61.92411,25.748151,US,USA,country,North America,37.09024,-95.712891,1986,148544,132134,0,541,0,0,0,0,0,0,0,0,1442,29,0,2089,0,1228,11072,9,0,0,0,0
FR,France,country,Europe and Central Asia,46.227638,2.213749,US,USA,country,North America,37.09024,-95.712891,1986,105009,5357,31,22870,5,29,2593,4579,13672,438,1354,2148,9487,5169,241,36266,0,313,11,429,17,0,0,0
GR,Greece,country,Europe and Central Asia,39.074208,21.824312,US,USA,country,North America,37.09024,-95.712891,1986,53742,1260,2,226,11,10,2816,13263,11378,0,0,0,137,20055,1012,3037,0,2,533,0,0,0,0,0
GP,Guadeloupe,country,Latin America and the Caribbean,16.995971,-62.067641,US,USA,country,North America,37.09024,-95.712891,1986,572,0,0,0,0,0,0,0,0,0,0,566,0,6,0,0,0,0,0,0,0,0,0,0
GT,Guatemala,country,Latin America and the Caribbean,15.783471,-90.230759,US,USA,country,North America,37.09024,-95.712891,1986,627867,11,194,204188,57,0,3665,22232,295466,570,1022,50,91388,5719,0,107,0,3198,0,0,0,0,0,0
HN,Honduras,country,Latin America and the Caribbean,15.199999,-86.241905,US,USA,country,North America,37.09024,-95.712891,1986,735176,12,96,64531,21,3,1735,13961,616403,0,361,97,24985,2966,0,0,0,10005,0,0,0,0,0,0
HU,Hungary,country,Europe and Central Asia,47.162494,19.503304,US,USA,country,North America,37.09024,-95.712891,1986,19317,346,0,198,0,13,0,906,1610,0,589,0,376,1,0,649,0,14190,439,0,0,0,0,0
IS,Iceland,country,Europe and Central Asia,64.963051,-19.020835,US,USA,country,North America,37.09024,-95.712891,1986,1095,0,0,0,0,0,0,0,0,0,0,356,0,0,0,108,0,18,613,0,0,0,0,0
IN,India,country,South Asia,20.593684,78.96288,US,USA,country,North America,37.09024,-95.712891,1986,100131,8848,5,32,809,13808,5433,1184,348,3601,22774,311,16594,25792,0,467,0,125,0,0,0,0,0,0
ID,Indonesia,country,East Asia and Pacific,-0.789275,113.921327,US,USA,country,North America,37.09024,-95.712891,1986,614298,188,0,4500,0,451,109,1206,5544,0,23520,0,85991,452720,40063,0,0,6,0,0,0,0,0,0
IE,Ireland,country,Europe and Central Asia,53.41291,-8.24389,US,USA,country,North America,37.09024,-95.712891,1986,41582,339,0,398,98,0,0,7,28,0,0,98,4141,5859,0,28915,0,1060,639,0,0,0,0,0
IL,Israel,country,Middle East and North Africa,31.046051,34.851612,US,USA,country,North America,37.09024,-95.712891,1986,67818,2061,27,848,0,0,1256,37505,20907,354,116,0,485,339,31,1232,0,1340,1317,0,0,0,0,0
IT,Italy,country,Europe and Central Asia,41.87194,12.56738,US,USA,country,North America,37.09024,-95.712891,1986,398120,56598,4,3835,22,3992,177,67337,4843,338,36,118,3424,12331,29722,206536,0,169,8628,10,0,0,0,0
JM,Jamaica,country,Latin America and the Caribbean,18.109581,-77.297508,US,USA,country,North America,37.09024,-95.712891,1986,56297,256,679,17025,7,40,54,8899,6576,2,476,13602,158,1624,18,5643,0,0,1238,0,0,0,0,0
JP,Japan,country,East Asia and Pacific,36.204824,138.252924,US,USA,country,North America,37.09024,-95.712891,1986,3937510,6538,206,840,4,2,4706,2317,17981,127,56,383,1237,3865621,3309,34106,0,74,3,0,0,0,0,0
JO,Jordan,country,Middle East and North Africa,30.585164,36.238414,US,USA,country,North America,37.09024,-95.712891,1986,33,0,0,0,0,0,0,0,18,0,5,0,0,3,0,0,0,0,7,0,0,0,0,0
KE,Kenya,country,Sub-Saharan Africa,-0.023559,37.906193,US,USA,country,North America,37.09024,-95.712891,1986,29069,150,0,2,81,279,0,0,0,0,0,0,27563,917,0,67,0,0,0,10,0,0,0,0
KW,Kuwait,country,Middle East and North Africa,29.31166,47.481766,US,USA,country,North America,37.09024,-95.712891,1986,75,7,0,0,5,0,2,0,15,0,7,0,0,0,1,38,0,0,0,0,0,0,0,0
MW,Malawi,country,Sub-Saharan Africa,-13.254308,34.301525,US,USA,country,North America,37.09024,-95.712891,1986,20333,0,0,12820,0,33,0,0,0,0,0,0,958,6522,0,0,0,0,0,0,0,0,0,0
MY,Malaysia,country,East Asia and Pacific,4.210484,101.975766,US,USA,country,North America,37.09024,-95.712891,1986,608223,47,167,0,0,0,1,0,10935,16,923,2022,8070,136894,449057,65,0,5,0,0,21,0,0,0
MX,Mexico,country,Latin America and the Caribbean,23.634501,-102.552784,US,USA,country,North America,37.09024,-95.712891,1986,2797214,17138,9925,263766,18337,10672,37127,1532892,340040,67831,17691,7437,153795,57269,605,259844,3,2468,377,0,0,0,0,0
MA,Morocco,country,Middle East and North Africa,31.791702,-7.09262,US,USA,country,North America,37.09024,-95.712891,1986,5408,0,0,0,0,15,1207,1385,34,0,2124,0,0,589,0,54,0,0,0,0,0,0,0,0
NL,Netherlands,country,Europe and Central Asia,52.132633,5.291266,US,USA,country,North America,37.09024,-95.712891,1986,490649,2346,873,22603,99,47,865,9425,1845,291,3417,1119,34281,37796,4379,354615,0,3996,12650,2,0,0,0,0
NZ,New Zealand,country,East Asia and Pacific,-40.900557,174.885971,US,USA,country,North America,37.09024,-95.712891,1986,324326,43833,0,342,216,0,0,1719,45431,14753,0,70,7,0,159,3389,0,188232,26174,1,0,0,0,0
NG,Nigeria,country,Sub-Saharan Africa,9.081999,8.675277,US,USA,country,North America,37.09024,-95.712891,1986,3753,0,0,0,0,578,0,0,0,0,15,29,2971,146,14,0,0,0,0,0,0,0,0,0
NO,Norway,country,Europe and Central Asia,60.472024,8.468946,US,USA,country,North America,37.09024,-95.712891,1986,11921,755,0,3,0,20,1,3,21,2,0,1229,31,586,0,1839,0,0,7430,1,0,0,0,0
OM,Oman,country,Middle East and North Africa,21.512583,55.923255,US,USA,country,North America,37.09024,-95.712891,1986,39,0,0,0,0,0,0,39,0,0,0,0,0,0,0,0,0,0,0,0,0,0,0,0
PA,Panama,country,Latin America and the Caribbean,8.537981,-80.782127,US,USA,country,North America,37.09024,-95.712891,1986,322065,5,0,79392,0,0,0,108,233198,0,107,0,7390,1114,0,473,0,7,271,0,0,0,0,0
PG,Papua New Guinea,country,East Asia and Pacific,-6.314993,143.95555,US,USA,country,North America,37.09024,-95.712891,1986,27766,0,0,10780,0,0,0,0,0,0,0,0,10520,30,5918,518,0,0,0,0,0,0,0,0
PY,Paraguay,country,Latin America and the Caribbean,-23.442503,-58.443832,US,USA,country,North America,37.09024,-95.712891,1986,27711,0,0,10400,0,0,17000,2,0,0,0,0,6,303,0,0,0,0,0,0,0,0,0,0
PE,Peru,country,Latin America and the Caribbean,-9.189967,-75.015152,US,USA,country,North America,37.09024,-95.712891,1986,107615,255,0,58639,1519,3,7,919,582,28,108,727,41214,2902,0,712,0,0,0,0,0,0,0,0
PH,Philippines,country,East Asia and Pacific,12.879721,121.774017,US,USA,country,North America,37.09024,-95.712891,1986,1004928,2022,269,217463,5,0,33974,508,159523,8426,34,44,23314,12102,543240,4002,0,1,0,1,0,0,0,0
PL,Poland,country,Europe and Central Asia,51.919438,19.145136,US,USA,country,North America,37.09024,-95.712891,1986,46037,0,0,226,0,0,0,703,3180,0,0,0,0,12,3286,509,0,37030,1091,0,0,0,0,0
PT,Portugal,country,Europe and Central Asia,39.399872,-8.224454,US,USA,country,North America,37.09024,-95.712891,1986,45323,325,20,36,98,122,443,18763,352,2,58,33,668,1117,545,20291,0,0,2450,0,0,0,0,0
KR,"Korea, Rep.",country,East Asia and Pacific,35.907757,127.766922,US,USA,country,North America,37.09024,-95.712891,1986,30063,5208,22,680,82,127,1073,3964,6710,2,505,0,476,9185,2,2020,0,7,0,0,0,0,0,0
RE,Reunion,country,Sub-Saharan Africa,-21.115141,55.536384,US,USA,country,North America,37.09024,-95.712891,1986,2,0,0,0,0,0,0,0,0,0,0,0,0,2,0,0,0,0,0,0,0,0,0,0
SG,Singapore,country,East Asia and Pacific,1.352083,103.819836,US,USA,country,North America,37.09024,-95.712891,1986,83474,250,72,238,0,58,66,3,9562,649,1660,0,52602,3954,10164,4195,0,1,0,0,0,0,0,0
ES,Spain,country,Europe and Central Asia,40.463667,-3.74922,US,USA,country,North America,37.09024,-95.712891,1986,241509,3468,3,5238,1,94,51461,67118,53547,19,6090,3,453,4507,13238,36195,0,2,72,0,0,0,0,0
LK,Sri Lanka,country,South Asia,7.873054,80.771797,US,USA,country,North America,37.09024,-95.712891,1986,44673,0,0,11,0,38,2343,4,2,0,1114,0,7661,8576,24911,0,0,0,0,13,0,0,0,0
SE,Sweden,country,Europe and Central Asia,60.128161,18.643501,US,USA,country,North America,37.09024,-95.712891,1986,289719,254901,0,2679,0,0,6,82,273,10,0,4,1928,1864,351,12957,0,12380,1545,739,0,0,0,0
CH,Switzerland,country,Europe and Central Asia,46.818188,8.227512,US,USA,country,North America,37.09024,-95.712891,1986,45515,599,0,1307,736,0,0,348,1762,0,0,6,7139,9998,17,18562,0,89,4952,0,0,0,0,0
SY,Syrian Arab Rep.,country,Middle East and North Africa,34.802075,38.996815,US,USA,country,North America,37.09024,-95.712891,1986,112,0,0,3,0,0,0,0,85,0,23,0,0,1,0,0,0,0,0,0,0,0,0,0
TH,Thailand,country,East Asia and Pacific,15.870032,100.992541,US,USA,country,North America,37.09024,-95.712891,1986,398651,75893,3024,46565,3280,48,430,10204,138765,0,316,0,2739,113197,2415,1678,0,24,73,0,0,0,0,0
TO,Tonga,country,East Asia and Pacific,-21.178986,-175.198242,US,USA,country,North America,37.09024,-95.712891,1986,15,0,0,0,0,0,0,0,0,0,15,0,0,0,0,0,0,0,0,0,0,0,0,0
TT,Trinidad and Tobago,country,Latin America and the Caribbean,10.691803,-61.222503,US,USA,country,North America,37.09024,-95.712891,1986,867164,312,1,33909,0,0,0,64,16,0,66,0,973,831516,0,305,0,0,2,0,0,0,0,0
TR,Turkey,country,Europe and Central Asia,38.963745,35.243322,US,USA,country,North America,37.09024,-95.712891,1986,73010,65,0,464,2907,2390,462,4408,8755,4482,2936,0,14,45883,48,155,0,0,41,0,0,0,0,0
GB,United Kingdom,country,Europe and Central Asia,55.378051,-3.435973,US,USA,country,North America,37.09024,-95.712891,1986,63782,6265,529,17831,546,61,837,640,2284,3180,142,1466,13106,3629,7205,4890,0,24,915,232,0,0,0,0
UY,Uruguay,country,Latin America and the Caribbean,-32.522779,-55.765835,US,USA,country,North America,37.09024,-95.712891,1986,13510,0,0,5373,0,0,0,0,0,2994,0,0,9,641,498,16,0,3728,251,0,0,0,0,0
RU,Russian Federation,country,Europe and Central Asia,61.52401,105.318756,US,USA,country,North America,37.09024,-95.712891,1986,9757,0,0,0,0,0,0,0,0,0,0,0,0,0,0,9757,0,0,0,0,0,0,0,0
VE,Venezuela,country,Latin America and the Caribbean,6.42375,-66.58973,US,USA,country,North America,37.09024,-95.712891,1986,31714,830,25,30,72,0,0,3785,11969,61,149,0,12109,187,262,706,0,206,1323,0,0,0,0,0
BA,Bosnia & Herzegovina,country,Europe and Central Asia,43.915886,17.679076,US,USA,country,North America,37.09024,-95.712891,1986,26411,215,0,2434,0,0,0,320,3989,0,75,729,36,7071,0,3998,0,7420,124,0,0,0,0,0
ZW,Zimbabwe,country,Sub-Saharan Africa,-19.015438,29.154857,US,USA,country,North America,37.09024,-95.712891,1986,4172,0,0,0,0,42,0,0,0,0,0,0,1534,2586,0,0,10,0,0,10,0,0,0,0
DZ,Algeria,country,Middle East and North Africa,28.033886,1.659626,US,USA,country,North America,37.09024,-95.712891,1987,259,0,0,0,0,0,0,0,0,0,0,0,0,0,0,259,0,0,0,0,0,0,0,0
AR,Argentina,country,Latin America and the Caribbean,-38.416097,-63.616672,US,USA,country,North America,37.09024,-95.712891,1987,275383,26541,0,43854,1288,1,235,1376,30925,1647,220,414,15840,12088,94071,787,0,41625,4459,12,0,0,0,0
AU,Australia,country,East Asia and Pacific,-25.274398,133.775136,US,USA,country,North America,37.09024,-95.712891,1987,642235,396,0,106299,2725,764,5339,93,15152,39247,0,259,1593,90,2518,76811,0,383103,7841,5,0,0,0,0
AT,Austria,country,Europe and Central Asia,47.516231,14.550072,US,USA,country,North America,37.09024,-95.712891,1987,12670,1198,0,1941,0,0,4,117,382,0,0,0,616,32,6,937,0,0,7437,0,0,0,0,0
BB,Barbados,country,Latin America and the Caribbean,13.193887,-59.543198,US,USA,country,North America,37.09024,-95.712891,1987,12991,0,13,12556,0,0,0,13,1,3,0,0,0,18,0,387,0,0,0,0,0,0,0,0
BE,Belgium,country,Europe and Central Asia,50.503887,4.469936,US,USA,country,North America,37.09024,-95.712891,1987,45952,2364,0,3938,64,5,35,13872,842,5410,116,218,4814,1187,6488,1345,0,5169,85,0,0,0,0,0
BR,Brazil,country,Latin America and the Caribbean,-14.235004,-51.92528,US,USA,country,North America,37.09024,-95.712891,1987,1168950,348,266,253940,2,13372,201,1002,338093,0,12976,2,399456,50519,76543,1197,0,20854,179,0,0,0,0,0
BG,Bulgaria,country,Europe and Central Asia,42.733883,25.48583,US,USA,country,North America,37.09024,-95.712891,1987,4933,0,0,0,0,0,0,51,0,0,0,0,0,2520,0,1457,0,0,905,0,0,0,0,0
CM,Cameroon,country,Sub-Saharan Africa,7.369722,12.354722,US,USA,country,North America,37.09024,-95.712891,1987,4056,0,0,0,0,0,0,0,0,0,0,0,3784,272,0,0,0,0,0,0,0,0,0,0
CA,Canada,country,North America,56.130366,-106.346771,US,USA,country,North America,37.09024,-95.712891,1987,4008080,1308421,236907,330243,15171,2166,134766,147297,72704,1248,3474,697565,64237,147146,97482,396590,8996,326820,15336,10507,0,0,0,0
CL,Chile,country,Latin America and the Caribbean,-35.675147,-71.542969,US,USA,country,North America,37.09024,-95.712891,1987,380370,584,0,1934,6965,0,84,21021,337925,541,800,18,280,7669,3,2377,0,4,146,19,0,0,0,0
HK,Hong Kong,country,East Asia and Pacific,22.396428,114.109497,US,USA,country,North America,37.09024,-95.712891,1987,117246,11484,1260,3229,973,4409,10548,41140,4059,2037,1764,13,783,28384,1125,4083,0,736,1165,54,0,0,0,0
MO,"Macao SAR, China",country,East Asia and Pacific,22.198745,113.543873,US,USA,country,North America,37.09024,-95.712891,1987,4091,0,0,0,0,0,0,0,0,0,0,0,0,0,0,4091,0,0,0,0,0,0,0,0
CN,China,country,East Asia and Pacific,35.86166,104.195397,US,USA,country,North America,37.09024,-95.712891,1987,159217,815,74,7832,55,768,3062,65025,6437,7561,6129,8508,18660,21849,514,11618,0,306,4,0,0,0,0,0
TW,Taiwan,country,East Asia and Pacific,23.69781,120.960515,US,USA,country,North America,37.09024,-95.712891,1987,119177,6938,32,10397,361,0,1880,78685,8196,6,107,54,1242,8720,548,1374,0,208,424,5,0,0,0,0
CO,Colombia,country,Latin America and the Caribbean,4.570868,-74.297333,US,USA,country,North America,37.09024,-95.712891,1987,862822,816,22,96109,32,0,17,1073,560308,2327,510,0,142842,57261,0,1464,0,41,0,0,0,0,0,0
CR,Costa Rica,country,Latin America and the Caribbean,9.748917,-83.753428,US,USA,country,North America,37.09024,-95.712891,1987,756251,151,9920,38342,0,79,414,8960,611538,0,605,0,36134,11249,7,11533,7,27291,4,24,0,0,0,0
CY,Cyprus,country,Europe and Central Asia,35.126413,33.429859,US,USA,country,North America,37.09024,-95.712891,1987,550,18,0,2,0,0,0,2,20,0,0,0,13,295,0,63,0,0,137,0,0,0,0,0
DK,Denmark,country,Europe and Central Asia,56.26392,9.501785,US,USA,country,North America,37.09024,-95.712891,1987,184374,23761,0,6728,1,0,3,49,2582,0,7,26,287,4810,508,6354,0,128979,10140,139,0,0,0,0
EG,Egypt,country,Middle East and North Africa,26.820553,30.802498,US,USA,country,North America,37.09024,-95.712891,1987,6610,0,0,0,0,0,20,279,41,2300,2057,0,0,1913,0,0,0,0,0,0,0,0,0,0
ET,Ethiopia,country,Sub-Saharan Africa,9.145,40.489673,US,USA,country,North America,37.09024,-95.712891,1987,31053,0,0,0,99,0,4780,0,0,0,5,0,25781,53,0,29,0,0,11,295,0,0,0,0
FJ,Fiji,country,East Asia and Pacific,-16.578193,179.414413,US,USA,country,North America,37.09024,-95.712891,1987,22394,104,0,21900,0,0,13,0,33,0,342,0,2,0,0,0,0,0,0,0,0,0,0,0
FI,Finland,country,Europe and Central Asia,61.92411,25.748151,US,USA,country,North America,37.09024,-95.712891,1987,48241,29721,0,376,0,0,0,0,0,0,0,1,1274,60,0,2537,0,3056,11216,0,0,0,0,0
FR,France,country,Europe and Central Asia,46.227638,2.213749,US,USA,country,North America,37.09024,-95.712891,1987,408007,4243,4,37603,26,249,2622,5346,4027,346,1290,1745,9503,10698,542,319992,0,137,9136,465,33,0,0,0
GR,Greece,country,Europe and Central Asia,39.074208,21.824312,US,USA,country,North America,37.09024,-95.712891,1987,55907,1256,0,166,59,32,2544,14452,11009,994,0,0,178,17660,3968,2469,0,0,1120,0,0,0,0,0
GP,Guadeloupe,country,Latin America and the Caribbean,16.995971,-62.067641,US,USA,country,North America,37.09024,-95.712891,1987,944,0,0,0,0,0,0,0,0,0,0,944,0,0,0,0,0,0,0,0,0,0,0,0
GT,Guatemala,country,Latin America and the Caribbean,15.783471,-90.230759,US,USA,country,North America,37.09024,-95.712891,1987,778197,58,10,216754,78,330,4059,25235,312540,0,907,0,209287,4763,0,490,0,3682,4,0,0,0,0,0
HN,Honduras,country,Latin America and the Caribbean,15.199999,-86.241905,US,USA,country,North America,37.09024,-95.712891,1987,908985,0,82,51496,0,0,1361,25389,778895,37,236,143,39786,1916,0,1,0,9622,0,21,0,0,0,0
HU,Hungary,country,Europe and Central Asia,47.162494,19.503304,US,USA,country,North America,37.09024,-95.712891,1987,20445,461,0,360,0,0,55,1936,276,0,451,0,309,294,0,974,0,15010,319,0,0,0,0,0
IS,Iceland,country,Europe and Central Asia,64.963051,-19.020835,US,USA,country,North America,37.09024,-95.712891,1987,995,0,0,3,0,0,0,0,0,0,0,337,0,1,0,46,0,69,539,0,0,0,0,0
IN,India,country,South Asia,20.593684,78.96288,US,USA,country,North America,37.09024,-95.712891,1987,111121,13230,50,6476,783,11107,4397,1006,184,417,13613,300,15276,43422,308,410,0,142,0,0,0,0,0,0
ID,Indonesia,country,East Asia and Pacific,-0.789275,113.921327,US,USA,country,North America,37.09024,-95.712891,1987,679250,499,0,0,0,222,83,1559,9540,0,22241,0,65827,503186,76086,0,0,7,0,0,0,0,0,0
IE,Ireland,country,Europe and Central Asia,53.41291,-8.24389,US,USA,country,North America,37.09024,-95.712891,1987,46132,405,0,261,123,0,0,21,50,0,3,69,4579,9486,0,28453,0,835,1847,0,0,0,0,0
IL,Israel,country,Middle East and North Africa,31.046051,34.851612,US,USA,country,North America,37.09024,-95.712891,1987,17736,2238,51,2016,0,0,821,10160,397,399,140,0,733,256,16,86,0,3,420,0,0,0,0,0
IT,Italy,country,Europe and Central Asia,41.87194,12.56738,US,USA,country,North America,37.09024,-95.712891,1987,408410,64187,43,3396,13,3306,201,53916,2750,830,103,13,3495,9558,38871,217682,0,120,9748,178,0,0,0,0
JP,Japan,country,East Asia and Pacific,36.204824,138.252924,US,USA,country,North America,37.09024,-95.712891,1987,3331808,5120,345,1036,3,87,4957,1719,11847,128,41,366,1231,3263690,3669,37538,0,26,4,1,0,0,0,0
JO,Jordan,country,Middle East and North Africa,30.585164,36.238414,US,USA,country,North America,37.09024,-95.712891,1987,75,0,0,4,0,0,0,0,23,0,0,0,0,36,2,0,0,0,10,0,0,0,0,0
KE,Kenya,country,Sub-Saharan Africa,-0.023559,37.906193,US,USA,country,North America,37.09024,-95.712891,1987,20797,60,0,0,44,58,57,0,0,0,21,0,19914,309,0,273,0,0,0,61,0,0,0,0
KI,Kiribati,country,East Asia and Pacific,-3.370417,-168.734039,US,USA,country,North America,37.09024,-95.712891,1987,30,0,0,0,0,0,30,0,0,0,0,0,0,0,0,0,0,0,0,0,0,0,0,0
MW,Malawi,country,Sub-Saharan Africa,-13.254308,34.301525,US,USA,country,North America,37.09024,-95.712891,1987,38708,0,0,32246,0,33,0,0,0,0,13,0,1040,5376,0,0,0,0,0,0,0,0,0,0
MY,Malaysia,country,East Asia and Pacific,4.210484,101.975766,US,USA,country,North America,37.09024,-95.712891,1987,518241,63,289,4,18,0,228,43,10780,0,1542,11,13355,157114,334551,112,0,0,0,0,131,0,0,0
MX,Mexico,country,Latin America and the Caribbean,23.634501,-102.552784,US,USA,country,North America,37.09024,-95.712891,1987,3651677,24588,11836,606332,18314,7631,38678,1759715,444648,46498,18902,23157,178452,54253,5713,409548,2,3239,173,0,0,0,0,0
MA,Morocco,country,Middle East and North Africa,31.791702,-7.09262,US,USA,country,North America,37.09024,-95.712891,1987,4050,0,0,0,36,0,963,1516,67,0,809,0,0,573,0,86,0,0,0,0,0,0,0,0
NL,Netherlands,country,Europe and Central Asia,52.132633,5.291266,US,USA,country,North America,37.09024,-95.712891,1987,456264,2127,203,37988,224,87,1525,10668,956,209,3352,731,34313,34684,7276,303855,0,6337,10725,1004,0,0,0,0
NZ,New Zealand,country,East Asia and Pacific,-40.900557,174.885971,US,USA,country,North America,37.09024,-95.712891,1987,326124,507,4,221,932,0,2,2025,58080,15237,0,182,12,14,140,3616,0,215330,29769,53,0,0,0,0
NO,Norway,country,Europe and Central Asia,60.472024,8.468946,US,USA,country,North America,37.09024,-95.712891,1987,10926,648,0,0,0,0,0,3,3,1,0,905,29,389,0,1444,0,0,7489,0,15,0,0,0
PA,Panama,country,Latin America and the Caribbean,8.537981,-80.782127,US,USA,country,North America,37.09024,-95.712891,1987,361645,27,0,75236,0,0,0,630,277984,0,25,0,6378,1200,0,137,0,0,28,0,0,0,0,0
PG,Papua New Guinea,country,East Asia and Pacific,-6.314993,143.95555,US,USA,country,North America,37.09024,-95.712891,1987,22379,0,0,6500,0,0,0,0,0,0,0,0,10154,16,5499,210,0,0,0,0,0,0,0,0
PY,Paraguay,country,Latin America and the Caribbean,-23.442503,-58.443832,US,USA,country,North America,37.09024,-95.712891,1987,11920,0,0,6900,0,0,2000,0,0,112,0,2000,138,748,0,0,0,22,0,0,0,0,0,0
PE,Peru,country,Latin America and the Caribbean,-9.189967,-75.015152,US,USA,country,North America,37.09024,-95.712891,1987,75025,99,0,29728,1617,24,13,1392,926,12,19,911,37482,2128,0,674,0,0,0,0,0,0,0,0
PH,Philippines,country,East Asia and Pacific,12.879721,121.774017,US,USA,country,North America,37.09024,-95.712891,1987,815062,2055,359,127577,12,0,44158,429,160214,8791,23,53,9114,9473,449212,3578,0,14,0,0,0,0,0,0
PL,Poland,country,Europe and Central Asia,51.919438,19.145136,US,USA,country,North America,37.09024,-95.712891,1987,47652,0,0,402,0,0,0,1005,3143,0,0,0,0,13,2653,717,0,38561,1158,0,0,0,0,0
PT,Portugal,country,Europe and Central Asia,39.399872,-8.224454,US,USA,country,North America,37.09024,-95.712891,1987,35929,345,66,24,49,128,469,8960,168,2,27,25,237,952,562,18420,0,0,5495,0,0,0,0,0
KR,"Korea, Rep.",country,East Asia and Pacific,35.907757,127.766922,US,USA,country,North America,37.09024,-95.712891,1987,41652,5427,1,1691,116,85,1230,3312,11141,25,122,113,496,15025,6,2849,0,13,0,0,0,0,0,0
RE,Reunion,country,Sub-Saharan Africa,-21.115141,55.536384,US,USA,country,North America,37.09024,-95.712891,1987,2,0,0,0,0,0,0,0,0,0,1,0,0,1,0,0,0,0,0,0,0,0,0,0
SG,Singapore,country,East Asia and Pacific,1.352083,103.819836,US,USA,country,North America,37.09024,-95.712891,1987,145142,795,54,20,20,17,26,9,9547,0,1221,0,30848,93242,4005,5325,0,13,0,0,0,0,0,0
ES,Spain,country,Europe and Central Asia,40.463667,-3.74922,US,USA,country,North America,37.09024,-95.712891,1987,263369,3147,3,4983,20,398,66918,70707,50810,101,5714,414,3731,5811,12985,37495,0,20,108,4,0,0,0,0
LK,Sri Lanka,country,South Asia,7.873054,80.771797,US,USA,country,North America,37.09024,-95.712891,1987,23061,2,0,0,0,73,2879,16,1,0,1459,0,4600,9436,4595,0,0,0,0,0,0,0,0,0
SE,Sweden,country,Europe and Central Asia,60.128161,18.643501,US,USA,country,North America,37.09024,-95.712891,1987,223164,183744,0,2387,0,0,6,32,202,73,7,798,1588,2764,531,14837,0,12284,3409,502,0,0,0,0
CH,Switzerland,country,Europe and Central Asia,46.818188,8.227512,US,USA,country,North America,37.09024,-95.712891,1987,44476,613,0,1706,0,7,0,1526,1479,0,4,3,7761,9579,35,17646,0,66,4051,0,0,0,0,0
SY,Syrian Arab Rep.,country,Middle East and North Africa,34.802075,38.996815,US,USA,country,North America,37.09024,-95.712891,1987,251,0,0,2,1,0,0,2,28,193,25,0,0,0,0,0,0,0,0,0,0,0,0,0
TH,Thailand,country,East Asia and Pacific,15.870032,100.992541,US,USA,country,North America,37.09024,-95.712891,1987,427291,88484,5378,20854,2980,37,337,21557,154041,112,526,0,10518,117392,3031,1661,0,30,353,0,0,0,0,0
TO,Tonga,country,East Asia and Pacific,-21.178986,-175.198242,US,USA,country,North America,37.09024,-95.712891,1987,39,0,2,0,0,0,17,0,0,0,11,0,0,9,0,0,0,0,0,0,0,0,0,0
TT,Trinidad and Tobago,country,Latin America and the Caribbean,10.691803,-61.222503,US,USA,country,North America,37.09024,-95.712891,1987,184801,116,0,13,0,7,0,167,49,0,88,5526,779,177481,0,575,0,0,0,0,0,0,0,0
TN,Tunisia,country,Middle East and North Africa,33.886917,9.537499,US,USA,country,North America,37.09024,-95.712891,1987,2946,7,0,0,0,0,0,2,808,0,0,0,0,19,2110,0,0,0,0,0,0,0,0,0
TR,Turkey,country,Europe and Central Asia,38.963745,35.243322,US,USA,country,North America,37.09024,-95.712891,1987,100566,881,0,436,1523,1712,641,4685,9217,9942,5328,0,12,65692,126,88,0,0,283,0,0,0,0,0
GB,United Kingdom,country,Europe and Central Asia,55.378051,-3.435973,US,USA,country,North America,37.09024,-95.712891,1987,238698,7096,609,17323,631,123,737,1189,2325,6295,121,2193,16869,5812,720,173842,2,98,2422,293,0,0,0,0
UY,Uruguay,country,Latin America and the Caribbean,-32.522779,-55.765835,US,USA,country,North America,37.09024,-95.712891,1987,27479,0,0,19396,0,0,0,0,0,4763,0,0,8,743,0,0,0,1951,618,0,0,0,0,0
RU,Russian Federation,country,Europe and Central Asia,61.52401,105.318756,US,USA,country,North America,37.09024,-95.712891,1987,8567,0,0,0,0,0,0,0,0,0,0,0,0,0,0,8567,0,0,0,0,0,0,0,0
VE,Venezuela,country,Latin America and the Caribbean,6.42375,-66.58973,US,USA,country,North America,37.09024,-95.712891,1987,49131,1090,1100,12107,0,0,0,598,13597,383,516,0,13067,555,1454,4664,0,0,0,0,0,0,0,0
BA,Bosnia & Herzegovina,country,Europe and Central Asia,43.915886,17.679076,US,USA,country,North America,37.09024,-95.712891,1987,29526,436,0,3251,0,0,0,402,3842,0,97,45,44,7471,1,4725,0,9093,119,0,0,0,0,0
ZW,Zimbabwe,country,Sub-Saharan Africa,-19.015438,29.154857,US,USA,country,North America,37.09024,-95.712891,1987,11834,0,0,9572,0,18,0,0,0,0,0,0,1160,1078,0,0,0,0,0,6,0,0,0,0
DZ,Algeria,country,Middle East and North Africa,28.033886,1.659626,US,USA,country,North America,37.09024,-95.712891,1988,846,0,0,0,0,0,0,0,0,0,0,0,0,0,0,846,0,0,0,0,0,0,0,0
AR,Argentina,country,Latin America and the Caribbean,-38.416097,-63.616672,US,USA,country,North America,37.09024,-95.712891,1988,710089,234740,0,83507,1006,4,505,4039,41588,1747,197,42818,14075,12582,221117,1118,0,45040,5972,34,0,0,0,0
AU,Australia,country,East Asia and Pacific,-25.274398,133.775136,US,USA,country,North America,37.09024,-95.712891,1988,626771,1449,0,168553,1966,542,4108,232,6154,33036,9,362,65,1360,1686,28875,0,370487,7543,344,0,0,0,0
AT,Austria,country,Europe and Central Asia,47.516231,14.550072,US,USA,country,North America,37.09024,-95.712891,1988,22388,10627,0,1056,0,0,3,1,2422,0,0,0,456,57,11,844,0,0,6911,0,0,0,0,0
BB,Barbados,country,Latin America and the Caribbean,13.193887,-59.543198,US,USA,country,North America,37.09024,-95.712891,1988,19605,0,0,19065,0,0,0,7,0,0,2,0,0,43,0,488,0,0,0,0,0,0,0,0
BE,Belgium,country,Europe and Central Asia,50.503887,4.469936,US,USA,country,North America,37.09024,-95.712891,1988,39787,1928,0,1486,199,2,31,15376,1721,4464,64,241,5196,1673,2472,1132,22,3701,98,3,0,0,0,0
BO,Bolivia,country,Latin America and the Caribbean,-16.290154,-63.588653,US,USA,country,North America,37.09024,-95.712891,1988,15094,170,0,11436,0,1644,0,0,0,0,0,0,1741,0,0,100,0,0,0,3,0,0,0,0
BR,Brazil,country,Latin America and the Caribbean,-14.235004,-51.92528,US,USA,country,North America,37.09024,-95.712891,1988,1218330,1112,185,250333,0,21114,89,13049,270133,3670,9449,9058,382710,58999,166293,1949,0,30013,174,0,0,0,0,0
BG,Bulgaria,country,Europe and Central Asia,42.733883,25.48583,US,USA,country,North America,37.09024,-95.712891,1988,8866,0,0,0,0,0,0,25,11,0,0,0,0,6192,0,1609,0,0,1029,0,0,0,0,0
CM,Cameroon,country,Sub-Saharan Africa,7.369722,12.354722,US,USA,country,North America,37.09024,-95.712891,1988,5752,0,0,0,0,1,0,0,0,0,0,1000,4057,694,0,0,0,0,0,0,0,0,0,0
CA,Canada,country,North America,56.130366,-106.346771,US,USA,country,North America,37.09024,-95.712891,1988,4137698,1230716,303703,303039,28406,644,218672,149066,89033,1217,772,791337,51931,96803,158037,350950,7406,328717,13398,19414,1843,0,0,0
CL,Chile,country,Latin America and the Caribbean,-35.675147,-71.542969,US,USA,country,North America,37.09024,-95.712891,1988,452224,4516,0,1950,3747,15,49,19191,405821,284,705,9,182,11947,2,3402,3,68,336,0,0,0,0,0
HK,Hong Kong,country,East Asia and Pacific,22.396428,114.109497,US,USA,country,North America,37.09024,-95.712891,1988,134968,12251,1498,3447,1693,1571,7674,53687,4988,1782,1668,65,861,35052,1164,6390,0,176,926,75,0,0,0,0
CN,China,country,East Asia and Pacific,35.86166,104.195397,US,USA,country,North America,37.09024,-95.712891,1988,169024,797,174,9342,618,957,5167,67239,8238,3091,3562,4966,26489,21890,3504,12688,0,214,84,4,0,0,0,0
TW,Taiwan,country,East Asia and Pacific,23.69781,120.960515,US,USA,country,North America,37.09024,-95.712891,1988,84042,8671,94,12082,204,0,2628,40873,4776,8,180,54,1470,10534,438,1397,0,91,541,1,0,0,0,0
CO,Colombia,country,Latin America and the Caribbean,4.570868,-74.297333,US,USA,country,North America,37.09024,-95.712891,1988,807717,828,199,95511,5,0,72,937,520010,2144,327,0,117611,68734,0,1322,0,17,0,0,0,0,0,0
CR,Costa Rica,country,Latin America and the Caribbean,9.748917,-83.753428,US,USA,country,North America,37.09024,-95.712891,1988,816218,233,15359,44999,0,102,547,14098,687419,0,611,11,16340,13308,16,2,0,23169,1,3,0,0,0,0
DK,Denmark,country,Europe and Central Asia,56.26392,9.501785,US,USA,country,North America,37.09024,-95.712891,1988,171480,20225,0,4643,0,0,0,109,2124,0,5,8,212,4022,348,6602,0,123826,9334,22,0,0,0,0
EC,Ecuador,country,Latin America and the Caribbean,-1.831239,-78.183406,US,USA,country,North America,37.09024,-95.712891,1988,1000599,37,23,28882,8,0,0,3011,862090,4258,9,3263,98083,491,402,42,0,0,0,0,0,0,0,0
EG,Egypt,country,Middle East and North Africa,26.820553,30.802498,US,USA,country,North America,37.09024,-95.712891,1988,15480,10,3197,0,35,0,0,288,2112,5179,2118,0,0,2541,0,0,0,0,0,0,0,0,0,0
ET,Ethiopia,country,Sub-Saharan Africa,9.145,40.489673,US,USA,country,North America,37.09024,-95.712891,1988,16862,0,0,0,0,0,4057,0,0,1568,12,0,10478,79,0,107,0,0,26,535,0,0,0,0
FJ,Fiji,country,East Asia and Pacific,-16.578193,179.414413,US,USA,country,North America,37.09024,-95.712891,1988,8690,123,1,8100,0,0,0,2,107,0,352,0,0,0,3,0,0,0,2,0,0,0,0,0
FI,Finland,country,Europe and Central Asia,61.92411,25.748151,US,USA,country,North America,37.09024,-95.712891,1988,18352,542,0,342,0,0,0,0,0,0,0,3,1826,33,0,2349,0,3190,9940,127,0,0,0,0
FR,France,country,Europe and Central Asia,46.227638,2.213749,US,USA,country,North America,37.09024,-95.712891,1988,449159,3909,10,24845,21,20,2702,5875,5055,2733,1161,2249,9115,13721,4459,363458,0,246,9025,555,0,0,0,0
GR,Greece,country,Europe and Central Asia,39.074208,21.824312,US,USA,country,North America,37.09024,-95.712891,1988,50713,1075,2,66,9,1,1731,9095,23931,0,0,0,65,9850,1440,2456,0,2,990,0,0,0,0,0
GP,Guadeloupe,country,Latin America and the Caribbean,16.995971,-62.067641,US,USA,country,North America,37.09024,-95.712891,1988,2346,0,0,0,0,0,0,0,0,0,0,2337,0,0,0,9,0,0,0,0,0,0,0,0
GT,Guatemala,country,Latin America and the Caribbean,15.783471,-90.230759,US,USA,country,North America,37.09024,-95.712891,1988,661372,64,31,239540,17,7,6766,20192,323923,63,773,0,56434,5737,0,421,0,7319,0,85,0,0,0,0
HN,Honduras,country,Latin America and the Caribbean,15.199999,-86.241905,US,USA,country,North America,37.09024,-95.712891,1988,890100,1,88,34927,3,154,964,21407,809849,0,402,0,10613,1704,0,45,7,9939,4,0,0,0,0,0
HU,Hungary,country,Europe and Central Asia,47.162494,19.503304,US,USA,country,North America,37.09024,-95.712891,1988,40247,195,0,1991,0,0,53,9569,12705,0,583,0,243,195,0,1318,0,12802,593,0,0,0,0,0
IS,Iceland,country,Europe and Central Asia,64.963051,-19.020835,US,USA,country,North America,37.09024,-95.712891,1988,1463,0,0,7,0,0,0,0,0,0,0,1082,0,1,0,159,0,25,189,0,0,0,0,0
IN,India,country,South Asia,20.593684,78.96288,US,USA,country,North America,37.09024,-95.712891,1988,89598,7592,83,163,974,6057,8647,1098,280,347,11487,6829,12541,33011,0,440,0,49,0,0,0,0,0,0
ID,Indonesia,country,East Asia and Pacific,-0.789275,113.921327,US,USA,country,North America,37.09024,-95.712891,1988,699674,1785,0,10617,0,470,30,4594,6311,0,27318,0,48160,539441,60912,10,21,18,8,0,0,0,0,0
IE,Ireland,country,Europe and Central Asia,53.41291,-8.24389,US,USA,country,North America,37.09024,-95.712891,1988,37624,4187,0,250,37,0,17,364,110,1,0,11,4080,2238,0,24242,0,302,1763,22,0,0,0,0
IT,Italy,country,Europe and Central Asia,41.87194,12.56738,US,USA,country,North America,37.09024,-95.712891,1988,348939,62635,5,4359,8,3488,128,56393,2939,196,36,12309,3066,10728,49437,133691,0,52,9301,168,0,0,0,0
JM,Jamaica,country,Latin America and the Caribbean,18.109581,-77.297508,US,USA,country,North America,37.09024,-95.712891,1988,34037,678,503,14482,24,0,101,1843,4912,0,398,3755,368,1423,7,5520,0,0,23,0,0,0,0,0
JP,Japan,country,East Asia and Pacific,36.204824,138.252924,US,USA,country,North America,37.09024,-95.712891,1988,62293,5677,142,992,3,9,6418,2165,8099,57,37,353,1280,3928,3868,29201,0,16,48,0,0,0,0,0
JO,Jordan,country,Middle East and North Africa,30.585164,36.238414,US,USA,country,North America,37.09024,-95.712891,1988,96,0,0,8,0,0,0,0,4,0,4,25,0,7,0,0,0,13,35,0,0,0,0,0
KE,Kenya,country,Sub-Saharan Africa,-0.023559,37.906193,US,USA,country,North America,37.09024,-95.712891,1988,16810,78,0,0,0,897,141,0,2,0,24,0,15006,260,0,378,0,0,14,10,0,0,0,0
MW,Malawi,country,Sub-Saharan Africa,-13.254308,34.301525,US,USA,country,North America,37.09024,-95.712891,1988,16251,0,0,8805,0,26,0,0,0,0,76,0,1195,6149,0,0,0,0,0,0,0,0,0,0
MY,Malaysia,country,East Asia and Pacific,4.210484,101.975766,US,USA,country,North America,37.09024,-95.712891,1988,513933,31,361,31,0,0,1320,96,9640,42,1710,9,19619,135842,345174,58,0,0,0,0,0,0,0,0
MX,Mexico,country,Latin America and the Caribbean,23.634501,-102.552784,US,USA,country,North America,37.09024,-95.712891,1988,3364891,31406,9448,407390,17463,6606,39566,1779603,431407,62831,17728,17670,106075,58731,11361,365333,1,2248,22,3,0,0,0,0
MA,Morocco,country,Middle East and North Africa,31.791702,-7.09262,US,USA,country,North America,37.09024,-95.712891,1988,5052,0,0,0,0,0,1148,1503,66,0,1484,0,0,824,0,27,0,0,0,0,0,0,0,0
NL,Netherlands,country,Europe and Central Asia,52.132633,5.291266,US,USA,country,North America,37.09024,-95.712891,1988,491547,4755,312,57873,451,3,2486,9910,1391,258,3030,504,38149,33435,12582,302124,17,8501,13221,2562,0,0,0,0
NZ,New Zealand,country,East Asia and Pacific,-40.900557,174.885971,US,USA,country,North America,37.09024,-95.712891,1988,341468,315,0,42,1234,8,2,2191,49963,12639,0,115,26,10957,582,4163,0,232098,27037,96,0,0,0,0
NO,Norway,country,Europe and Central Asia,60.472024,8.468946,US,USA,country,North America,37.09024,-95.712891,1988,11443,957,0,4,0,0,0,2,9,0,0,680,21,304,0,1367,0,808,7271,20,0,0,0,0
PA,Panama,country,Latin America and the Caribbean,8.537981,-80.782127,US,USA,country,North America,37.09024,-95.712891,1988,201706,3,100,8519,0,0,0,341,189772,0,0,0,2219,696,0,36,0,20,0,0,0,0,0,0
PG,Papua New Guinea,country,East Asia and Pacific,-6.314993,143.95555,US,USA,country,North America,37.09024,-95.712891,1988,17763,0,0,7258,0,0,0,0,0,0,2,0,8416,0,2000,0,0,0,0,87,0,0,0,0
PE,Peru,country,Latin America and the Caribbean,-9.189967,-75.015152,US,USA,country,North America,37.09024,-95.712891,1988,82029,209,1,36055,1958,103,1,1602,912,17,76,3331,33599,3411,0,754,0,0,0,0,0,0,0,0
PH,Philippines,country,East Asia and Pacific,12.879721,121.774017,US,USA,country,North America,37.09024,-95.712891,1988,752476,2362,333,142631,11,16,38522,354,159280,7943,20,58,16551,11889,365059,3381,0,0,4066,0,0,0,0,0
PT,Portugal,country,Europe and Central Asia,39.399872,-8.224454,US,USA,country,North America,37.09024,-95.712891,1988,31820,351,61,19,83,115,383,7946,1109,0,85,34,24,1108,544,16380,0,0,3578,0,0,0,0,0
KR,"Korea, Rep.",country,East Asia and Pacific,35.907757,127.766922,US,USA,country,North America,37.09024,-95.712891,1988,42521,6968,5,907,209,157,837,2393,10608,35,296,81,440,15276,17,3928,0,5,359,0,0,0,0,0
RE,Reunion,country,Sub-Saharan Africa,-21.115141,55.536384,US,USA,country,North America,37.09024,-95.712891,1988,3,0,0,0,0,0,0,0,0,0,2,0,0,1,0,0,0,0,0,0,0,0,0,0
SN,Senegal,country,Sub-Saharan Africa,14.497401,-14.452362,US,USA,country,North America,37.09024,-95.712891,1988,4724,0,0,0,0,0,0,124,0,0,0,4600,0,0,0,0,0,0,0,0,0,0,0,0
SG,Singapore,country,East Asia and Pacific,1.352083,103.819836,US,USA,country,North America,37.09024,-95.712891,1988,182517,1016,78,136,1,5,231,14,8482,21,1786,111,55190,103913,4274,7234,0,10,15,0,0,0,0,0
ES,Spain,country,Europe and Central Asia,40.463667,-3.74922,US,USA,country,North America,37.09024,-95.712891,1988,256374,1888,0,4365,13,85,64111,62281,45816,61,4680,58,8131,4828,22995,36897,0,0,112,53,0,0,0,0
LK,Sri Lanka,country,South Asia,7.873054,80.771797,US,USA,country,North America,37.09024,-95.712891,1988,22544,21,0,0,0,6,183,12,0,0,1473,0,7023,13826,0,0,0,0,0,0,0,0,0,0
SR,Suriname,country,Latin America and the Caribbean,3.919305,-56.027783,US,USA,country,North America,37.09024,-95.712891,1988,5,0,0,0,0,0,0,0,3,0,0,0,0,2,0,0,0,0,0,0,0,0,0,0
SE,Sweden,country,Europe and Central Asia,60.128161,18.643501,US,USA,country,North America,37.09024,-95.712891,1988,251548,192713,0,2173,0,0,6,629,329,0,0,828,1867,1279,1857,34592,0,10937,3184,1154,0,0,0,0
CH,Switzerland,country,Europe and Central Asia,46.818188,8.227512,US,USA,country,North America,37.09024,-95.712891,1988,28170,667,0,1752,0,2,0,1314,1057,0,0,3,5461,6770,98,6582,0,41,4423,0,0,0,0,0
SY,Syrian Arab Rep.,country,Middle East and North Africa,34.802075,38.996815,US,USA,country,North America,37.09024,-95.712891,1988,3122,6,0,0,3,0,0,6,77,3020,10,0,0,0,0,0,0,0,0,0,0,0,0,0
TH,Thailand,country,East Asia and Pacific,15.870032,100.992541,US,USA,country,North America,37.09024,-95.712891,1988,536826,106115,28135,50094,7389,26,657,25417,172997,0,571,26462,3009,110567,2151,2754,0,26,456,0,0,0,0,0
TO,Tonga,country,East Asia and Pacific,-21.178986,-175.198242,US,USA,country,North America,37.09024,-95.712891,1988,24,0,1,0,0,0,0,1,0,0,15,0,0,7,0,0,0,0,0,0,0,0,0,0
TT,Trinidad and Tobago,country,Latin America and the Caribbean,10.691803,-61.222503,US,USA,country,North America,37.09024,-95.712891,1988,18977,23,0,11882,0,0,0,628,32,0,148,0,978,681,4,4598,0,0,3,0,0,0,0,0
TN,Tunisia,country,Middle East and North Africa,33.886917,9.537499,US,USA,country,North America,37.09024,-95.712891,1988,2208,29,0,0,0,0,0,10,0,0,0,0,0,6,2163,0,0,0,0,0,0,0,0,0
GB,United Kingdom,country,Europe and Central Asia,55.378051,-3.435973,US,USA,country,North America,37.09024,-95.712891,1988,241364,11235,26,17579,700,111,729,4874,2060,5072,166,1128,13277,5233,712,174910,18,63,3252,236,1,0,0,0
UY,Uruguay,country,Latin America and the Caribbean,-32.522779,-55.765835,US,USA,country,North America,37.09024,-95.712891,1988,13677,525,0,6948,0,0,0,19,498,2017,0,0,0,1134,0,0,0,1839,697,0,0,0,0,0
RU,Russian Federation,country,Europe and Central Asia,61.52401,105.318756,US,USA,country,North America,37.09024,-95.712891,1988,12449,0,0,0,0,0,0,0,0,2939,0,0,0,0,0,9510,0,0,0,0,0,0,0,0
VE,Venezuela,country,Latin America and the Caribbean,6.42375,-66.58973,US,USA,country,North America,37.09024,-95.712891,1988,42592,771,0,22030,0,0,0,178,12445,0,128,0,1794,576,439,4231,0,0,0,0,0,0,0,0
BA,Bosnia & Herzegovina,country,Europe and Central Asia,43.915886,17.679076,US,USA,country,North America,37.09024,-95.712891,1988,33165,307,0,3529,0,0,0,864,3080,0,156,0,61,7883,4,5149,0,11971,161,0,0,0,0,0
DZ,Algeria,country,Middle East and North Africa,28.033886,1.659626,US,USA,country,North America,37.09024,-95.712891,1989,2548,0,0,0,0,0,0,0,0,0,0,0,0,0,0,2548,0,0,0,0,0,0,0,0
AR,Argentina,country,Latin America and the Caribbean,-38.416097,-63.616672,US,USA,country,North America,37.09024,-95.712891,1989,337943,35594,0,84361,1500,0,14239,25237,70975,680,292,2781,17870,13345,21308,1291,0,43757,4713,0,0,0,0,0
AU,Australia,country,East Asia and Pacific,-25.274398,133.775136,US,USA,country,North America,37.09024,-95.712891,1989,817405,2333,0,400188,3022,1086,4251,523,2753,28885,63,385,108,1717,1193,41636,0,320168,8936,158,0,0,0,0
AT,Austria,country,Europe and Central Asia,47.516231,14.550072,US,USA,country,North America,37.09024,-95.712891,1989,18791,1691,0,209,0,0,15,41,7381,24,0,27,483,15,13,949,0,0,7943,0,0,0,0,0
BB,Barbados,country,Latin America and the Caribbean,13.193887,-59.543198,US,USA,country,North America,37.09024,-95.712891,1989,9554,0,0,8593,0,0,0,1,18,107,9,1,0,44,0,781,0,0,0,0,0,0,0,0
BE,Belgium,country,Europe and Central Asia,50.503887,4.469936,US,USA,country,North America,37.09024,-95.712891,1989,71463,5433,0,4452,219,3,6,19522,341,14561,6,175,5508,2540,10664,4047,0,3961,25,0,0,0,0,0
BO,Bolivia,country,Latin America and the Caribbean,-16.290154,-63.588653,US,USA,country,North America,37.09024,-95.712891,1989,4171,0,0,0,0,2136,0,0,0,10,0,0,1923,30,0,69,0,0,0,3,0,0,0,0
BR,Brazil,country,Latin America and the Caribbean,-14.235004,-51.92528,US,USA,country,North America,37.09024,-95.712891,1989,818932,1148,114,177692,0,24529,1503,10028,270370,2103,10516,20229,195110,51241,28124,5516,0,20468,226,0,15,0,0,0
CM,Cameroon,country,Sub-Saharan Africa,7.369722,12.354722,US,USA,country,North America,37.09024,-95.712891,1989,11505,0,0,0,0,1,0,0,0,0,0,1000,7161,3343,0,0,0,0,0,0,0,0,0,0
CA,Canada,country,North America,56.130366,-106.346771,US,USA,country,North America,37.09024,-95.712891,1989,4517762,1505606,347539,325715,43202,239,358644,90370,87132,932,227,816683,53664,78677,127918,337152,8657,314037,11619,15717,2689,0,0,0
CL,Chile,country,Latin America and the Caribbean,-35.675147,-71.542969,US,USA,country,North America,37.09024,-95.712891,1989,485786,21940,0,1909,2792,1,130,41526,397184,525,931,0,177,12409,3,6083,0,0,171,5,0,0,0,0
HK,Hong Kong,country,East Asia and Pacific,22.396428,114.109497,US,USA,country,North America,37.09024,-95.712891,1989,154282,12850,1655,3436,1076,3237,10253,63042,3441,485,3206,137,1008,40355,1094,8019,0,20,968,0,0,0,0,0
MO,"Macao SAR, China",country,East Asia and Pacific,22.198745,113.543873,US,USA,country,North America,37.09024,-95.712891,1989,3293,0,0,0,0,0,0,0,2,0,0,0,0,0,0,3291,0,0,0,0,0,0,0,0
CN,China,country,East Asia and Pacific,35.86166,104.195397,US,USA,country,North America,37.09024,-95.712891,1989,159543,514,116,11298,2441,1119,7929,59394,5931,2012,4910,4231,24939,24431,270,9879,0,117,12,0,0,0,0,0
TW,Taiwan,country,East Asia and Pacific,23.69781,120.960515,US,USA,country,North America,37.09024,-95.712891,1989,101155,4845,28,23571,249,39,3104,52571,2625,203,173,38,1323,8156,792,2827,0,26,542,43,0,0,0,0
CO,Colombia,country,Latin America and the Caribbean,4.570868,-74.297333,US,USA,country,North America,37.09024,-95.712891,1989,1043168,1087,122,318223,49,0,216,871,510393,354,485,0,132303,78115,0,950,0,0,0,0,0,0,0,0
CR,Costa Rica,country,Latin America and the Caribbean,9.748917,-83.753428,US,USA,country,North America,37.09024,-95.712891,1989,882062,214,20424,36955,552,195,1519,31604,736043,0,532,6,21200,12198,41,5,0,20574,0,0,0,0,0,0
CY,Cyprus,country,Europe and Central Asia,35.126413,33.429859,US,USA,country,North America,37.09024,-95.712891,1989,273,4,0,2,0,0,0,1,3,0,0,0,18,0,0,63,0,0,182,0,0,0,0,0
DK,Denmark,country,Europe and Central Asia,56.26392,9.501785,US,USA,country,North America,37.09024,-95.712891,1989,132722,22431,24,647,8,10,8,92,2689,0,8,34,215,3699,218,7854,0,83784,10985,16,0,0,0,0
EC,Ecuador,country,Latin America and the Caribbean,-1.831239,-78.183406,US,USA,country,North America,37.09024,-95.712891,1989,1128737,32,0,11490,0,0,0,3036,990845,3816,38,62,117368,418,1614,18,0,0,0,0,0,0,0,0
EG,Egypt,country,Middle East and North Africa,26.820553,30.802498,US,USA,country,North America,37.09024,-95.712891,1989,16203,5668,6,1,8,0,40,382,83,3796,3077,0,0,3136,0,2,0,0,4,0,0,0,0,0
ET,Ethiopia,country,Sub-Saharan Africa,9.145,40.489673,US,USA,country,North America,37.09024,-95.712891,1989,28520,0,0,0,268,0,2881,0,0,0,13,0,25051,63,0,0,0,0,10,234,0,0,0,0
FJ,Fiji,country,East Asia and Pacific,-16.578193,179.414413,US,USA,country,North America,37.09024,-95.712891,1989,25108,116,5,24415,0,0,0,10,150,0,407,0,2,3,0,0,0,0,0,0,0,0,0,0
FI,Finland,country,Europe and Central Asia,61.92411,25.748151,US,USA,country,North America,37.09024,-95.712891,1989,180510,156966,0,302,0,0,0,0,0,0,0,0,1587,57,0,2960,0,2251,16339,48,0,0,0,0
FR,France,country,Europe and Central Asia,46.227638,2.213749,US,USA,country,North America,37.09024,-95.712891,1989,537881,5725,38,36658,70,59,3232,5474,5377,4828,2039,841,8018,13408,8738,432514,0,320,10031,511,0,0,0,0
GF,French Guiana,country,Latin America and the Caribbean,3.933889,-53.125782,US,USA,country,North America,37.09024,-95.712891,1989,0,0,0,0,0,0,0,0,0,0,0,0,0,0,0,0,0,0,0,0,0,0,0,0
GR,Greece,country,Europe and Central Asia,39.074208,21.824312,US,USA,country,North America,37.09024,-95.712891,1989,72633,1339,0,146,6,1,3420,16040,32228,11,0,0,123,13935,958,2435,0,0,1988,3,0,0,0,0
GP,Guadeloupe,country,Latin America and the Caribbean,16.995971,-62.067641,US,USA,country,North America,37.09024,-95.712891,1989,1423,0,0,0,0,0,0,0,0,0,0,1280,0,0,0,143,0,0,0,0,0,0,0,0
HN,Honduras,country,Latin America and the Caribbean,15.199999,-86.241905,US,USA,country,North America,37.09024,-95.712891,1989,729812,35,74,31344,0,0,1213,19739,655074,0,711,1,11442,761,0,113,0,9265,40,0,0,0,0,0
IS,Iceland,country,Europe and Central Asia,64.963051,-19.020835,US,USA,country,North America,37.09024,-95.712891,1989,2520,0,0,12,0,0,0,0,0,0,0,297,0,1,0,2004,0,26,180,0,0,0,0,0
IN,India,country,South Asia,20.593684,78.96288,US,USA,country,North America,37.09024,-95.712891,1989,80680,12334,79,7958,412,5384,20852,1409,1255,687,12040,0,13943,207,3515,601,0,4,0,0,0,0,0,0
ID,Indonesia,country,East Asia and Pacific,-0.789275,113.921327,US,USA,country,North America,37.09024,-95.712891,1989,719020,787,6000,112,0,458,62,8156,18715,0,25172,0,46115,529065,84338,8,0,21,0,11,0,0,0,0
IE,Ireland,country,Europe and Central Asia,53.41291,-8.24389,US,USA,country,North America,37.09024,-95.712891,1989,39156,4374,1,103,62,0,25,208,419,2,1,6,3699,1728,0,27201,0,246,1076,5,0,0,0,0
IL,Israel,country,Middle East and North Africa,31.046051,34.851612,US,USA,country,North America,37.09024,-95.712891,1989,61506,1385,10,1178,56,11,1232,27787,3080,190,502,18,526,20953,65,1601,46,478,2424,10,0,0,0,0
IT,Italy,country,Europe and Central Asia,41.87194,12.56738,US,USA,country,North America,37.09024,-95.712891,1989,371324,90145,28,4850,87,4021,133,18954,5333,295,18,14607,2791,11961,55004,153446,0,389,9244,18,0,0,0,0
JP,Japan,country,East Asia and Pacific,36.204824,138.252924,US,USA,country,North America,37.09024,-95.712891,1989,63681,6035,200,1284,5,13,6061,2209,5795,23,46,340,926,13455,3626,23559,0,3,101,0,0,0,0,0
JO,Jordan,country,Middle East and North Africa,30.585164,36.238414,US,USA,country,North America,37.09024,-95.712891,1989,1716,1408,0,7,0,0,0,1,120,21,17,0,0,70,0,9,0,21,42,0,0,0,0,0
MW,Malawi,country,Sub-Saharan Africa,-13.254308,34.301525,US,USA,country,North America,37.09024,-95.712891,1989,20042,0,0,10174,0,94,0,0,0,0,64,0,1463,8247,0,0,0,0,0,0,0,0,0,0
MY,Malaysia,country,East Asia and Pacific,4.210484,101.975766,US,USA,country,North America,37.09024,-95.712891,1989,450398,65,241,36,0,0,756,151,11387,0,4999,8,21868,129517,281253,99,0,0,18,0,0,0,0,0
MX,Mexico,country,Latin America and the Caribbean,23.634501,-102.552784,US,USA,country,North America,37.09024,-95.712891,1989,3517883,66616,5064,252423,13537,6137,37746,1916614,425703,85005,2956,1095,238749,94655,32372,333991,0,4564,656,0,0,0,0,0
MA,Morocco,country,Middle East and North Africa,31.791702,-7.09262,US,USA,country,North America,37.09024,-95.712891,1989,6429,19,0,0,3,63,2190,1337,128,0,1595,0,0,1037,0,57,0,0,0,0,0,0,0,0
NL,Netherlands,country,Europe and Central Asia,52.132633,5.291266,US,USA,country,North America,37.09024,-95.712891,1989,506502,2727,1699,49096,219,37,1745,16952,657,81,4866,481,47240,35614,24992,285041,0,8206,21453,5396,0,0,0,0
NZ,New Zealand,country,East Asia and Pacific,-40.900557,174.885971,US,USA,country,North America,37.09024,-95.712891,1989,341468,315,0,42,1234,8,2,2191,49963,12639,0,115,26,10957,582,4163,0,232098,27037,96,0,0,0,0
NO,Norway,country,Europe and Central Asia,60.472024,8.468946,US,USA,country,North America,37.09024,-95.712891,1989,10244,587,0,4,0,0,2,4,2,0,0,454,30,381,0,1305,0,102,7373,0,0,0,0,0
PK,Pakistan,country,South Asia,30.375321,69.345116,US,USA,country,North America,37.09024,-95.712891,1989,4203,413,0,31,0,10,5,39,2066,1285,331,0,12,11,0,0,0,0,0,0,0,0,0,0
PA,Panama,country,Latin America and the Caribbean,8.537981,-80.782127,US,USA,country,North America,37.09024,-95.712891,1989,132969,0,0,5853,0,0,0,371,123152,0,0,0,2528,940,0,85,0,40,0,0,0,0,0,0
PG,Papua New Guinea,country,East Asia and Pacific,-6.314993,143.95555,US,USA,country,North America,37.09024,-95.712891,1989,18634,0,0,7013,0,0,0,0,0,0,0,0,11496,0,0,0,0,0,0,125,0,0,0,0
PY,Paraguay,country,Latin America and the Caribbean,-23.442503,-58.443832,US,USA,country,North America,37.09024,-95.712891,1989,76678,0,0,19100,0,0,36000,0,0,337,0,8916,1054,9142,2000,95,0,34,0,0,0,0,0,0
PE,Peru,country,Latin America and the Caribbean,-9.189967,-75.015152,US,USA,country,North America,37.09024,-95.712891,1989,74201,299,0,18467,1114,63,43,1981,833,47,52,2473,42374,4359,1001,1095,0,0,0,0,0,0,0,0
PH,Philippines,country,East Asia and Pacific,12.879721,121.774017,US,USA,country,North America,37.09024,-95.712891,1989,751632,2399,336,186985,8,0,39586,352,183231,7774,50,93,20697,5168,297695,2061,0,2,5195,0,0,0,0,0
PT,Portugal,country,Europe and Central Asia,39.399872,-8.224454,US,USA,country,North America,37.09024,-95.712891,1989,23468,253,0,30,71,128,325,5121,1137,2,43,17,31,72,647,14920,0,10,661,0,0,0,0,0
KR,"Korea, Rep.",country,East Asia and Pacific,35.907757,127.766922,US,USA,country,North America,37.09024,-95.712891,1989,31219,5500,6,717,18,208,967,2197,7024,61,377,196,340,9847,13,3592,0,4,133,19,0,0,0,0
RE,Reunion,country,Sub-Saharan Africa,-21.115141,55.536384,US,USA,country,North America,37.09024,-95.712891,1989,5,0,0,0,0,0,0,0,0,0,5,0,0,0,0,0,0,0,0,0,0,0,0,0
RO,Romania,country,Europe and Central Asia,45.943161,24.96676,US,USA,country,North America,37.09024,-95.712891,1989,4656,0,0,0,0,0,0,75,24,0,403,0,0,0,0,1743,0,2375,36,0,0,0,0,0
SN,Senegal,country,Sub-Saharan Africa,14.497401,-14.452362,US,USA,country,North America,37.09024,-95.712891,1989,67,0,0,0,0,0,0,67,0,0,0,0,0,0,0,0,0,0,0,0,0,0,0,0
SG,Singapore,country,East Asia and Pacific,1.352083,103.819836,US,USA,country,North America,37.09024,-95.712891,1989,149185,1192,76,71,1,0,601,276,10486,0,4711,160,39793,84987,762,6063,0,6,0,0,0,0,0,0
ES,Spain,country,Europe and Central Asia,40.463667,-3.74922,US,USA,country,North America,37.09024,-95.712891,1989,217663,3641,5,4004,1,79,57842,51564,50137,238,3209,87,962,879,13391,31488,0,0,109,27,0,0,0,0
LK,Sri Lanka,country,South Asia,7.873054,80.771797,US,USA,country,North America,37.09024,-95.712891,1989,17234,2,0,2,0,35,342,210,15,0,1381,0,5640,7606,2000,0,0,0,1,0,0,0,0,0
SR,Suriname,country,Latin America and the Caribbean,3.919305,-56.027783,US,USA,country,North America,37.09024,-95.712891,1989,1,0,0,0,0,0,0,1,0,0,0,0,0,0,0,0,0,0,0,0,0,0,0,0
SE,Sweden,country,Europe and Central Asia,60.128161,18.643501,US,USA,country,North America,37.09024,-95.712891,1989,293461,229947,8,2041,7,0,5,490,476,9,0,545,2443,1170,270,42082,0,9809,2601,1558,0,0,0,0
CH,Switzerland,country,Europe and Central Asia,46.818188,8.227512,US,USA,country,North America,37.09024,-95.712891,1989,28237,745,0,1508,4,6,27,1352,1078,0,1,0,4849,6838,303,7388,0,74,4064,0,0,0,0,0
SY,Syrian Arab Rep.,country,Middle East and North Africa,34.802075,38.996815,US,USA,country,North America,37.09024,-95.712891,1989,1054,0,0,1,0,0,0,0,45,994,11,0,0,0,0,0,0,0,3,0,0,0,0,0
TH,Thailand,country,East Asia and Pacific,15.870032,100.992541,US,USA,country,North America,37.09024,-95.712891,1989,767787,139761,193784,46431,6522,31,771,31815,200389,0,1011,32473,16330,95158,157,2879,0,36,239,0,0,0,0,0
TO,Tonga,country,East Asia and Pacific,-21.178986,-175.198242,US,USA,country,North America,37.09024,-95.712891,1989,112,0,14,0,0,0,61,0,0,0,25,0,0,4,8,0,0,0,0,0,0,0,0,0
TT,Trinidad and Tobago,country,Latin America and the Caribbean,10.691803,-61.222503,US,USA,country,North America,37.09024,-95.712891,1989,11060,118,0,7211,0,0,0,337,51,0,102,0,867,308,14,2052,0,0,0,0,0,0,0,0
TN,Tunisia,country,Middle East and North Africa,33.886917,9.537499,US,USA,country,North America,37.09024,-95.712891,1989,1854,52,0,4,0,0,0,404,97,0,0,0,0,2,1295,0,0,0,0,0,0,0,0,0
GB,United Kingdom,country,Europe and Central Asia,55.378051,-3.435973,US,USA,country,North America,37.09024,-95.712891,1989,259173,18224,28,18371,600,91,444,6101,1714,5176,131,2756,15756,6660,903,176459,0,322,4601,836,0,0,0,0
UY,Uruguay,country,Latin America and the Caribbean,-32.522779,-55.765835,US,USA,country,North America,37.09024,-95.712891,1989,13795,712,0,6631,0,0,202,17,507,2465,0,0,2,510,0,38,0,2220,440,51,0,0,0,0
RU,Russian Federation,country,Europe and Central Asia,61.52401,105.318756,US,USA,country,North America,37.09024,-95.712891,1989,4406,0,0,0,0,0,0,0,0,4406,0,0,0,0,0,0,0,0,0,0,0,0,0,0
VE,Venezuela,country,Latin America and the Caribbean,6.42375,-66.58973,US,USA,country,North America,37.09024,-95.712891,1989,46074,780,232,70,0,0,0,4090,26185,0,640,0,7481,762,1062,4755,0,0,9,8,0,0,0,0
BA,Bosnia & Herzegovina,country,Europe and Central Asia,43.915886,17.679076,US,USA,country,North America,37.09024,-95.712891,1989,38764,832,0,3796,0,0,146,451,5763,0,27,20,35,7299,0,4687,0,14828,880,0,0,0,0,0
DZ,Algeria,country,Middle East and North Africa,28.033886,1.659626,US,USA,country,North America,37.09024,-95.712891,1990,1616,0,0,0,0,0,0,0,0,0,0,0,0,0,0,1616,0,0,0,0,0,0,0,0
AR,Argentina,country,Latin America and the Caribbean,-38.416097,-63.616672,US,USA,country,North America,37.09024,-95.712891,1990,375576,4302,0,109155,2075,0,402,10510,71002,482,123,17470,17321,13537,71794,1629,0,49664,6110,0,0,0,0,0
AU,Australia,country,East Asia and Pacific,-25.274398,133.775136,US,USA,country,North America,37.09024,-95.712891,1990,781095,6903,1738,265443,2292,2608,2846,131,4401,38098,126,564,29,1186,997,40863,0,405359,7086,425,0,0,0,0
AT,Austria,country,Europe and Central Asia,47.516231,14.550072,US,USA,country,North America,37.09024,-95.712891,1990,18905,1574,0,94,0,0,15,27,8353,0,0,241,262,30,11,965,0,0,7333,0,0,0,0,0
BB,Barbados,country,Latin America and the Caribbean,13.193887,-59.543198,US,USA,country,North America,37.09024,-95.712891,1990,1229,25,10,0,0,0,0,11,58,0,6,0,0,40,2,1077,0,0,0,0,0,0,0,0
BE,Belgium,country,Europe and Central Asia,50.503887,4.469936,US,USA,country,North America,37.09024,-95.712891,1990,49997,2487,0,1445,60,1,11,13234,1296,10431,4,255,6280,3057,2481,4059,0,4184,712,0,0,0,0,0
BO,Bolivia,country,Latin America and the Caribbean,-16.290154,-63.588653,US,USA,country,North America,37.09024,-95.712891,1990,30723,702,0,23090,0,4234,0,0,0,0,0,251,1112,847,0,487,0,0,0,0,0,0,0,0
BW,Botswana,country,Sub-Saharan Africa,-22.328474,24.684866,US,USA,country,North America,37.09024,-95.712891,1990,22,0,0,0,0,0,9,0,0,0,0,0,0,0,0,0,0,0,0,13,0,0,0,0
BR,Brazil,country,Latin America and the Caribbean,-14.235004,-51.92528,US,USA,country,North America,37.09024,-95.712891,1990,1435567,121,315,457639,9,23028,6282,1019,416288,1653,11385,6036,393365,73582,32455,3291,0,8859,240,0,0,0,0,0
CM,Cameroon,country,Sub-Saharan Africa,7.369722,12.354722,US,USA,country,North America,37.09024,-95.712891,1990,10702,0,0,0,0,0,0,0,0,0,0,0,7849,2853,0,0,2,0,0,0,0,0,0,0
CA,Canada,country,North America,56.130366,-106.346771,US,USA,country,North America,37.09024,-95.712891,1990,4953244,1654172,429469,274981,25400,1223,400835,159815,101735,882,690,794132,71498,98900,154538,454489,6362,287446,21183,15289,6567,0,0,0
CL,Chile,country,Latin America and the Caribbean,-35.675147,-71.542969,US,USA,country,North America,37.09024,-95.712891,1990,589396,6660,0,2199,6416,0,121,49207,507305,256,367,35,474,6318,4,9852,0,3,160,19,0,0,0,0
HK,Hong Kong,country,East Asia and Pacific,22.396428,114.109497,US,USA,country,North America,37.09024,-95.712891,1990,129620,12381,1477,3542,787,1884,10319,46335,3687,879,2370,44,786,36097,857,6664,0,92,1418,1,0,0,0,0
MO,"Macao SAR, China",country,East Asia and Pacific,22.198745,113.543873,US,USA,country,North America,37.09024,-95.712891,1990,2466,0,0,0,0,0,0,0,0,0,0,0,0,0,0,2466,0,0,0,0,0,0,0,0
CN,China,country,East Asia and Pacific,35.86166,104.195397,US,USA,country,North America,37.09024,-95.712891,1990,129087,636,484,14920,4293,940,3622,33353,5361,835,5763,109,24008,22158,151,12053,68,367,34,0,0,0,0,0
TW,Taiwan,country,East Asia and Pacific,23.69781,120.960515,US,USA,country,North America,37.09024,-95.712891,1990,73970,4679,13,9788,307,16,3021,37885,2275,358,195,17,1530,9015,770,3536,0,58,505,2,0,0,0,0
CO,Colombia,country,Latin America and the Caribbean,4.570868,-74.297333,US,USA,country,North America,37.09024,-95.712891,1990,1065543,1067,99,358360,13,0,0,915,468694,638,976,0,151327,81782,9,1615,12,26,22,0,0,0,0,0
CY,Cyprus,country,Europe and Central Asia,35.126413,33.429859,US,USA,country,North America,37.09024,-95.712891,1990,386,12,0,2,0,24,0,0,4,0,0,0,178,4,0,34,0,0,128,0,0,0,0,0
DK,Denmark,country,Europe and Central Asia,56.26392,9.501785,US,USA,country,North America,37.09024,-95.712891,1990,157007,18692,0,551,0,0,15,76,3559,0,5,102,287,3201,3212,7244,0,106357,13650,56,0,0,0,0
EC,Ecuador,country,Latin America and the Caribbean,-1.831239,-78.183406,US,USA,country,North America,37.09024,-95.712891,1990,1446906,143,146,16841,3,0,0,2374,1298812,3114,19,358,122637,691,1629,91,0,48,0,0,0,0,0,0
EG,Egypt,country,Middle East and North Africa,26.820553,30.802498,US,USA,country,North America,37.09024,-95.712891,1990,5915,41,10,66,0,0,102,483,117,2697,2158,0,7,152,76,0,0,2,4,0,0,0,0,0
ET,Ethiopia,country,Sub-Saharan Africa,9.145,40.489673,US,USA,country,North America,37.09024,-95.712891,1990,14362,3,0,0,18,0,874,0,0,0,6,0,12812,27,0,28,0,0,45,549,0,0,0,0
FJ,Fiji,country,East Asia and Pacific,-16.578193,179.414413,US,USA,country,North America,37.09024,-95.712891,1990,20282,134,20,18900,0,4,1,1,132,0,1077,0,8,4,0,0,0,1,0,0,0,0,0,0
FI,Finland,country,Europe and Central Asia,61.92411,25.748151,US,USA,country,North America,37.09024,-95.712891,1990,215484,198459,0,512,0,0,0,0,0,0,0,0,1019,23,0,2697,0,1809,10800,165,0,0,0,0
FR,France,country,Europe and Central Asia,46.227638,2.213749,US,USA,country,North America,37.09024,-95.712891,1990,510848,8008,10,39260,52,11,3316,4506,3707,2347,900,6550,9328,13421,2588,407336,18,188,9004,316,0,0,0,0
GR,Greece,country,Europe and Central Asia,39.074208,21.824312,US,USA,country,North America,37.09024,-95.712891,1990,64323,1369,6,183,34,0,3904,14818,16650,0,1,0,132,19393,2012,3702,0,3,2116,0,0,0,0,0
GT,Guatemala,country,Latin America and the Caribbean,15.783471,-90.230759,US,USA,country,North America,37.09024,-95.712891,1990,792788,137,112,277090,1,0,6646,44341,334886,16,1024,0,113204,5767,0,105,22,9377,0,82,0,0,0,0
IS,Iceland,country,Europe and Central Asia,64.963051,-19.020835,US,USA,country,North America,37.09024,-95.712891,1990,1658,0,0,20,0,0,0,0,0,0,0,258,0,1,0,1192,0,13,174,0,0,0,0,0
IN,India,country,South Asia,20.593684,78.96288,US,USA,country,North America,37.09024,-95.712891,1990,161516,12664,38,58087,388,6791,10491,1942,1298,1351,11732,647,6105,41153,7907,898,0,17,7,0,0,0,0,0
ID,Indonesia,country,East Asia and Pacific,-0.789275,113.921327,US,USA,country,North America,37.09024,-95.712891,1990,770898,668,86,7,0,650,210,10554,14008,3,27223,1005,87924,529164,99302,0,0,78,16,0,0,0,0,0
IE,Ireland,country,Europe and Central Asia,53.41291,-8.24389,US,USA,country,North America,37.09024,-95.712891,1990,42240,4777,50,74,61,0,10,186,41,0,16,5,4503,2042,0,28662,0,338,1418,57,0,0,0,0
IT,Italy,country,Europe and Central Asia,41.87194,12.56738,US,USA,country,North America,37.09024,-95.712891,1990,413773,98349,30,5004,20,2897,188,26681,4018,135,43,30548,2247,14016,65582,152152,0,422,11339,102,0,0,0,0
JP,Japan,country,East Asia and Pacific,36.204824,138.252924,US,USA,country,North America,37.09024,-95.712891,1990,64386,6951,198,1695,9,3,6950,2330,3631,222,42,586,508,14007,3346,23788,0,3,117,0,0,0,0,0
JO,Jordan,country,Middle East and North Africa,30.585164,36.238414,US,USA,country,North America,37.09024,-95.712891,1990,211,46,0,4,0,0,7,15,66,0,24,0,0,9,2,8,0,0,30,0,0,0,0,0
KE,Kenya,country,Sub-Saharan Africa,-0.023559,37.906193,US,USA,country,North America,37.09024,-95.712891,1990,8207,0,0,0,387,467,0,27,0,0,0,0,7326,0,0,0,0,0,0,0,0,0,0,0
MG,Madagascar,country,Sub-Saharan Africa,-18.766947,46.869107,US,USA,country,North America,37.09024,-95.712891,1990,19237,0,0,18180,0,0,0,0,0,0,907,0,45,105,0,0,0,0,0,0,0,0,0,0
MY,Malaysia,country,East Asia and Pacific,4.210484,101.975766,US,USA,country,North America,37.09024,-95.712891,1990,489353,99,231,188,0,0,664,426,8715,0,6057,0,34756,120292,317785,130,0,0,10,0,0,0,0,0
MT,Malta,country,Middle East and North Africa,35.937496,14.375416,US,USA,country,North America,37.09024,-95.712891,1990,697,0,0,0,0,0,0,0,0,0,0,0,0,697,0,0,0,0,0,0,0,0,0,0
MU,Mauritius,country,Sub-Saharan Africa,-20.348404,57.552152,US,USA,country,North America,37.09024,-95.712891,1990,101908,0,0,101858,0,0,0,0,0,0,0,0,39,11,0,0,0,0,0,0,0,0,0,0
MX,Mexico,country,Latin America and the Caribbean,23.634501,-102.552784,US,USA,country,North America,37.09024,-95.712891,1990,3143416,62703,6398,37968,15197,11392,31339,1725532,520559,48273,1489,3751,187083,25564,13046,449676,0,3370,76,0,0,0,0,0
NL,Netherlands,country,Europe and Central Asia,52.132633,5.291266,US,USA,country,North America,37.09024,-95.712891,1990,516666,2653,1564,39441,155,16,2300,14223,600,89,4222,1417,53454,37405,31377,297303,4,8209,22219,19,0,0,0,0
NZ,New Zealand,country,East Asia and Pacific,-40.900557,174.885971,US,USA,country,North America,37.09024,-95.712891,1990,331453,795,0,22,1111,19,3,4626,73053,10027,0,273,2,5398,199,5905,0,205445,24547,28,0,0,0,0
NO,Norway,country,Europe and Central Asia,60.472024,8.468946,US,USA,country,North America,37.09024,-95.712891,1990,9565,435,0,3,0,0,0,5,5,0,4,360,24,74,0,1097,0,290,7268,0,0,0,0,0
PK,Pakistan,country,South Asia,30.375321,69.345116,US,USA,country,North America,37.09024,-95.712891,1990,10249,1796,0,64,0,0,131,80,3821,1257,3015,0,19,60,0,0,0,6,0,0,0,0,0,0
PA,Panama,country,Latin America and the Caribbean,8.537981,-80.782127,US,USA,country,North America,37.09024,-95.712891,1990,145001,0,0,76913,0,0,0,1180,60014,0,0,0,5344,1092,0,155,0,0,0,303,0,0,0,0
PG,Papua New Guinea,country,East Asia and Pacific,-6.314993,143.95555,US,USA,country,North America,37.09024,-95.712891,1990,24934,0,0,9700,0,0,0,0,0,0,0,0,15234,0,0,0,0,0,0,0,0,0,0,0
PY,Paraguay,country,Latin America and the Caribbean,-23.442503,-58.443832,US,USA,country,North America,37.09024,-95.712891,1990,25479,0,0,9100,0,0,13290,0,0,1900,0,295,742,120,0,32,0,0,0,0,0,0,0,0
PE,Peru,country,Latin America and the Caribbean,-9.189967,-75.015152,US,USA,country,North America,37.09024,-95.712891,1990,28727,186,0,17,272,32,0,904,779,1,5,122,22379,3026,0,1004,0,0,0,0,0,0,0,0
PH,Philippines,country,East Asia and Pacific,12.879721,121.774017,US,USA,country,North America,37.09024,-95.712891,1990,871009,2413,438,239524,5,0,35640,376,161404,6726,30,18,11389,4748,400829,2712,0,0,4757,0,0,0,0,0
PT,Portugal,country,Europe and Central Asia,39.399872,-8.224454,US,USA,country,North America,37.09024,-95.712891,1990,18573,349,0,30,71,106,460,1827,241,1,22,31,53,694,716,13347,0,4,621,0,0,0,0,0
KR,"Korea, Rep.",country,East Asia and Pacific,35.907757,127.766922,US,USA,country,North America,37.09024,-95.712891,1990,34317,5255,16,1832,41,228,584,4234,6815,2,90,1,259,10019,30,4661,0,70,97,83,0,0,0,0
RO,Romania,country,Europe and Central Asia,45.943161,24.96676,US,USA,country,North America,37.09024,-95.712891,1990,1481,0,0,0,0,0,0,0,0,0,218,0,0,0,0,1263,0,0,0,0,0,0,0,0
SN,Senegal,country,Sub-Saharan Africa,14.497401,-14.452362,US,USA,country,North America,37.09024,-95.712891,1990,58,0,0,0,0,0,0,34,0,24,0,0,0,0,0,0,0,0,0,0,0,0,0,0
SC,Seychelles,country,Sub-Saharan Africa,-4.679574,55.491977,US,USA,country,North America,37.09024,-95.712891,1990,0,0,0,0,0,0,0,0,0,0,0,0,0,0,0,0,0,0,0,0,0,0,0,0
SG,Singapore,country,East Asia and Pacific,1.352083,103.819836,US,USA,country,North America,37.09024,-95.712891,1990,93140,1314,98,94,57,140,938,480,7891,0,4126,52,68867,70,3052,5957,0,4,0,0,0,0,0,0
ES,Spain,country,Europe and Central Asia,40.463667,-3.74922,US,USA,country,North America,37.09024,-95.712891,1990,203516,1857,0,6315,69,51,53689,46865,46076,506,3736,228,983,1716,14057,27229,0,10,109,20,0,0,0,0
LK,Sri Lanka,country,South Asia,7.873054,80.771797,US,USA,country,North America,37.09024,-95.712891,1990,14392,2,0,0,0,18,326,1516,92,0,950,0,3240,8248,0,0,0,0,0,0,0,0,0,0
SR,Suriname,country,Latin America and the Caribbean,3.919305,-56.027783,US,USA,country,North America,37.09024,-95.712891,1990,6,0,0,0,0,0,0,0,0,0,0,0,0,6,0,0,0,0,0,0,0,0,0,0
SE,Sweden,country,Europe and Central Asia,60.128161,18.643501,US,USA,country,North America,37.09024,-95.712891,1990,325175,261923,3,2332,0,20,4,73,413,18,1,60,3093,1209,308,43953,0,9038,1433,1294,0,0,0,0
CH,Switzerland,country,Europe and Central Asia,46.818188,8.227512,US,USA,country,North America,37.09024,-95.712891,1990,28059,688,0,1702,8,20,0,1498,1174,2,0,1,4646,5299,339,7062,0,5,5615,0,0,0,0,0
TH,Thailand,country,East Asia and Pacific,15.870032,100.992541,US,USA,country,North America,37.09024,-95.712891,1990,765363,159340,160789,33897,4438,107,995,36002,207978,18,1673,21593,34149,101141,124,2868,0,16,235,0,0,0,0,0
TT,Trinidad and Tobago,country,Latin America and the Caribbean,10.691803,-61.222503,US,USA,country,North America,37.09024,-95.712891,1990,21508,340,1,17285,0,0,3,666,43,0,140,0,1743,171,50,1066,0,0,0,0,0,0,0,0
TN,Tunisia,country,Middle East and North Africa,33.886917,9.537499,US,USA,country,North America,37.09024,-95.712891,1990,1395,0,0,0,0,0,0,0,155,0,0,0,0,2,1238,0,0,0,0,0,0,0,0,0
GB,United Kingdom,country,Europe and Central Asia,55.378051,-3.435973,US,USA,country,North America,37.09024,-95.712891,1990,262021,8976,27,25042,448,172,845,2304,2272,4392,166,1192,15362,6183,2116,181034,8,269,10948,220,53,0,0,0
UY,Uruguay,country,Latin America and the Caribbean,-32.522779,-55.765835,US,USA,country,North America,37.09024,-95.712891,1990,16564,1,0,8003,0,0,1,148,632,1962,0,0,2,25,0,56,0,4651,1000,83,0,0,0,0
VE,Venezuela,country,Latin America and the Caribbean,6.42375,-66.58973,US,USA,country,North America,37.09024,-95.712891,1990,58551,815,195,42,0,0,504,1931,24336,0,603,2200,15045,1769,719,3426,0,6934,15,17,0,0,0,0
BA,Bosnia & Herzegovina,country,Europe and Central Asia,43.915886,17.679076,US,USA,country,North America,37.09024,-95.712891,1990,60938,27951,0,3551,0,21,50,178,7131,0,80,177,52,4843,1,4914,0,11477,512,0,0,0,0,0
ZW,Zimbabwe,country,Sub-Saharan Africa,-19.015438,29.154857,US,USA,country,North America,37.09024,-95.712891,1990,46820,0,0,42625,0,9,0,0,0,0,0,0,1033,3149,0,0,0,0,0,4,0,0,0,0
AR,Argentina,country,Latin America and the Caribbean,-38.416097,-63.616672,US,USA,country,North America,37.09024,-95.712891,1991,323565,909,0,99071,777,0,2694,5351,45620,432,19,48282,16789,15000,23460,1579,0,59444,4117,21,0,0,0,0
AU,Australia,country,East Asia and Pacific,-25.274398,133.775136,US,USA,country,North America,37.09024,-95.712891,1991,632484,145,0,137121,3769,1642,2280,928,4952,35883,28,280,42,410,1903,35163,0,401110,5700,1128,0,0,0,0
AT,Austria,country,Europe and Central Asia,47.516231,14.550072,US,USA,country,North America,37.09024,-95.712891,1991,11933,2580,0,171,0,0,2,8,2296,0,0,348,74,68,8,1025,0,0,5353,0,0,0,0,0
BB,Barbados,country,Latin America and the Caribbean,13.193887,-59.543198,US,USA,country,North America,37.09024,-95.712891,1991,1923,74,0,946,0,0,0,16,56,0,4,0,3,73,0,751,0,0,0,0,0,0,0,0
BE,Belgium,country,Europe and Central Asia,50.503887,4.469936,US,USA,country,North America,37.09024,-95.712891,1991,58524,2763,0,1327,0,19,6,9933,1174,7868,4,257,6855,1920,18255,4743,0,3236,164,0,0,0,0,0
BO,Bolivia,country,Latin America and the Caribbean,-16.290154,-63.588653,US,USA,country,North America,37.09024,-95.712891,1991,29540,5,0,21536,20,2922,1,6,109,4000,2,0,413,514,0,12,0,0,0,0,0,0,0,0
BW,Botswana,country,Sub-Saharan Africa,-22.328474,24.684866,US,USA,country,North America,37.09024,-95.712891,1991,42,0,0,0,0,0,0,0,0,0,0,0,0,0,0,0,0,0,0,42,0,0,0,0
BR,Brazil,country,Latin America and the Caribbean,-14.235004,-51.92528,US,USA,country,North America,37.09024,-95.712891,1991,1107981,713,1372,261902,0,19121,3,2213,298702,968,16965,109,417336,68437,14323,3182,0,2407,228,0,0,0,0,0
CM,Cameroon,country,Sub-Saharan Africa,7.369722,12.354722,US,USA,country,North America,37.09024,-95.712891,1991,1930,0,4,0,0,0,0,0,0,0,0,0,1296,630,0,0,0,0,0,0,0,0,0,0
CA,Canada,country,North America,56.130366,-106.346771,US,USA,country,North America,37.09024,-95.712891,1991,5417346,1769132,351336,281792,30970,959,359616,165167,113478,1192,1166,1054554,85753,99029,233388,541213,7107,278410,14299,29048,6844,0,0,0
CL,Chile,country,Latin America and the Caribbean,-35.675147,-71.542969,US,USA,country,North America,37.09024,-95.712891,1991,524609,3813,0,2259,2745,0,285,36898,458270,404,436,80,95,6462,3,12796,6,29,34,0,0,0,0,0
HK,Hong Kong,country,East Asia and Pacific,22.396428,114.109497,US,USA,country,North America,37.09024,-95.712891,1991,151787,13976,1436,3408,1497,2190,11540,54330,8895,704,2538,283,1344,38709,1025,9667,0,36,135,74,0,0,0,0
CN,China,country,East Asia and Pacific,35.86166,104.195397,US,USA,country,North America,37.09024,-95.712891,1991,178635,17001,544,20680,8392,236,3645,47566,10340,1627,3860,589,27557,24618,143,11585,0,240,12,0,0,0,0,0
TW,Taiwan,country,East Asia and Pacific,23.69781,120.960515,US,USA,country,North America,37.09024,-95.712891,1991,81873,5178,8,24816,254,34,4197,25547,2306,11,95,439,1225,10022,789,6537,0,139,276,0,0,0,0,0
CO,Colombia,country,Latin America and the Caribbean,4.570868,-74.297333,US,USA,country,North America,37.09024,-95.712891,1991,989345,928,435,93968,49,8,2,759,593906,883,963,0,198281,97565,16,1503,0,0,79,0,0,0,0,0
CR,Costa Rica,country,Latin America and the Caribbean,9.748917,-83.753428,US,USA,country,North America,37.09024,-95.712891,1991,1042954,313,37805,83911,0,246,1969,55229,799378,0,992,1,38190,1474,0,9,0,23432,1,4,0,0,0,0
DK,Denmark,country,Europe and Central Asia,56.26392,9.501785,US,USA,country,North America,37.09024,-95.712891,1991,140050,17179,0,395,0,0,32,199,3562,0,176,590,221,1787,304,6713,0,96326,12484,82,0,0,0,0
EC,Ecuador,country,Latin America and the Caribbean,-1.831239,-78.183406,US,USA,country,North America,37.09024,-95.712891,1991,1352578,90,67,28969,9,0,0,4012,1201137,4164,38,549,111973,687,805,35,0,43,0,0,0,0,0,0
EG,Egypt,country,Middle East and North Africa,26.820553,30.802498,US,USA,country,North America,37.09024,-95.712891,1991,6930,46,0,23,4,0,0,647,304,3574,1980,0,10,220,12,32,0,62,16,0,0,0,0,0
SV,El Salvador,country,Latin America and the Caribbean,13.794185,-88.89653,US,USA,country,North America,37.09024,-95.712891,1991,163560,188,2,88826,809,0,6042,15546,169,17,7,0,51204,210,50,490,0,0,0,0,0,0,0,0
ET,Ethiopia,country,Sub-Saharan Africa,9.145,40.489673,US,USA,country,North America,37.09024,-95.712891,1991,2648,1,0,0,0,0,766,0,0,0,6,0,1759,1,0,0,0,0,22,93,0,0,0,0
FJ,Fiji,country,East Asia and Pacific,-16.578193,179.414413,US,USA,country,North America,37.09024,-95.712891,1991,34718,150,0,34109,0,0,1,1,143,0,307,0,2,4,1,0,0,0,0,0,0,0,0,0
FI,Finland,country,Europe and Central Asia,61.92411,25.748151,US,USA,country,North America,37.09024,-95.712891,1991,571657,557391,0,352,0,0,0,0,84,0,0,2,76,9,0,2013,0,2917,7954,859,0,0,0,0
FR,France,country,Europe and Central Asia,46.227638,2.213749,US,USA,country,North America,37.09024,-95.712891,1991,411196,5034,3,21292,91,11,3597,4475,2867,444,317,6861,7737,11367,29905,308062,0,159,8741,233,0,0,0,0
DE,Germany,country,Europe and Central Asia,51.165691,10.451526,US,USA,country,North America,37.09024,-95.712891,1991,271393,8485,18,22911,91,108,89,1550,3533,324,178,4343,36024,11811,48770,129870,0,90,2220,976,2,0,0,0
GR,Greece,country,Europe and Central Asia,39.074208,21.824312,US,USA,country,North America,37.09024,-95.712891,1991,59146,1679,4,123,2,0,3258,14967,12125,0,1,0,174,20734,1699,2265,0,1,2114,0,0,0,0,0
GD,Grenada,country,Latin America and the Caribbean,12.262776,-61.604171,US,USA,country,North America,37.09024,-95.712891,1991,946,0,2,0,0,0,0,16,387,0,29,0,499,13,0,0,0,0,0,0,0,0,0,0
GP,Guadeloupe,country,Latin America and the Caribbean,16.995971,-62.067641,US,USA,country,North America,37.09024,-95.712891,1991,1966,0,0,0,0,0,0,0,0,0,0,1965,0,0,0,1,0,0,0,0,0,0,0,0
GT,Guatemala,country,Latin America and the Caribbean,15.783471,-90.230759,US,USA,country,North America,37.09024,-95.712891,1991,998424,99,41,468274,63,2,6611,55908,358374,70,1330,0,90025,7130,0,480,0,10003,14,0,0,0,0,0
HN,Honduras,country,Latin America and the Caribbean,15.199999,-86.241905,US,USA,country,North America,37.09024,-95.712891,1991,701482,63,6916,26366,0,111,946,50858,581921,19,513,0,17214,3445,0,125,0,12915,70,0,0,0,0,0
HU,Hungary,country,Europe and Central Asia,47.162494,19.503304,US,USA,country,North America,37.09024,-95.712891,1991,34920,526,54,1677,0,38,92,6368,4332,2,115,4,364,28,0,5526,0,12018,3776,0,0,0,0,0
IS,Iceland,country,Europe and Central Asia,64.963051,-19.020835,US,USA,country,North America,37.09024,-95.712891,1991,2466,0,0,23,0,0,0,0,0,0,0,140,0,0,0,2043,0,13,247,0,0,0,0,0
IN,India,country,South Asia,20.593684,78.96288,US,USA,country,North America,37.09024,-95.712891,1991,112466,41266,92,318,762,14639,12650,3288,1403,52,16288,1384,10935,1498,7083,670,3,105,33,0,0,0,0,0
ID,Indonesia,country,East Asia and Pacific,-0.789275,113.921327,US,USA,country,North America,37.09024,-95.712891,1991,759912,2184,67,135,0,834,84,12943,14174,0,27816,114,100525,548691,52039,18,0,282,6,0,0,0,0,0
IE,Ireland,country,Europe and Central Asia,53.41291,-8.24389,US,USA,country,North America,37.09024,-95.712891,1991,43339,3312,0,81,120,0,188,88,88,0,0,39,4320,2310,96,29484,0,522,1867,824,0,0,0,0
IT,Italy,country,Europe and Central Asia,41.87194,12.56738,US,USA,country,North America,37.09024,-95.712891,1991,389507,90780,28,6916,17,3166,187,19246,3111,24,35,47891,2313,17401,56626,128324,0,538,12849,55,0,0,0,0
JP,Japan,country,East Asia and Pacific,36.204824,138.252924,US,USA,country,North America,37.09024,-95.712891,1991,64726,7151,216,1885,11,4,7592,2125,2281,182,53,440,479,14594,3296,24228,0,4,185,0,0,0,0,0
JO,Jordan,country,Middle East and North Africa,30.585164,36.238414,US,USA,country,North America,37.09024,-95.712891,1991,215,10,0,0,3,0,11,17,22,0,60,0,0,15,0,0,0,5,72,0,0,0,0,0
KE,Kenya,country,Sub-Saharan Africa,-0.023559,37.906193,US,USA,country,North America,37.09024,-95.712891,1991,9574,0,0,0,408,1014,432,23,3,0,0,0,7473,221,0,0,0,0,0,0,0,0,0,0
MG,Madagascar,country,Sub-Saharan Africa,-18.766947,46.869107,US,USA,country,North America,37.09024,-95.712891,1991,8742,0,0,7112,0,0,0,0,0,0,1160,0,300,170,0,0,0,0,0,0,0,0,0,0
MY,Malaysia,country,East Asia and Pacific,4.210484,101.975766,US,USA,country,North America,37.09024,-95.712891,1991,471130,383,183,7185,30,0,387,720,6367,17,6936,2,45285,126626,276984,25,2,0,0,0,0,0,0,0
MU,Mauritius,country,Sub-Saharan Africa,-20.348404,57.552152,US,USA,country,North America,37.09024,-95.712891,1991,57982,0,0,57844,0,0,0,0,0,0,6,0,119,13,0,0,0,0,0,0,0,0,0,0
MX,Mexico,country,Latin America and the Caribbean,23.634501,-102.552784,US,USA,country,North America,37.09024,-95.712891,1991,3488334,83765,10749,137895,12795,7211,41415,1917161,580996,48386,2457,3206,186556,36393,28446,384670,0,6040,193,0,0,0,0,0
MA,Morocco,country,Middle East and North Africa,31.791702,-7.09262,US,USA,country,North America,37.09024,-95.712891,1991,30724,0,0,0,0,0,4458,2159,20657,0,1571,0,0,924,944,11,0,0,0,0,0,0,0,0
NL,Netherlands,country,Europe and Central Asia,52.132633,5.291266,US,USA,country,North America,37.09024,-95.712891,1991,471356,3481,1224,1794,834,67,3510,16189,564,99,4374,792,44258,36646,32706,293273,0,9227,22298,20,0,0,0,0
NZ,New Zealand,country,East Asia and Pacific,-40.900557,174.885971,US,USA,country,North America,37.09024,-95.712891,1991,327821,366,0,114,1097,0,0,2046,60065,9706,0,281,0,22,66,5501,0,227886,20652,19,0,0,0,0
NI,Nicaragua,country,Latin America and the Caribbean,12.865416,-85.207229,US,USA,country,North America,37.09024,-95.712891,1991,163412,1,59,159026,0,0,910,0,2264,227,20,0,34,231,0,0,0,640,0,0,0,0,0,0
NO,Norway,country,Europe and Central Asia,60.472024,8.468946,US,USA,country,North America,37.09024,-95.712891,1991,8862,402,0,3,0,9,0,6,3,0,0,80,31,46,0,1001,0,40,7013,228,0,0,0,0
PK,Pakistan,country,South Asia,30.375321,69.345116,US,USA,country,North America,37.09024,-95.712891,1991,41259,31481,0,136,0,0,18,106,3248,1582,4379,0,145,164,0,0,0,0,0,0,0,0,0,0
PA,Panama,country,Latin America and the Caribbean,8.537981,-80.782127,US,USA,country,North America,37.09024,-95.712891,1991,121524,0,85,60531,0,0,0,1645,52651,0,0,0,5381,992,0,180,0,59,0,0,0,0,0,0
PG,Papua New Guinea,country,East Asia and Pacific,-6.314993,143.95555,US,USA,country,North America,37.09024,-95.712891,1991,23476,0,0,7664,0,0,0,0,0,0,10,0,15802,0,0,0,0,0,0,0,0,0,0,0
PY,Paraguay,country,Latin America and the Caribbean,-23.442503,-58.443832,US,USA,country,North America,37.09024,-95.712891,1991,48172,0,0,14770,0,0,30716,0,0,1604,0,744,87,251,0,0,0,0,0,0,0,0,0,0
PE,Peru,country,Latin America and the Caribbean,-9.189967,-75.015152,US,USA,country,North America,37.09024,-95.712891,1991,100208,270,0,65859,326,0,2,3061,1545,4,11,679,24607,3040,0,804,0,0,0,0,0,0,0,0
PH,Philippines,country,East Asia and Pacific,12.879721,121.774017,US,USA,country,North America,37.09024,-95.712891,1991,921472,2501,306,274300,8,324,35598,430,183190,6723,26,144,6388,9341,400646,1513,0,2,32,0,0,0,0,0
PT,Portugal,country,Europe and Central Asia,39.399872,-8.224454,US,USA,country,North America,37.09024,-95.712891,1991,17309,360,0,17,60,427,1175,1132,211,0,34,10,33,678,518,12095,0,0,559,0,0,0,0,0
QA,Qatar,country,Middle East and North Africa,25.354826,51.183884,US,USA,country,North America,37.09024,-95.712891,1991,4,0,0,0,0,0,0,0,0,0,0,0,0,4,0,0,0,0,0,0,0,0,0,0
KR,"Korea, Rep.",country,East Asia and Pacific,35.907757,127.766922,US,USA,country,North America,37.09024,-95.712891,1991,26356,5267,0,1276,6,241,455,2325,1738,17,81,264,385,9265,0,4939,0,3,94,0,0,0,0,0
RE,Reunion,country,Sub-Saharan Africa,-21.115141,55.536384,US,USA,country,North America,37.09024,-95.712891,1991,9,0,0,0,0,0,0,0,0,0,9,0,0,0,0,0,0,0,0,0,0,0,0,0
RO,Romania,country,Europe and Central Asia,45.943161,24.96676,US,USA,country,North America,37.09024,-95.712891,1991,1776,0,0,0,0,0,117,0,0,0,118,0,0,20,0,1356,0,165,0,0,0,0,0,0
SN,Senegal,country,Sub-Saharan Africa,14.497401,-14.452362,US,USA,country,North America,37.09024,-95.712891,1991,8697,0,0,0,0,0,3095,38,0,0,0,5564,0,0,0,0,0,0,0,0,0,0,0,0
SC,Seychelles,country,Sub-Saharan Africa,-4.679574,55.491977,US,USA,country,North America,37.09024,-95.712891,1991,0,0,0,0,0,0,0,0,0,0,0,0,0,0,0,0,0,0,0,0,0,0,0,0
SG,Singapore,country,East Asia and Pacific,1.352083,103.819836,US,USA,country,North America,37.09024,-95.712891,1991,154936,1525,86,63,0,32,952,753,5574,0,5994,15,86505,49541,1060,2795,0,24,17,0,0,0,0,0
ES,Spain,country,Europe and Central Asia,40.463667,-3.74922,US,USA,country,North America,37.09024,-95.712891,1991,189835,1918,2,5955,52,267,51269,25079,62571,362,3478,70,671,1951,13133,22923,0,0,104,30,0,0,0,0
LK,Sri Lanka,country,South Asia,7.873054,80.771797,US,USA,country,North America,37.09024,-95.712891,1991,14672,15,16,0,0,2,849,924,124,0,1613,0,4245,6884,0,0,0,0,0,0,0,0,0,0
SR,Suriname,country,Latin America and the Caribbean,3.919305,-56.027783,US,USA,country,North America,37.09024,-95.712891,1991,26,0,0,0,0,0,0,0,1,0,0,0,0,25,0,0,0,0,0,0,0,0,0,0
SE,Sweden,country,Europe and Central Asia,60.128161,18.643501,US,USA,country,North America,37.09024,-95.712891,1991,599120,542127,0,1849,0,8,6,135,767,0,0,0,3960,1009,1383,38645,0,5999,1337,1895,0,0,0,0
CH,Switzerland,country,Europe and Central Asia,46.818188,8.227512,US,USA,country,North America,37.09024,-95.712891,1991,22478,620,0,2270,0,5,0,855,1248,13,0,2,4614,3960,172,2444,0,13,6262,0,0,0,0,0
TH,Thailand,country,East Asia and Pacific,15.870032,100.992541,US,USA,country,North America,37.09024,-95.712891,1991,822845,171337,153253,42506,4315,53,972,49335,219162,90,1442,33735,11826,131118,205,3099,0,61,288,48,0,0,0,0
TT,Trinidad and Tobago,country,Latin America and the Caribbean,10.691803,-61.222503,US,USA,country,North America,37.09024,-95.712891,1991,11601,352,1,7396,0,20,1,630,120,0,44,0,1449,171,45,1372,0,0,0,0,0,0,0,0
TN,Tunisia,country,Middle East and North Africa,33.886917,9.537499,US,USA,country,North America,37.09024,-95.712891,1991,2532,0,0,0,0,0,0,0,0,0,0,0,0,4,2528,0,0,0,0,0,0,0,0,0
GB,United Kingdom,country,Europe and Central Asia,55.378051,-3.435973,US,USA,country,North America,37.09024,-95.712891,1991,236518,10244,20,20447,522,151,778,670,2136,4051,203,1202,15074,7348,1659,159016,53,162,12258,577,0,0,0,0
UY,Uruguay,country,Latin America and the Caribbean,-32.522779,-55.765835,US,USA,country,North America,37.09024,-95.712891,1991,9137,0,0,16,0,0,2,94,741,2181,0,0,3,3,0,31,0,5373,693,0,0,0,0,0
VE,Venezuela,country,Latin America and the Caribbean,6.42375,-66.58973,US,USA,country,North America,37.09024,-95.712891,1991,47999,1114,358,765,0,0,113,202,32917,0,307,84,6767,943,1229,3166,0,22,12,0,0,0,0,0
ZW,Zimbabwe,country,Sub-Saharan Africa,-19.015438,29.154857,US,USA,country,North America,37.09024,-95.712891,1991,9780,0,0,4135,0,4,0,11,0,0,0,0,897,4728,0,0,0,0,0,5,0,0,0,0
DZ,Algeria,country,Middle East and North Africa,28.033886,1.659626,US,USA,country,North America,37.09024,-95.712891,1992,0,0,0,0,0,0,0,0,0,0,0,0,0,0,0,0,0,0,0,0,0,0,0,0
AR,Argentina,country,Latin America and the Caribbean,-38.416097,-63.616672,US,USA,country,North America,37.09024,-95.712891,1992,279633,5227,0,64113,262,50,4200,3663,78191,459,201,2261,19120,21157,33990,2722,0,42095,1922,0,0,0,0,0
AU,Australia,country,East Asia and Pacific,-25.274398,133.775136,US,USA,country,North America,37.09024,-95.712891,1992,740715,12819,0,245659,4854,1538,3121,563,7163,35954,96,420,54,350,942,17560,0,402249,7156,217,0,0,0,0
AT,Austria,country,Europe and Central Asia,47.516231,14.550072,US,USA,country,North America,37.09024,-95.712891,1992,11883,4255,0,75,0,0,2,76,2219,0,0,28,49,76,16,747,0,0,4340,0,0,0,0,0
BB,Barbados,country,Latin America and the Caribbean,13.193887,-59.543198,US,USA,country,North America,37.09024,-95.712891,1992,2658,226,0,0,0,0,0,2,3,0,0,4,0,177,0,2246,4,0,0,0,0,0,0,0
BE,Belgium,country,Europe and Central Asia,50.503887,4.469936,US,USA,country,North America,37.09024,-95.712891,1992,65658,3050,4,1147,23,22,255,10431,645,9712,4,287,5629,1897,22068,5580,0,4870,34,0,0,0,0,0
BZ,Belize,country,Latin America and the Caribbean,17.189877,-88.49765,US,USA,country,North America,37.09024,-95.712891,1992,53152,0,0,41924,0,0,0,0,10787,0,0,16,140,256,1,20,0,0,8,0,0,0,0,0
BJ,Benin,country,Sub-Saharan Africa,9.30769,2.315834,US,USA,country,North America,37.09024,-95.712891,1992,1605,0,0,0,0,0,0,0,0,0,0,1600,0,0,5,0,0,0,0,0,0,0,0,0
BO,Bolivia,country,Latin America and the Caribbean,-16.290154,-63.588653,US,USA,country,North America,37.09024,-95.712891,1992,11418,703,0,8372,0,2132,0,15,0,0,0,0,56,0,0,140,0,0,0,0,0,0,0,0
BW,Botswana,country,Sub-Saharan Africa,-22.328474,24.684866,US,USA,country,North America,37.09024,-95.712891,1992,48,0,0,0,0,0,0,0,0,0,0,0,0,0,0,0,0,0,0,48,0,0,0,0
BR,Brazil,country,Latin America and the Caribbean,-14.235004,-51.92528,US,USA,country,North America,37.09024,-95.712891,1992,1109501,893,1769,160409,0,32125,166,1152,355339,477,7463,8384,385533,119456,11014,5796,0,19437,87,1,0,0,0,0
CA,Canada,country,North America,56.130366,-106.346771,US,USA,country,North America,37.09024,-95.712891,1992,6979979,2973333,267014,342955,46142,849,371032,173237,87054,2778,1364,1190865,128908,167904,321844,538067,6997,316205,9854,34007,6567,0,0,0
CL,Chile,country,Latin America and the Caribbean,-35.675147,-71.542969,US,USA,country,North America,37.09024,-95.712891,1992,554544,13905,0,2766,1250,0,201,39858,465377,267,106,101,65,11298,4,19274,0,0,67,5,0,0,0,0
HK,Hong Kong,country,East Asia and Pacific,22.396428,114.109497,US,USA,country,North America,37.09024,-95.712891,1992,153887,14183,1041,3943,835,4018,13113,44773,9885,461,2572,46,2081,47198,1188,8128,0,91,229,102,0,0,0,0
CN,China,country,East Asia and Pacific,35.86166,104.195397,US,USA,country,North America,37.09024,-95.712891,1992,190243,1385,2826,25300,3983,3445,4611,52759,19617,1651,2815,131,32763,28115,16,10173,0,364,287,2,0,0,0,0
TW,Taiwan,country,East Asia and Pacific,23.69781,120.960515,US,USA,country,North America,37.09024,-95.712891,1992,64953,4196,4,18280,168,44,4641,16312,1623,151,44,235,2060,8704,3171,4343,0,695,262,20,0,0,0,0
CO,Colombia,country,Latin America and the Caribbean,4.570868,-74.297333,US,USA,country,North America,37.09024,-95.712891,1992,874260,1134,79,88557,32,0,18,1012,498088,10,765,2,278022,4906,1,1557,0,44,33,0,0,0,0,0
CR,Costa Rica,country,Latin America and the Caribbean,9.748917,-83.753428,US,USA,country,North America,37.09024,-95.712891,1992,1099592,392,38448,95125,0,137,1286,72273,849418,1,2231,0,29637,1066,0,0,0,9557,0,21,0,0,0,0
HR,Croatia,country,Europe and Central Asia,45.1,15.2,US,USA,country,North America,37.09024,-95.712891,1992,8249,155,0,93,0,0,0,169,4248,0,0,0,49,1145,2,284,0,1611,493,0,0,0,0,0
DK,Denmark,country,Europe and Central Asia,56.26392,9.501785,US,USA,country,North America,37.09024,-95.712891,1992,113432,17466,0,499,0,0,11,148,3401,0,330,236,217,555,3720,7842,0,66543,12464,0,0,0,0,0
EC,Ecuador,country,Latin America and the Caribbean,-1.831239,-78.183406,US,USA,country,North America,37.09024,-95.712891,1992,1133877,47,17,15476,1,0,0,7814,1028332,3244,0,346,76630,340,1233,50,0,347,0,0,0,0,0,0
EG,Egypt,country,Middle East and North Africa,26.820553,30.802498,US,USA,country,North America,37.09024,-95.712891,1992,5318,137,0,9,8,0,67,547,140,2045,2096,0,0,235,5,0,0,26,3,0,0,0,0,0
SV,El Salvador,country,Latin America and the Caribbean,13.794185,-88.89653,US,USA,country,North America,37.09024,-95.712891,1992,208028,480,0,104428,357,0,5319,13541,367,0,40,0,80218,229,104,1872,0,0,1073,0,0,0,0,0
ET,Ethiopia,country,Sub-Saharan Africa,9.145,40.489673,US,USA,country,North America,37.09024,-95.712891,1992,1678,2,0,0,0,0,217,0,0,0,5,0,1280,9,0,0,0,0,2,163,0,0,0,0
FI,Finland,country,Europe and Central Asia,61.92411,25.748151,US,USA,country,North America,37.09024,-95.712891,1992,124316,113170,0,331,0,0,0,0,279,0,0,0,61,20,1020,2201,0,905,6001,328,0,0,0,0
FR,France,country,Europe and Central Asia,46.227638,2.213749,US,USA,country,North America,37.09024,-95.712891,1992,416406,4585,48,1352,131,48,3777,4151,3330,829,240,2640,8279,8722,24258,344777,0,139,8479,621,0,0,0,0
DE,Germany,country,Europe and Central Asia,51.165691,10.451526,US,USA,country,North America,37.09024,-95.712891,1992,273819,8859,13,35374,233,69,102,1902,2665,282,242,5195,43513,9672,28471,135113,0,66,2042,1,5,0,0,0
GR,Greece,country,Europe and Central Asia,39.074208,21.824312,US,USA,country,North America,37.09024,-95.712891,1992,70996,1370,3,150,21,36,4358,17162,13558,0,0,1086,254,23907,3450,3642,0,5,1994,0,0,0,0,0
GP,Guadeloupe,country,Latin America and the Caribbean,16.995971,-62.067641,US,USA,country,North America,37.09024,-95.712891,1992,3904,0,0,0,0,0,0,0,0,0,0,3763,0,0,0,141,0,0,0,0,0,0,0,0
GT,Guatemala,country,Latin America and the Caribbean,15.783471,-90.230759,US,USA,country,North America,37.09024,-95.712891,1992,1036905,219,17,387404,6,0,8587,55948,458811,543,972,2,103461,14191,0,237,30,6467,20,20,0,0,0,0
HN,Honduras,country,Latin America and the Caribbean,15.199999,-86.241905,US,USA,country,North America,37.09024,-95.712891,1992,560304,71,7787,17270,0,0,608,50315,441848,0,210,0,31171,2272,0,62,0,8648,42,0,0,0,0,0
HU,Hungary,country,Europe and Central Asia,47.162494,19.503304,US,USA,country,North America,37.09024,-95.712891,1992,19490,382,0,75,0,56,0,3719,2612,4,259,5,378,136,0,3532,0,6525,1807,0,0,0,0,0
IS,Iceland,country,Europe and Central Asia,64.963051,-19.020835,US,USA,country,North America,37.09024,-95.712891,1992,2685,0,0,32,0,0,0,0,0,0,0,400,0,0,0,1813,0,0,440,0,0,0,0,0
IN,India,country,South Asia,20.593684,78.96288,US,USA,country,North America,37.09024,-95.712891,1992,134140,14832,108,11767,627,24794,13830,5087,1619,1952,27668,504,11181,2578,16934,636,0,8,15,0,0,0,0,0
ID,Indonesia,country,East Asia and Pacific,-0.789275,113.921327,US,USA,country,North America,37.09024,-95.712891,1992,887210,3308,69,234,0,644,147,18562,15179,85,42619,13756,106005,593954,92613,0,3,35,0,0,0,0,0,0
IE,Ireland,country,Europe and Central Asia,53.41291,-8.24389,US,USA,country,North America,37.09024,-95.712891,1992,48246,3614,245,330,66,0,19,55,37,12,0,3,4497,2055,0,32439,0,857,3359,658,0,0,0,0
IT,Italy,country,Europe and Central Asia,41.87194,12.56738,US,USA,country,North America,37.09024,-95.712891,1992,417774,97299,156,10236,8,2556,162,13811,2575,192,53,37743,2554,17810,76539,143008,0,492,12538,42,0,0,0,0
JP,Japan,country,East Asia and Pacific,36.204824,138.252924,US,USA,country,North America,37.09024,-95.712891,1992,66589,6837,172,1486,9,13,8670,1956,1822,158,84,1572,415,14026,3608,25584,0,7,169,0,1,0,0,0
JO,Jordan,country,Middle East and North Africa,30.585164,36.238414,US,USA,country,North America,37.09024,-95.712891,1992,326,28,0,3,0,0,60,0,0,0,20,0,0,151,0,24,0,0,40,0,0,0,0,0
KE,Kenya,country,Sub-Saharan Africa,-0.023559,37.906193,US,USA,country,North America,37.09024,-95.712891,1992,26098,0,0,0,205,1193,34,14,64,0,13,0,24356,183,0,0,0,0,34,2,0,0,0,0
KW,Kuwait,country,Middle East and North Africa,29.31166,47.481766,US,USA,country,North America,37.09024,-95.712891,1992,0,0,0,0,0,0,0,0,0,0,0,0,0,0,0,0,0,0,0,0,0,0,0,0
LT,Lithuania,country,Europe and Central Asia,55.169438,23.881275,US,USA,country,North America,37.09024,-95.712891,1992,128,0,0,128,0,0,0,0,0,0,0,0,0,0,0,0,0,0,0,0,0,0,0,0
MG,Madagascar,country,Sub-Saharan Africa,-18.766947,46.869107,US,USA,country,North America,37.09024,-95.712891,1992,8801,0,0,7000,0,0,0,0,0,0,1110,0,570,121,0,0,0,0,0,0,0,0,0,0
MW,Malawi,country,Sub-Saharan Africa,-13.254308,34.301525,US,USA,country,North America,37.09024,-95.712891,1992,19645,0,0,0,183,148,0,0,0,0,22,0,2963,16329,0,0,0,0,0,0,0,0,0,0
MY,Malaysia,country,East Asia and Pacific,4.210484,101.975766,US,USA,country,North America,37.09024,-95.712891,1992,517482,805,204,142,20,2,366,1136,4770,85,1453,0,12748,130392,364987,372,0,0,0,0,0,0,0,0
MT,Malta,country,Middle East and North Africa,35.937496,14.375416,US,USA,country,North America,37.09024,-95.712891,1992,157,0,0,0,0,0,0,0,0,0,0,0,0,157,0,0,0,0,0,0,0,0,0,0
MU,Mauritius,country,Sub-Saharan Africa,-20.348404,57.552152,US,USA,country,North America,37.09024,-95.712891,1992,13375,0,0,13030,0,0,0,0,0,0,1,255,71,18,0,0,0,0,0,0,0,0,0,0
MX,Mexico,country,Latin America and the Caribbean,23.634501,-102.552784,US,USA,country,North America,37.09024,-95.712891,1992,2637765,43047,12484,109129,22936,22060,28784,1420009,430028,25702,3933,4371,196089,32357,28791,251670,0,5958,398,0,19,0,0,0
MA,Morocco,country,Middle East and North Africa,31.791702,-7.09262,US,USA,country,North America,37.09024,-95.712891,1992,21935,5,0,0,0,0,7317,2444,6365,0,1327,7,0,1184,3282,0,0,0,4,0,0,0,0,0
NL,Netherlands,country,Europe and Central Asia,52.132633,5.291266,US,USA,country,North America,37.09024,-95.712891,1992,433767,3893,876,1567,184,22,2285,19667,704,66,4377,695,40858,4584,24662,297815,0,7686,23793,33,0,0,0,0
NZ,New Zealand,country,East Asia and Pacific,-40.900557,174.885971,US,USA,country,North America,37.09024,-95.712891,1992,327837,433,1,113,813,0,4,2639,52066,10373,0,22,10,79,0,7528,0,230004,22797,955,0,0,0,0
NI,Nicaragua,country,Latin America and the Caribbean,12.865416,-85.207229,US,USA,country,North America,37.09024,-95.712891,1992,143031,0,48,126989,22,0,1325,92,6820,85,0,62,2101,160,0,1,0,5326,0,0,0,0,0,0
NO,Norway,country,Europe and Central Asia,60.472024,8.468946,US,USA,country,North America,37.09024,-95.712891,1992,58957,50310,0,5,0,0,0,6,2,0,0,96,27,83,0,621,0,730,7057,20,0,0,0,0
OM,Oman,country,Middle East and North Africa,21.512583,55.923255,US,USA,country,North America,37.09024,-95.712891,1992,26,0,0,0,0,0,0,0,7,0,0,0,0,0,0,19,0,0,0,0,0,0,0,0
PK,Pakistan,country,South Asia,30.375321,69.345116,US,USA,country,North America,37.09024,-95.712891,1992,49926,37380,0,267,0,32,0,78,5787,973,4860,180,221,148,0,0,0,0,0,0,0,0,0,0
PA,Panama,country,Latin America and the Caribbean,8.537981,-80.782127,US,USA,country,North America,37.09024,-95.712891,1992,125073,0,263,49383,0,0,0,1866,66857,0,0,0,5031,1425,0,247,0,1,0,0,0,0,0,0
PG,Papua New Guinea,country,East Asia and Pacific,-6.314993,143.95555,US,USA,country,North America,37.09024,-95.712891,1992,19253,0,0,6909,0,0,0,0,0,0,0,0,12344,0,0,0,0,0,0,0,0,0,0,0
PY,Paraguay,country,Latin America and the Caribbean,-23.442503,-58.443832,US,USA,country,North America,37.09024,-95.712891,1992,53143,0,0,6720,0,0,45440,0,0,0,0,393,12,549,0,0,0,29,0,0,0,0,0,0
PE,Peru,country,Latin America and the Caribbean,-9.189967,-75.015152,US,USA,country,North America,37.09024,-95.712891,1992,59518,312,8,15706,853,33,25,4669,4305,0,107,2695,28109,2230,0,466,0,0,0,0,0,0,0,0
PH,Philippines,country,East Asia and Pacific,12.879721,121.774017,US,USA,country,North America,37.09024,-95.712891,1992,920435,2698,359,208289,8,420,41087,690,188920,6186,27,10387,2824,9083,448237,1218,0,2,0,0,0,0,0,0
PL,Poland,country,Europe and Central Asia,51.919438,19.145136,US,USA,country,North America,37.09024,-95.712891,1992,150751,31531,0,106900,0,0,13,1228,2180,0,0,0,288,2425,0,0,0,3707,2479,0,0,0,0,0
PT,Portugal,country,Europe and Central Asia,39.399872,-8.224454,US,USA,country,North America,37.09024,-95.712891,1992,15592,310,0,21,56,91,1601,855,48,1,3,4,34,469,947,10383,0,0,769,0,0,0,0,0
KR,"Korea, Rep.",country,East Asia and Pacific,35.907757,127.766922,US,USA,country,North America,37.09024,-95.712891,1992,27025,4592,0,1007,1,258,639,2243,1522,19,77,11,448,10221,2,5852,0,0,133,0,0,0,0,0
RE,Reunion,country,Sub-Saharan Africa,-21.115141,55.536384,US,USA,country,North America,37.09024,-95.712891,1992,9,0,0,0,0,0,0,0,0,0,9,0,0,0,0,0,0,0,0,0,0,0,0,0
RO,Romania,country,Europe and Central Asia,45.943161,24.96676,US,USA,country,North America,37.09024,-95.712891,1992,1697,238,0,0,0,0,0,0,0,0,473,0,0,0,0,796,0,190,0,0,0,0,0,0
SN,Senegal,country,Sub-Saharan Africa,14.497401,-14.452362,US,USA,country,North America,37.09024,-95.712891,1992,3627,0,0,0,0,0,0,10,0,0,0,3600,0,17,0,0,0,0,0,0,0,0,0,0
RS,Serbia,country,Europe and Central Asia,44.016521,21.005859,US,USA,country,North America,37.09024,-95.712891,1992,3690,16,0,13,0,0,0,0,557,0,0,0,0,1250,0,395,0,1459,0,0,0,0,0,0
SG,Singapore,country,East Asia and Pacific,1.352083,103.819836,US,USA,country,North America,37.09024,-95.712891,1992,204083,2230,40,1559,0,32,2701,1604,4035,0,6810,1,128417,53422,1067,2161,0,0,4,0,0,0,0,0
SI,Slovenia,country,Europe and Central Asia,46.151241,14.995463,US,USA,country,North America,37.09024,-95.712891,1992,6684,16,0,524,0,0,0,169,470,0,0,18,32,0,0,5302,0,57,96,0,0,0,0,0
ZA,S. Africa,country,Sub-Saharan Africa,-30.559482,22.937506,US,USA,country,North America,37.09024,-95.712891,1992,0,0,0,0,0,0,0,0,0,0,0,0,0,0,0,0,0,0,0,0,0,0,0,0
ES,Spain,country,Europe and Central Asia,40.463667,-3.74922,US,USA,country,North America,37.09024,-95.712891,1992,209435,2244,0,5780,66,239,57497,30213,44740,1001,3478,36,932,6396,31243,25363,0,0,140,67,0,0,0,0
LK,Sri Lanka,country,South Asia,7.873054,80.771797,US,USA,country,North America,37.09024,-95.712891,1992,12931,5,0,0,0,33,584,1197,61,0,1217,0,3393,6439,0,2,0,0,0,0,0,0,0,0
SE,Sweden,country,Europe and Central Asia,60.128161,18.643501,US,USA,country,North America,37.09024,-95.712891,1992,456881,390209,5,1578,0,0,14,72,10724,0,1,0,4582,894,401,43506,0,2637,1138,1120,0,0,0,0
CH,Switzerland,country,Europe and Central Asia,46.818188,8.227512,US,USA,country,North America,37.09024,-95.712891,1992,22714,762,0,2457,0,6,0,1499,1415,15,5,0,4651,4882,138,1559,0,16,5309,0,0,0,0,0
SY,Syrian Arab Rep.,country,Middle East and North Africa,34.802075,38.996815,US,USA,country,North America,37.09024,-95.712891,1992,741,0,0,5,0,0,0,8,140,0,571,0,0,3,4,8,0,0,2,0,0,0,0,0
