sourceCode,sourceName,sourceGrouping,sourceRegion,sourceLat,sourceLong,destCode,destName,destGrouping,destRegion,destLat,destLong,distance,year,totalTons,cereals,roots,sugarCrops,pulses,nuts,oilCrops,vegetables,fruits,fibers,spices,fodderCrops,coffeeTea,tobaccoRubber,oilsFats,beverages,livestock,animalMeats,animalProducts,animalHides,nimalOther,pesticides,fertilizers,machinery
AF,Afghanistan,country,South Asia,33.93911,67.709953,SK,Slovak Rep.,country,Europe and Central Asia,48.669026,19.699024,4253.24103341233,1994,48,0,0,0,0,0,0,0,48,0,0,0,0,0,0,0,0,0,0,0,0,0,0,0
AL,Albania,country,Europe and Central Asia,41.153332,20.168331,SK,Slovak Rep.,country,Europe and Central Asia,48.669026,19.699024,837.456245083589,1994,1369,15,0,0,0,0,0,0,0,0,1354,0,0,0,0,0,0,0,0,0,0,0,0,0
AG,Antigua & Barbuda,country,Latin America and the Caribbean,17.060816,-61.796428,SK,Slovak Rep.,country,Europe and Central Asia,48.669026,19.699024,7983.74321885388,1994,3,0,0,0,0,0,0,0,3,0,0,0,0,0,0,0,0,0,0,0,0,0,0,0
AR,Argentina,country,Latin America and the Caribbean,-38.416097,-63.616672,SK,Slovak Rep.,country,Europe and Central Asia,48.669026,19.699024,12687.7934412495,1994,12805,0,0,3,0,65,200,60,618,0,0,11415,0,405,0,0,0,39,0,0,0,0,0,0
AU,Australia,country,East Asia and Pacific,-25.274398,133.775136,SK,Slovak Rep.,country,Europe and Central Asia,48.669026,19.699024,13842.417967848,1994,1874,0,0,0,0,0,0,0,0,1462,0,0,0,0,0,0,0,52,0,360,0,0,0,0
AT,Austria,country,Europe and Central Asia,47.516231,14.550072,SK,Slovak Rep.,country,Europe and Central Asia,48.669026,19.699024,403.681104129486,1994,83358,60916,93,218,5,150,278,793,9991,0,103,3753,978,918,318,4586,0,40,130,88,0,0,0,0
AZ,Azerbaijan,country,Europe and Central Asia,40.143105,47.576927,SK,Slovak Rep.,country,Europe and Central Asia,48.669026,19.699024,2394.3667521138,1994,16,0,0,0,0,1,0,0,0,0,0,0,0,0,0,0,0,0,0,15,0,0,0,0
BS,The Bahamas,country,Latin America and the Caribbean,25.03428,-77.39628,SK,Slovak Rep.,country,Europe and Central Asia,48.669026,19.699024,8447.64325122833,1994,22,0,0,0,0,0,0,0,22,0,0,0,0,0,0,0,0,0,0,0,0,0,0,0
BY,Belarus,country,Europe and Central Asia,53.709807,27.953389,SK,Slovak Rep.,country,Europe and Central Asia,48.669026,19.699024,803.107804439422,1994,499,0,20,0,0,0,0,0,0,479,0,0,0,0,0,0,0,0,0,0,0,0,0,0
BE,Belgium,country,Europe and Central Asia,50.503887,4.469936,SK,Slovak Rep.,country,Europe and Central Asia,48.669026,19.699024,1115.79230067346,1994,3564,400,291,203,0,0,1,87,914,3,0,180,566,226,333,92,0,40,226,2,0,0,0,0
BM,Bermuda,country,North America,32.321384,-64.75737,SK,Slovak Rep.,country,Europe and Central Asia,48.669026,19.699024,7003.04264340543,1994,26,0,0,0,0,0,0,0,26,0,0,0,0,0,0,0,0,0,0,0,0,0,0,0
BR,Brazil,country,Latin America and the Caribbean,-14.235004,-51.92528,SK,Slovak Rep.,country,Europe and Central Asia,48.669026,19.699024,9909.35749609004,1994,40843,56,0,0,0,0,0,6,1781,0,36,38142,269,553,0,0,0,0,0,0,0,0,0,0
VG,British Virgin Islands,country,Latin America and the Caribbean,18.420695,-64.639968,SK,Slovak Rep.,country,Europe and Central Asia,48.669026,19.699024,8081.48670835732,1994,20,0,0,0,0,0,0,0,0,0,0,0,20,0,0,0,0,0,0,0,0,0,0,0
BG,Bulgaria,country,Europe and Central Asia,42.733883,25.48583,SK,Slovak Rep.,country,Europe and Central Asia,48.669026,19.699024,798.80386751614,1994,3346,6,222,0,0,1,0,734,860,0,1,0,0,153,0,1369,0,0,0,0,0,0,0,0
CM,Cameroon,country,Sub-Saharan Africa,7.369722,12.354722,SK,Slovak Rep.,country,Europe and Central Asia,48.669026,19.699024,4649.10690536104,1994,181,0,0,0,0,0,0,0,0,0,0,0,181,0,0,0,0,0,0,0,0,0,0,0
CA,Canada,country,North America,56.130366,-106.346771,SK,Slovak Rep.,country,Europe and Central Asia,48.669026,19.699024,7345.85757190154,1994,1574,14,0,0,218,0,584,29,0,0,0,238,0,58,0,23,0,399,11,0,0,0,0,0
KY,Cayman Islands,country,Latin America and the Caribbean,19.513469,-80.566956,SK,Slovak Rep.,country,Europe and Central Asia,48.669026,19.699024,9123.59363226774,1994,3,0,0,0,0,0,0,3,0,0,0,0,0,0,0,0,0,0,0,0,0,0,0,0
CF,Central African Rep.,country,Sub-Saharan Africa,6.611111,20.939444,SK,Slovak Rep.,country,Europe and Central Asia,48.669026,19.699024,4683.3292081691,1994,24,0,0,0,0,0,0,0,24,0,0,0,0,0,0,0,0,0,0,0,0,0,0,0
CL,Chile,country,Latin America and the Caribbean,-35.675147,-71.542969,SK,Slovak Rep.,country,Europe and Central Asia,48.669026,19.699024,12992.6261253828,1994,399,0,0,4,0,0,2,0,393,0,0,0,0,0,0,0,0,0,0,0,0,0,0,0
HK,Hong Kong,country,East Asia and Pacific,22.396428,114.109497,SK,Slovak Rep.,country,Europe and Central Asia,48.669026,19.699024,8478.49668346838,1994,150,0,0,0,0,0,0,1,41,0,0,0,0,0,0,0,0,108,0,0,0,0,0,0
CN,China,country,East Asia and Pacific,35.86166,104.195397,SK,Slovak Rep.,country,Europe and Central Asia,48.669026,19.699024,6743.52783630172,1994,7637,5019,0,0,211,27,1043,989,156,0,11,0,73,26,0,0,0,82,0,0,0,0,0,0
TW,Taiwan,country,East Asia and Pacific,23.69781,120.960515,SK,Slovak Rep.,country,Europe and Central Asia,48.669026,19.699024,8840.36547767449,1994,46,46,0,0,0,0,0,0,0,0,0,0,0,0,0,0,0,0,0,0,0,0,0,0
CO,Colombia,country,Latin America and the Caribbean,4.570868,-74.297333,SK,Slovak Rep.,country,Europe and Central Asia,48.669026,19.699024,9929.70014318263,1994,10936,0,0,0,0,0,0,0,9773,0,0,0,989,174,0,0,0,0,0,0,0,0,0,0
KM,Comoros,country,Sub-Saharan Africa,-11.875001,43.872219,SK,Slovak Rep.,country,Europe and Central Asia,48.669026,19.699024,7147.75342778531,1994,1,0,0,0,0,0,0,0,0,0,1,0,0,0,0,0,0,0,0,0,0,0,0,0
CR,Costa Rica,country,Latin America and the Caribbean,9.748917,-83.753428,SK,Slovak Rep.,country,Europe and Central Asia,48.669026,19.699024,10173.5396848959,1994,16199,0,0,0,0,0,0,4,16021,0,0,0,174,0,0,0,0,0,0,0,0,0,0,0
CI,Ivory Coast,country,Sub-Saharan Africa,7.539989,-5.54708,SK,Slovak Rep.,country,Europe and Central Asia,48.669026,19.699024,5155.73540726631,1994,6504,0,0,0,0,0,65,2,78,0,0,0,6359,0,0,0,0,0,0,0,0,0,0,0
HR,Croatia,country,Europe and Central Asia,45.1,15.2,SK,Slovak Rep.,country,Europe and Central Asia,48.669026,19.699024,524.232901555576,1994,4423,97,2116,106,0,0,0,127,79,0,0,0,85,1796,0,0,0,1,16,0,0,0,0,0
CU,Cuba,country,Latin America and the Caribbean,21.521757,-77.781167,SK,Slovak Rep.,country,Europe and Central Asia,48.669026,19.699024,8763.78570801154,1994,164,0,0,0,0,0,0,0,95,0,0,0,68,0,0,1,0,0,0,0,0,0,0,0
CY,Cyprus,country,Europe and Central Asia,35.126413,33.429859,SK,Slovak Rep.,country,Europe and Central Asia,48.669026,19.699024,1882.48067514411,1994,2255,0,0,0,0,0,0,0,2255,0,0,0,0,0,0,0,0,0,0,0,0,0,0,0
CZ,Czech Republic,country,Europe and Central Asia,49.817492,15.472962,SK,Slovak Rep.,country,Europe and Central Asia,48.669026,19.699024,332.613983609082,1994,367599,39753,12122,87951,553,59,45418,2188,5724,770,222,15340,8217,14603,18225,99221,17576,3879,12453,885,16,0,0,0
KP,"Korea, Dem. Rep.",country,East Asia and Pacific,40.339852,127.510093,SK,Slovak Rep.,country,Europe and Central Asia,48.669026,19.699024,7859.53269824578,1994,1,0,0,0,0,0,0,0,0,0,0,0,0,1,0,0,0,0,0,0,0,0,0,0
DK,Denmark,country,Europe and Central Asia,56.26392,9.501785,SK,Slovak Rep.,country,Europe and Central Asia,48.669026,19.699024,1089.95684863369,1994,3636,0,25,14,0,0,8,3,413,0,0,91,524,88,53,0,0,2416,1,0,0,0,0,0
DM,Dominica,country,Latin America and the Caribbean,15.414999,-61.370976,SK,Slovak Rep.,country,Europe and Central Asia,48.669026,19.699024,8085.92244747466,1994,4,0,0,0,0,0,4,0,0,0,0,0,0,0,0,0,0,0,0,0,0,0,0,0
DO,Dominican Republic,country,Latin America and the Caribbean,18.735693,-70.162651,SK,Slovak Rep.,country,Europe and Central Asia,48.669026,19.699024,8455.14270266498,1994,125,0,0,0,0,0,16,0,106,0,0,0,3,0,0,0,0,0,0,0,0,0,0,0
EC,Ecuador,country,Latin America and the Caribbean,-1.831239,-78.183406,SK,Slovak Rep.,country,Europe and Central Asia,48.669026,19.699024,10750.773925595,1994,20563,0,0,0,0,0,2,1,20332,0,0,0,228,0,0,0,0,0,0,0,0,0,0,0
EG,Egypt,country,Middle East and North Africa,26.820553,30.802498,SK,Slovak Rep.,country,Europe and Central Asia,48.669026,19.699024,2614.74519155679,1994,117,0,0,0,0,0,18,17,42,6,27,0,7,0,0,0,0,0,0,0,0,0,0,0
SV,El Salvador,country,Latin America and the Caribbean,13.794185,-88.89653,SK,Slovak Rep.,country,Europe and Central Asia,48.669026,19.699024,10181.2755973345,1994,400,0,0,0,0,0,0,1,0,0,0,0,399,0,0,0,0,0,0,0,0,0,0,0
EE,Estonia,country,Europe and Central Asia,58.595272,25.013607,SK,Slovak Rep.,country,Europe and Central Asia,48.669026,19.699024,1158.44135937482,1994,80,57,0,0,0,0,0,0,0,0,0,0,0,0,0,0,0,0,0,23,0,0,0,0
ET,Ethiopia,country,Sub-Saharan Africa,9.145,40.489673,SK,Slovak Rep.,country,Europe and Central Asia,48.669026,19.699024,4809.63178428947,1994,194,0,0,0,187,0,0,7,0,0,0,0,0,0,0,0,0,0,0,0,0,0,0,0
FI,Finland,country,Europe and Central Asia,61.92411,25.748151,SK,Slovak Rep.,country,Europe and Central Asia,48.669026,19.699024,1522.94399461862,1994,1522,0,0,10,0,0,0,0,0,0,0,13,116,0,50,450,0,673,210,0,0,0,0,0
FR,France,country,Europe and Central Asia,46.227638,2.213749,SK,Slovak Rep.,country,Europe and Central Asia,48.669026,19.699024,1340.89145486655,1994,6165,158,171,262,0,0,4,728,294,146,1,1095,173,1104,31,1122,123,752,124,0,0,0,0,0
GE,Georgia,country,Europe and Central Asia,42.315407,43.356892,SK,Slovak Rep.,country,Europe and Central Asia,48.669026,19.699024,1967.09321577295,1994,123,0,0,0,0,0,0,0,0,0,0,0,0,0,0,123,0,0,0,0,0,0,0,0
DE,Germany,country,Europe and Central Asia,51.165691,10.451526,SK,Slovak Rep.,country,Europe and Central Asia,48.669026,19.699024,718.106805343431,1994,52388,10652,4095,201,27,270,184,430,1989,55,209,23562,2707,2046,1365,1183,0,1846,1163,404,0,0,0,0
GH,Ghana,country,Sub-Saharan Africa,7.946527,-1.023194,SK,Slovak Rep.,country,Europe and Central Asia,48.669026,19.699024,4932.62314390073,1994,2,0,0,0,0,0,0,0,2,0,0,0,0,0,0,0,0,0,0,0,0,0,0,0
GR,Greece,country,Europe and Central Asia,39.074208,21.824312,SK,Slovak Rep.,country,Europe and Central Asia,48.669026,19.699024,1081.50208782265,1994,9146,2,18,0,0,46,18,695,7461,57,1,0,0,763,0,85,0,0,0,0,0,0,0,0
GL,Greenland,country,Europe and Central Asia,71.706936,-42.604303,SK,Slovak Rep.,country,Europe and Central Asia,48.669026,19.699024,4004.38510988186,1994,5,0,0,0,0,0,3,0,0,0,0,0,0,0,2,0,0,0,0,0,0,0,0,0
GD,Grenada,country,Latin America and the Caribbean,12.262776,-61.604171,SK,Slovak Rep.,country,Europe and Central Asia,48.669026,19.699024,8360.51869091784,1994,0,0,0,0,0,0,0,0,0,0,0,0,0,0,0,0,0,0,0,0,0,0,0,0
GT,Guatemala,country,Latin America and the Caribbean,15.783471,-90.230759,SK,Slovak Rep.,country,Europe and Central Asia,48.669026,19.699024,10097.6905364674,1994,355,0,0,0,0,0,3,0,0,0,0,0,352,0,0,0,0,0,0,0,0,0,0,0
GN,Guinea,country,Sub-Saharan Africa,9.945587,-9.696645,SK,Slovak Rep.,country,Europe and Central Asia,48.669026,19.699024,5105.00992532881,1994,3,0,0,0,0,0,0,0,0,0,3,0,0,0,0,0,0,0,0,0,0,0,0,0
GY,Guyana,country,Latin America and the Caribbean,4.860416,-58.93018,SK,Slovak Rep.,country,Europe and Central Asia,48.669026,19.699024,8777.6634949281,1994,532,531,0,0,0,0,0,0,1,0,0,0,0,0,0,0,0,0,0,0,0,0,0,0
HN,Honduras,country,Latin America and the Caribbean,15.199999,-86.241905,SK,Slovak Rep.,country,Europe and Central Asia,48.669026,19.699024,9879.40281701926,1994,3218,0,0,0,0,1,2,6,251,0,0,0,2958,0,0,0,0,0,0,0,0,0,0,0
HU,Hungary,country,Europe and Central Asia,47.162494,19.503304,SK,Slovak Rep.,country,Europe and Central Asia,48.669026,19.699024,168.340731564295,1994,28577,3438,262,323,67,4,280,5970,9051,238,70,925,94,597,4024,2042,770,792,337,63,0,0,0,0
IS,Iceland,country,Europe and Central Asia,64.963051,-19.020835,SK,Slovak Rep.,country,Europe and Central Asia,48.669026,19.699024,2899.92890356844,1994,14,0,0,0,0,0,0,3,10,0,0,0,0,0,0,0,0,0,1,0,0,0,0,0
IN,India,country,South Asia,20.593684,78.96288,SK,Slovak Rep.,country,Europe and Central Asia,48.669026,19.699024,6071.79778265058,1994,5899,1,0,0,0,0,60,2,3,0,147,0,5429,257,0,0,0,0,0,0,0,0,0,0
ID,Indonesia,country,East Asia and Pacific,-0.789275,113.921327,SK,Slovak Rep.,country,Europe and Central Asia,48.669026,19.699024,10395.0438902824,1994,5493,0,0,0,0,7,134,0,10,0,54,0,20,5268,0,0,0,0,0,0,0,0,0,0
IR,Iran,country,Middle East and North Africa,32.427908,53.688046,SK,Slovak Rep.,country,Europe and Central Asia,48.669026,19.699024,3354.50169610042,1994,622,23,0,0,0,132,0,26,440,1,0,0,0,0,0,0,0,0,0,0,0,0,0,0
IE,Ireland,country,Europe and Central Asia,53.41291,-8.24389,SK,Slovak Rep.,country,Europe and Central Asia,48.669026,19.699024,2011.45192831536,1994,262,0,0,0,0,0,0,0,11,0,0,0,0,100,0,40,0,91,20,0,0,0,0,0
IL,Israel,country,Middle East and North Africa,31.046051,34.851612,SK,Slovak Rep.,country,Europe and Central Asia,48.669026,19.699024,2340.95347393149,1994,78,0,0,0,0,0,0,4,73,0,1,0,0,0,0,0,0,0,0,0,0,0,0,0
IT,Italy,country,Europe and Central Asia,41.87194,12.56738,SK,Slovak Rep.,country,Europe and Central Asia,48.669026,19.699024,939.671508752536,1994,37841,10562,90,167,1,36,2,1239,21838,27,14,281,337,349,3,1955,0,0,1,939,0,0,0,0
JM,Jamaica,country,Latin America and the Caribbean,18.109581,-77.297508,SK,Slovak Rep.,country,Europe and Central Asia,48.669026,19.699024,9013.55186421397,1994,7,0,0,0,0,0,0,0,0,0,6,0,0,0,0,1,0,0,0,0,0,0,0,0
JP,Japan,country,East Asia and Pacific,36.204824,138.252924,SK,Slovak Rep.,country,Europe and Central Asia,48.669026,19.699024,8807.11191313363,1994,2,0,0,0,0,0,0,0,0,0,0,0,0,2,0,0,0,0,0,0,0,0,0,0
JO,Jordan,country,Middle East and North Africa,30.585164,36.238414,SK,Slovak Rep.,country,Europe and Central Asia,48.669026,19.699024,2450.79745021181,1994,96,0,0,0,0,0,0,96,0,0,0,0,0,0,0,0,0,0,0,0,0,0,0,0
KZ,Kazakhstan,country,Europe and Central Asia,48.019573,66.923684,SK,Slovak Rep.,country,Europe and Central Asia,48.669026,19.699024,3438.15099058726,1994,60,0,0,0,0,0,0,0,0,51,0,0,0,0,0,0,0,0,0,9,0,0,0,0
KE,Kenya,country,Sub-Saharan Africa,-0.023559,37.906193,SK,Slovak Rep.,country,Europe and Central Asia,48.669026,19.699024,5696.03454263573,1994,7,0,0,0,0,0,0,0,7,0,0,0,0,0,0,0,0,0,0,0,0,0,0,0
KG,Kyrgyz Rep.,country,Europe and Central Asia,41.20438,74.766098,SK,Slovak Rep.,country,Europe and Central Asia,48.669026,19.699024,4320.87917811966,1994,15,0,0,0,0,0,0,0,0,15,0,0,0,0,0,0,0,0,0,0,0,0,0,0
LB,Lebanon,country,Middle East and North Africa,33.854721,35.862285,SK,Slovak Rep.,country,Europe and Central Asia,48.669026,19.699024,2123.62305834207,1994,84,21,0,0,0,0,0,3,26,0,0,0,3,31,0,0,0,0,0,0,0,0,0,0
LT,Lithuania,country,Europe and Central Asia,55.169438,23.881275,SK,Slovak Rep.,country,Europe and Central Asia,48.669026,19.699024,778.164409200553,1994,8732,8646,0,0,0,0,0,0,0,67,0,0,0,0,0,0,0,0,19,0,0,0,0,0
MG,Madagascar,country,Sub-Saharan Africa,-18.766947,46.869107,SK,Slovak Rep.,country,Europe and Central Asia,48.669026,19.699024,7976.7384388712,1994,540,0,0,0,0,0,0,1,0,0,10,0,529,0,0,0,0,0,0,0,0,0,0,0
MW,Malawi,country,Sub-Saharan Africa,-13.254308,34.301525,SK,Slovak Rep.,country,Europe and Central Asia,48.669026,19.699024,7042.45747811354,1994,0,0,0,0,0,0,0,0,0,0,0,0,0,0,0,0,0,0,0,0,0,0,0,0
MY,Malaysia,country,East Asia and Pacific,4.210484,101.975766,SK,Slovak Rep.,country,Europe and Central Asia,48.669026,19.699024,9099.39435570157,1994,6153,0,0,0,0,0,3,2,3,0,16,0,23,6084,22,0,0,0,0,0,0,0,0,0
ML,Mali,country,Sub-Saharan Africa,17.570692,-3.996166,SK,Slovak Rep.,country,Europe and Central Asia,48.669026,19.699024,4070.1480366847,1994,1,0,0,0,0,0,0,0,0,0,0,0,1,0,0,0,0,0,0,0,0,0,0,0
MR,Mauritania,country,Sub-Saharan Africa,21.00789,-10.940835,SK,Slovak Rep.,country,Europe and Central Asia,48.669026,19.699024,4108.20406657978,1994,5,0,0,0,0,0,0,1,4,0,0,0,0,0,0,0,0,0,0,0,0,0,0,0
MU,Mauritius,country,Sub-Saharan Africa,-20.348404,57.552152,SK,Slovak Rep.,country,Europe and Central Asia,48.669026,19.699024,8552.96658668107,1994,2,0,0,0,0,0,0,0,2,0,0,0,0,0,0,0,0,0,0,0,0,0,0,0
MX,Mexico,country,Latin America and the Caribbean,23.634501,-102.552784,SK,Slovak Rep.,country,Europe and Central Asia,48.669026,19.699024,10157.9422913411,1994,615,0,0,0,0,0,0,0,8,0,37,0,569,0,0,1,0,0,0,0,0,0,0,0
MC,Monaco,country,Europe and Central Asia,43.750298,7.412841,SK,Slovak Rep.,country,Europe and Central Asia,48.669026,19.699024,1091.55077948181,1994,2,0,0,0,0,2,0,0,0,0,0,0,0,0,0,0,0,0,0,0,0,0,0,0
MN,Mongolia,country,East Asia and Pacific,46.862496,103.846656,SK,Slovak Rep.,country,Europe and Central Asia,48.669026,19.699024,5962.18828382163,1994,0,0,0,0,0,0,0,0,0,0,0,0,0,0,0,0,0,0,0,0,0,0,0,0
MA,Morocco,country,Middle East and North Africa,31.791702,-7.09262,SK,Slovak Rep.,country,Europe and Central Asia,48.669026,19.699024,2925.04333524108,1994,1794,0,0,0,0,0,1,1581,212,0,0,0,0,0,0,0,0,0,0,0,0,0,0,0
MZ,Mozambique,country,Sub-Saharan Africa,-18.665695,35.529562,SK,Slovak Rep.,country,Europe and Central Asia,48.669026,19.699024,7658.83341439277,1994,19,0,0,0,0,0,0,0,0,0,0,0,0,19,0,0,0,0,0,0,0,0,0,0
MM,Myanmar,country,East Asia and Pacific,21.913965,95.956223,SK,Slovak Rep.,country,Europe and Central Asia,48.669026,19.699024,7213.3425272109,1994,1,0,0,0,1,0,0,0,0,0,0,0,0,0,0,0,0,0,0,0,0,0,0,0
NL,Netherlands,country,Europe and Central Asia,52.132633,5.291266,SK,Slovak Rep.,country,Europe and Central Asia,48.669026,19.699024,1090.33105897845,1994,56171,312,1675,89,298,23,783,5453,1473,0,209,38167,1372,876,4062,105,0,914,125,235,0,0,0,0
NZ,New Zealand,country,East Asia and Pacific,-40.900557,174.885971,SK,Slovak Rep.,country,Europe and Central Asia,48.669026,19.699024,17907.2416541012,1994,268,0,0,0,0,0,9,0,251,8,0,0,0,0,0,0,0,0,0,0,0,0,0,0
NI,Nicaragua,country,Latin America and the Caribbean,12.865416,-85.207229,SK,Slovak Rep.,country,Europe and Central Asia,48.669026,19.699024,10008.6708652567,1994,3,0,0,0,0,0,3,0,0,0,0,0,0,0,0,0,0,0,0,0,0,0,0,0
NE,Niger,country,Sub-Saharan Africa,17.607789,8.081666,SK,Slovak Rep.,country,Europe and Central Asia,48.669026,19.699024,3613.96644464662,1994,44,0,0,0,0,0,0,0,0,0,0,0,44,0,0,0,0,0,0,0,0,0,0,0
NG,Nigeria,country,Sub-Saharan Africa,9.081999,8.675277,SK,Slovak Rep.,country,Europe and Central Asia,48.669026,19.699024,4525.9070573105,1994,209,0,0,0,0,0,0,0,0,0,2,0,207,0,0,0,0,0,0,0,0,0,0,0
NO,Norway,country,Europe and Central Asia,60.472024,8.468946,SK,Slovak Rep.,country,Europe and Central Asia,48.669026,19.699024,1495.83560806524,1994,168,0,0,0,0,0,0,1,0,0,0,0,0,0,167,0,0,0,0,0,0,0,0,0
PK,Pakistan,country,South Asia,30.375321,69.345116,SK,Slovak Rep.,country,Europe and Central Asia,48.669026,19.699024,4622.93643972754,1994,0,0,0,0,0,0,0,0,0,0,0,0,0,0,0,0,0,0,0,0,0,0,0,0
PA,Panama,country,Latin America and the Caribbean,8.537981,-80.782127,SK,Slovak Rep.,country,Europe and Central Asia,48.669026,19.699024,10065.4508041533,1994,7523,0,0,0,0,0,0,0,7523,0,0,0,0,0,0,0,0,0,0,0,0,0,0,0
PG,Papua New Guinea,country,East Asia and Pacific,-6.314993,143.95555,SK,Slovak Rep.,country,Europe and Central Asia,48.669026,19.699024,13010.7319994087,1994,1,0,0,0,0,0,0,0,0,0,1,0,0,0,0,0,0,0,0,0,0,0,0,0
PY,Paraguay,country,Latin America and the Caribbean,-23.442503,-58.443832,SK,Slovak Rep.,country,Europe and Central Asia,48.669026,19.699024,11135.7644641834,1994,103,0,0,0,0,0,0,0,11,0,0,0,0,92,0,0,0,0,0,0,0,0,0,0
PE,Peru,country,Latin America and the Caribbean,-9.189967,-75.015152,SK,Slovak Rep.,country,Europe and Central Asia,48.669026,19.699024,11131.0226862782,1994,193,0,0,0,0,0,0,0,0,0,0,105,88,0,0,0,0,0,0,0,0,0,0,0
PH,Philippines,country,East Asia and Pacific,12.879721,121.774017,SK,Slovak Rep.,country,Europe and Central Asia,48.669026,19.699024,9810.11958540061,1994,36,0,0,0,0,0,26,0,4,0,6,0,0,0,0,0,0,0,0,0,0,0,0,0
PL,Poland,country,Europe and Central Asia,51.919438,19.145136,SK,Slovak Rep.,country,Europe and Central Asia,48.669026,19.699024,363.968890092027,1994,56431,212,25874,152,0,0,0,21924,6205,0,1,46,14,84,0,1839,0,11,69,0,0,0,0,0
PT,Portugal,country,Europe and Central Asia,39.399872,-8.224454,SK,Slovak Rep.,country,Europe and Central Asia,48.669026,19.699024,2443.16352677066,1994,10,0,0,0,0,0,0,3,0,0,1,0,0,6,0,0,0,0,0,0,0,0,0,0
KR,"Korea, Rep.",country,East Asia and Pacific,35.907757,127.766922,SK,Slovak Rep.,country,Europe and Central Asia,48.669026,19.699024,8245.21404851828,1994,53,0,0,0,0,0,0,0,21,0,0,0,0,22,0,0,0,0,0,10,0,0,0,0
MD,Moldova,country,Europe and Central Asia,47.411631,28.369885,SK,Slovak Rep.,country,Europe and Central Asia,48.669026,19.699024,659.975914633722,1994,1338,0,0,0,0,0,0,44,82,0,0,0,0,0,0,1172,0,0,0,40,0,0,0,0
RE,Reunion,country,Sub-Saharan Africa,-21.115141,55.536384,SK,Slovak Rep.,country,Europe and Central Asia,48.669026,19.699024,8545.57459542491,1994,4,0,0,0,0,0,0,0,4,0,0,0,0,0,0,0,0,0,0,0,0,0,0,0
RO,Romania,country,Europe and Central Asia,45.943161,24.96676,SK,Slovak Rep.,country,Europe and Central Asia,48.669026,19.699024,499.990009709658,1994,4364,83,684,0,0,0,0,111,88,0,0,0,0,0,574,2811,0,13,0,0,0,0,0,0
RU,Russian Federation,country,Europe and Central Asia,61.52401,105.318756,SK,Slovak Rep.,country,Europe and Central Asia,48.669026,19.699024,5213.58363494127,1994,41604,35344,0,0,0,0,0,0,0,812,0,214,27,209,174,0,0,0,0,4824,0,0,0,0
WS,Samoa,country,East Asia and Pacific,-13.759029,-172.104629,SK,Slovak Rep.,country,Europe and Central Asia,48.669026,19.699024,16002.6449992182,1994,5,0,0,0,0,0,0,2,2,0,1,0,0,0,0,0,0,0,0,0,0,0,0,0
SA,Saudi Arabia,country,Middle East and North Africa,23.885942,45.079162,SK,Slovak Rep.,country,Europe and Central Asia,48.669026,19.699024,3543.25374106467,1994,1,0,0,0,0,0,0,0,1,0,0,0,0,0,0,0,0,0,0,0,0,0,0,0
SN,Senegal,country,Sub-Saharan Africa,14.497401,-14.452362,SK,Slovak Rep.,country,Europe and Central Asia,48.669026,19.699024,4918.56648799334,1994,54,24,0,0,0,0,30,0,0,0,0,0,0,0,0,0,0,0,0,0,0,0,0,0
SC,Seychelles,country,Sub-Saharan Africa,-4.679574,55.491977,SK,Slovak Rep.,country,Europe and Central Asia,48.669026,19.699024,6878.94780004755,1994,1,0,0,0,0,0,0,0,0,0,1,0,0,0,0,0,0,0,0,0,0,0,0,0
SL,Sierra Leone,country,Sub-Saharan Africa,8.460555,-11.779889,SK,Slovak Rep.,country,Europe and Central Asia,48.669026,19.699024,5356.73702796425,1994,2,0,0,2,0,0,0,0,0,0,0,0,0,0,0,0,0,0,0,0,0,0,0,0
SG,Singapore,country,East Asia and Pacific,1.352083,103.819836,SK,Slovak Rep.,country,Europe and Central Asia,48.669026,19.699024,9473.7425588913,1994,331,0,0,0,0,0,0,0,6,0,0,0,0,325,0,0,0,0,0,0,0,0,0,0
SI,Slovenia,country,Europe and Central Asia,46.151241,14.995463,SK,Slovak Rep.,country,Europe and Central Asia,48.669026,19.699024,451.646620482029,1994,2513,174,1565,6,0,3,0,0,543,0,0,0,47,123,0,52,0,0,0,0,0,0,0,0
SB,Solomon Islands,country,East Asia and Pacific,-9.64571,160.156194,SK,Slovak Rep.,country,Europe and Central Asia,48.669026,19.699024,14348.4951568085,1994,111,0,0,0,0,0,0,0,0,0,0,0,111,0,0,0,0,0,0,0,0,0,0,0
ZA,S. Africa,country,Sub-Saharan Africa,-30.559482,22.937506,SK,Slovak Rep.,country,Europe and Central Asia,48.669026,19.699024,8825.57285851893,1994,733,0,0,0,0,0,0,4,481,5,0,0,0,0,0,0,0,0,0,243,0,0,0,0
ES,Spain,country,Europe and Central Asia,40.463667,-3.74922,SK,Slovak Rep.,country,Europe and Central Asia,48.669026,19.699024,2060.47825933092,1994,35607,148,52,487,30,311,92,1389,31177,0,214,2,214,125,53,1310,0,0,3,0,0,0,0,0
LK,Sri Lanka,country,South Asia,7.873054,80.771797,SK,Slovak Rep.,country,Europe and Central Asia,48.669026,19.699024,7259.20198267398,1994,221,0,0,0,0,0,214,0,0,0,0,0,7,0,0,0,0,0,0,0,0,0,0,0
SD,Sudan,country,Sub-Saharan Africa,12.862807,30.217636,SK,Slovak Rep.,country,Europe and Central Asia,48.669026,19.699024,4102.41279431453,1994,41,0,0,0,0,0,41,0,0,0,0,0,0,0,0,0,0,0,0,0,0,0,0,0
SR,Suriname,country,Latin America and the Caribbean,3.919305,-56.027783,SK,Slovak Rep.,country,Europe and Central Asia,48.669026,19.699024,8644.72571496472,1994,563,563,0,0,0,0,0,0,0,0,0,0,0,0,0,0,0,0,0,0,0,0,0,0
SE,Sweden,country,Europe and Central Asia,60.128161,18.643501,SK,Slovak Rep.,country,Europe and Central Asia,48.669026,19.699024,1277.41570459968,1994,1162,0,0,0,0,0,0,0,0,0,0,271,3,0,726,5,0,0,157,0,0,0,0,0
CH,Switzerland,country,Europe and Central Asia,46.818188,8.227512,SK,Slovak Rep.,country,Europe and Central Asia,48.669026,19.699024,882.157561183668,1994,3287,7,0,0,0,0,42,41,11,150,0,2695,185,141,0,0,0,15,0,0,0,0,0,0
SY,Syrian Arab Rep.,country,Middle East and North Africa,34.802075,38.996815,SK,Slovak Rep.,country,Europe and Central Asia,48.669026,19.699024,2213.41944175148,1994,26,4,0,22,0,0,0,0,0,0,0,0,0,0,0,0,0,0,0,0,0,0,0,0
TJ,Tajikistan,country,Europe and Central Asia,38.861034,71.276093,SK,Slovak Rep.,country,Europe and Central Asia,48.669026,19.699024,4201.94622430763,1994,1483,0,0,0,0,0,0,0,0,1483,0,0,0,0,0,0,0,0,0,0,0,0,0,0
TH,Thailand,country,East Asia and Pacific,15.870032,100.992541,SK,Slovak Rep.,country,Europe and Central Asia,48.669026,19.699024,8065.3673925535,1994,1854,253,0,0,1,0,0,36,1065,0,43,12,0,444,0,0,0,0,0,0,0,0,0,0
MK,Macedonia,country,Europe and Central Asia,41.608635,21.745275,SK,Slovak Rep.,country,Europe and Central Asia,48.669026,19.699024,802.132460514595,1994,790,7,2,1,0,0,0,163,515,0,59,0,3,28,0,0,0,0,12,0,0,0,0,0
TK,Tokelau,country,,-8.967363,-171.855881,SK,Slovak Rep.,country,Europe and Central Asia,48.669026,19.699024,15487.5305772057,1994,113,0,0,0,0,0,0,0,0,113,0,0,0,0,0,0,0,0,0,0,0,0,0,0
TN,Tunisia,country,Middle East and North Africa,33.886917,9.537499,SK,Slovak Rep.,country,Europe and Central Asia,48.669026,19.699024,1848.32430010649,1994,78,0,0,0,0,0,0,0,30,0,0,0,39,0,0,0,0,0,0,9,0,0,0,0
TR,Turkey,country,Europe and Central Asia,38.963745,35.243322,SK,Slovak Rep.,country,Europe and Central Asia,48.669026,19.699024,1645.46268972578,1994,6850,21,0,9,0,221,0,167,6301,0,18,0,1,112,0,0,0,0,0,0,0,0,0,0
TM,Turkmenistan,country,Europe and Central Asia,38.969719,59.556278,SK,Slovak Rep.,country,Europe and Central Asia,48.669026,19.699024,3334.78503394675,1994,1973,0,0,0,0,0,0,0,0,1973,0,0,0,0,0,0,0,0,0,0,0,0,0,0
UG,Uganda,country,Sub-Saharan Africa,1.373333,32.290275,SK,Slovak Rep.,country,Europe and Central Asia,48.669026,19.699024,5401.40782281378,1994,178,0,0,0,0,0,0,0,0,0,0,0,178,0,0,0,0,0,0,0,0,0,0,0
UA,Ukraine,country,Europe and Central Asia,48.379433,31.16558,SK,Slovak Rep.,country,Europe and Central Asia,48.669026,19.699024,845.215296141843,1994,46904,38767,110,0,557,0,1814,1217,456,1385,0,22,0,21,402,105,0,0,318,1730,0,0,0,0
AE,United Arab Emirates,country,Middle East and North Africa,23.424076,53.847818,SK,Slovak Rep.,country,Europe and Central Asia,48.669026,19.699024,4104.22239857601,1994,8,0,0,0,0,0,0,0,8,0,0,0,0,0,0,0,0,0,0,0,0,0,0,0
GB,United Kingdom,country,Europe and Central Asia,55.378051,-3.435973,SK,Slovak Rep.,country,Europe and Central Asia,48.669026,19.699024,1740.95685068405,1994,1701,10,0,211,0,0,53,28,51,6,0,828,11,13,0,477,38,13,0,0,0,0,0,0
TZ,Tanzania,country,Sub-Saharan Africa,-6.369028,34.888822,SK,Slovak Rep.,country,Europe and Central Asia,48.669026,19.699024,6303.57548634644,1994,40,0,0,0,0,0,0,0,0,0,0,0,0,40,0,0,0,0,0,0,0,0,0,0
US,USA,country,North America,37.09024,-95.712891,SK,Slovak Rep.,country,Europe and Central Asia,48.669026,19.699024,8559.56122867489,1994,6525,3530,0,0,34,81,74,207,49,0,4,1763,18,104,8,72,0,561,20,0,0,0,0,0
UY,Uruguay,country,Latin America and the Caribbean,-32.522779,-55.765835,SK,Slovak Rep.,country,Europe and Central Asia,48.669026,19.699024,11722.5267069637,1994,710,0,0,0,0,0,0,0,694,16,0,0,0,0,0,0,0,0,0,0,0,0,0,0
UZ,Uzbekistan,country,Europe and Central Asia,41.377491,64.585262,SK,Slovak Rep.,country,Europe and Central Asia,48.669026,19.699024,3569.23781615218,1994,6049,0,0,0,0,0,0,0,0,6049,0,0,0,0,0,0,0,0,0,0,0,0,0,0
VE,Venezuela,country,Latin America and the Caribbean,6.42375,-66.58973,SK,Slovak Rep.,country,Europe and Central Asia,48.669026,19.699024,9209.81182136399,1994,203,0,0,0,0,0,3,0,140,0,0,0,60,0,0,0,0,0,0,0,0,0,0,0
VN,Vietnam,country,East Asia and Pacific,14.058324,108.277199,SK,Slovak Rep.,country,Europe and Central Asia,48.669026,19.699024,8745.54084892293,1994,880,642,0,0,0,2,0,2,0,0,186,0,0,48,0,0,0,0,0,0,0,0,0,0
ZM,Zambia,country,Sub-Saharan Africa,-13.133897,27.849332,SK,Slovak Rep.,country,Europe and Central Asia,48.669026,19.699024,6926.78858665024,1994,14,0,0,0,0,0,0,0,14,0,0,0,0,0,0,0,0,0,0,0,0,0,0,0
ZW,Zimbabwe,country,Sub-Saharan Africa,-19.015438,29.154857,SK,Slovak Rep.,country,Europe and Central Asia,48.669026,19.699024,7592.98129763657,1994,355,0,0,11,0,0,0,0,0,0,0,0,0,344,0,0,0,0,0,0,0,0,0,0
AR,Argentina,country,Latin America and the Caribbean,-38.416097,-63.616672,SK,Slovak Rep.,country,Europe and Central Asia,48.669026,19.699024,12687.7934412495,1997,1,0,0,0,0,0,0,0,0,0,0,0,1,0,0,0,0,0,0,0,0,0,0,0
AU,Australia,country,East Asia and Pacific,-25.274398,133.775136,SK,Slovak Rep.,country,Europe and Central Asia,48.669026,19.699024,13842.417967848,1997,23,0,0,0,0,0,0,0,0,0,0,0,0,0,0,0,0,23,0,0,0,0,0,0
AT,Austria,country,Europe and Central Asia,47.516231,14.550072,SK,Slovak Rep.,country,Europe and Central Asia,48.669026,19.699024,403.681104129486,1997,3514,104,0,0,0,0,0,0,1822,0,0,1588,0,0,0,0,0,0,0,0,0,0,0,0
BE,Belgium,country,Europe and Central Asia,50.503887,4.469936,SK,Slovak Rep.,country,Europe and Central Asia,48.669026,19.699024,1115.79230067346,1997,24,0,0,0,0,0,0,0,0,0,0,0,0,0,24,0,0,0,0,0,0,0,0,0
BR,Brazil,country,Latin America and the Caribbean,-14.235004,-51.92528,SK,Slovak Rep.,country,Europe and Central Asia,48.669026,19.699024,9909.35749609004,1997,2,0,0,0,0,0,0,0,0,0,0,0,2,0,0,0,0,0,0,0,0,0,0,0
CA,Canada,country,North America,56.130366,-106.346771,SK,Slovak Rep.,country,Europe and Central Asia,48.669026,19.699024,7345.85757190154,1997,118,0,0,0,0,0,0,0,0,0,0,0,0,0,0,0,0,118,0,0,0,0,0,0
CL,Chile,country,Latin America and the Caribbean,-35.675147,-71.542969,SK,Slovak Rep.,country,Europe and Central Asia,48.669026,19.699024,12992.6261253828,1997,5477,0,0,0,0,0,0,0,5477,0,0,0,0,0,0,0,0,0,0,0,0,0,0,0
CN,China,country,East Asia and Pacific,35.86166,104.195397,SK,Slovak Rep.,country,Europe and Central Asia,48.669026,19.699024,6743.52783630172,1997,95,0,2,0,0,0,0,93,0,0,0,0,0,0,0,0,0,0,0,0,0,0,0,0
TW,Taiwan,country,East Asia and Pacific,23.69781,120.960515,SK,Slovak Rep.,country,Europe and Central Asia,48.669026,19.699024,8840.36547767449,1997,23736,0,0,0,0,0,0,31,0,0,0,0,3282,120,0,20303,0,0,0,0,0,0,0,0
HR,Croatia,country,Europe and Central Asia,45.1,15.2,SK,Slovak Rep.,country,Europe and Central Asia,48.669026,19.699024,524.232901555576,1997,2278,0,0,0,0,0,0,0,0,0,0,0,0,0,0,2278,0,0,0,0,0,0,0,0
CZ,Czech Republic,country,Europe and Central Asia,49.817492,15.472962,SK,Slovak Rep.,country,Europe and Central Asia,48.669026,19.699024,332.613983609082,1997,24173,521,932,154,2,0,60,1973,106,41,31,0,0,95,154,3541,2262,5358,3413,7788,4,0,0,0
CD,"Congo, Dem. Rep.",country,Sub-Saharan Africa,-4.038333,21.758664,SK,Slovak Rep.,country,Europe and Central Asia,48.669026,19.699024,5870.7677468208,1997,9309,0,0,0,0,0,0,0,0,0,0,0,9309,0,0,0,0,0,0,0,0,0,0,0
DK,Denmark,country,Europe and Central Asia,56.26392,9.501785,SK,Slovak Rep.,country,Europe and Central Asia,48.669026,19.699024,1089.95684863369,1997,88,0,0,0,0,0,0,0,0,0,0,0,0,0,88,0,0,0,0,0,0,0,0,0
FR,France,country,Europe and Central Asia,46.227638,2.213749,SK,Slovak Rep.,country,Europe and Central Asia,48.669026,19.699024,1340.89145486655,1997,5321,0,0,0,0,0,0,0,0,0,0,0,0,202,35,3711,0,591,782,0,0,0,0,0
DE,Germany,country,Europe and Central Asia,51.165691,10.451526,SK,Slovak Rep.,country,Europe and Central Asia,48.669026,19.699024,718.106805343431,1997,5178,282,0,157,0,0,0,0,0,0,0,0,107,162,2883,1380,0,168,39,0,0,0,0,0
GR,Greece,country,Europe and Central Asia,39.074208,21.824312,SK,Slovak Rep.,country,Europe and Central Asia,48.669026,19.699024,1081.50208782265,1997,27095,0,0,0,0,0,0,0,27095,0,0,0,0,0,0,0,0,0,0,0,0,0,0,0
GT,Guatemala,country,Latin America and the Caribbean,15.783471,-90.230759,SK,Slovak Rep.,country,Europe and Central Asia,48.669026,19.699024,10097.6905364674,1997,0,0,0,0,0,0,0,0,0,0,0,0,0,0,0,0,0,0,0,0,0,0,0,0
HU,Hungary,country,Europe and Central Asia,47.162494,19.503304,SK,Slovak Rep.,country,Europe and Central Asia,48.669026,19.699024,168.340731564295,1997,18107,355,0,0,0,0,0,852,13695,1,0,85,4,89,1095,0,21710,1879,52,0,0,0,0,0
IN,India,country,South Asia,20.593684,78.96288,SK,Slovak Rep.,country,Europe and Central Asia,48.669026,19.699024,6071.79778265058,1997,24,0,0,0,0,0,0,0,0,0,24,0,0,0,0,0,0,0,0,0,0,0,0,0
IR,Iran,country,Middle East and North Africa,32.427908,53.688046,SK,Slovak Rep.,country,Europe and Central Asia,48.669026,19.699024,3354.50169610042,1997,2,0,0,0,0,0,0,0,0,0,0,0,0,2,0,0,0,0,0,0,0,0,0,0
IL,Israel,country,Middle East and North Africa,31.046051,34.851612,SK,Slovak Rep.,country,Europe and Central Asia,48.669026,19.699024,2340.95347393149,1997,0,0,0,0,0,0,0,0,0,0,0,0,0,0,0,0,15789,0,0,0,0,0,0,0
IT,Italy,country,Europe and Central Asia,41.87194,12.56738,SK,Slovak Rep.,country,Europe and Central Asia,48.669026,19.699024,939.671508752536,1997,10911,797,0,0,29,0,0,151,5256,23,310,1496,629,468,544,547,0,528,12,121,0,0,0,0
LT,Lithuania,country,Europe and Central Asia,55.169438,23.881275,SK,Slovak Rep.,country,Europe and Central Asia,48.669026,19.699024,778.164409200553,1997,10,0,0,0,0,0,0,0,0,10,0,0,0,0,0,0,0,0,0,0,0,0,0,0
MG,Madagascar,country,Sub-Saharan Africa,-18.766947,46.869107,SK,Slovak Rep.,country,Europe and Central Asia,48.669026,19.699024,7976.7384388712,1997,33,0,0,0,0,0,0,0,0,0,33,0,0,0,0,0,0,0,0,0,0,0,0,0
MY,Malaysia,country,East Asia and Pacific,4.210484,101.975766,SK,Slovak Rep.,country,Europe and Central Asia,48.669026,19.699024,9099.39435570157,1997,169,0,0,0,0,0,0,0,0,0,0,169,0,0,0,0,0,0,0,0,0,0,0,0
MX,Mexico,country,Latin America and the Caribbean,23.634501,-102.552784,SK,Slovak Rep.,country,Europe and Central Asia,48.669026,19.699024,10157.9422913411,1997,10177,0,0,0,0,0,0,0,10131,0,0,0,46,0,0,0,0,0,0,0,0,0,0,0
MA,Morocco,country,Middle East and North Africa,31.791702,-7.09262,SK,Slovak Rep.,country,Europe and Central Asia,48.669026,19.699024,2925.04333524108,1997,108,0,0,0,0,0,108,0,0,0,0,0,0,0,0,0,0,0,0,0,0,0,0,0
NL,Netherlands,country,Europe and Central Asia,52.132633,5.291266,SK,Slovak Rep.,country,Europe and Central Asia,48.669026,19.699024,1090.33105897845,1997,31879,2731,4030,367,0,51,1775,14883,1594,0,0,0,414,428,4926,0,0,0,680,0,0,0,0,0
NZ,New Zealand,country,East Asia and Pacific,-40.900557,174.885971,SK,Slovak Rep.,country,Europe and Central Asia,48.669026,19.699024,17907.2416541012,1997,395,0,0,0,0,0,0,0,0,0,0,0,0,0,0,0,0,0,0,395,0,0,0,0
PK,Pakistan,country,South Asia,30.375321,69.345116,SK,Slovak Rep.,country,Europe and Central Asia,48.669026,19.699024,4622.93643972754,1997,303,0,0,0,0,0,0,0,0,291,0,0,0,12,0,0,0,0,0,0,0,0,0,0
PG,Papua New Guinea,country,East Asia and Pacific,-6.314993,143.95555,SK,Slovak Rep.,country,Europe and Central Asia,48.669026,19.699024,13010.7319994087,1997,4,0,0,0,0,0,0,0,0,0,4,0,0,0,0,0,0,0,0,0,0,0,0,0
PH,Philippines,country,East Asia and Pacific,12.879721,121.774017,SK,Slovak Rep.,country,Europe and Central Asia,48.669026,19.699024,9810.11958540061,1997,66710,0,0,0,0,0,0,0,66710,0,0,0,0,0,0,0,0,0,0,0,0,0,0,0
PL,Poland,country,Europe and Central Asia,51.919438,19.145136,SK,Slovak Rep.,country,Europe and Central Asia,48.669026,19.699024,363.968890092027,1997,23621,556,6541,0,0,0,0,5884,3236,556,0,0,3477,1837,643,0,0,891,0,0,0,0,0,0
PT,Portugal,country,Europe and Central Asia,39.399872,-8.224454,SK,Slovak Rep.,country,Europe and Central Asia,48.669026,19.699024,2443.16352677066,1997,8725,0,0,0,0,0,0,139,0,0,0,0,0,0,0,8586,0,0,0,0,0,0,0,0
PR,Puerto Rico,country,Latin America and the Caribbean,18.220833,-66.590149,SK,Slovak Rep.,country,Europe and Central Asia,48.669026,19.699024,8239.26417124769,1997,217,0,0,0,0,0,0,0,0,0,0,0,0,0,0,217,0,0,0,0,0,0,0,0
RO,Romania,country,Europe and Central Asia,45.943161,24.96676,SK,Slovak Rep.,country,Europe and Central Asia,48.669026,19.699024,499.990009709658,1997,14558,0,0,0,0,0,0,14558,0,0,0,0,0,0,0,0,0,0,0,0,0,0,0,0
RU,Russian Federation,country,Europe and Central Asia,61.52401,105.318756,SK,Slovak Rep.,country,Europe and Central Asia,48.669026,19.699024,5213.58363494127,1997,1542,0,0,175,0,0,0,0,0,0,0,0,0,0,0,0,0,0,0,1367,0,0,0,0
VC,St. Vincent & Grenadines,country,Latin America and the Caribbean,12.984305,-61.287228,SK,Slovak Rep.,country,Europe and Central Asia,48.669026,19.699024,8278.07282757062,1997,449,0,0,0,0,0,0,449,0,0,0,0,0,0,0,0,0,0,0,0,0,0,0,0
SA,Saudi Arabia,country,Middle East and North Africa,23.885942,45.079162,SK,Slovak Rep.,country,Europe and Central Asia,48.669026,19.699024,3543.25374106467,1997,1246,0,0,0,0,0,0,1246,0,0,0,0,0,0,0,0,0,0,0,0,0,0,0,0
RS,Serbia,country,Europe and Central Asia,44.016521,21.005859,SK,Slovak Rep.,country,Europe and Central Asia,48.669026,19.699024,527.538851466392,1997,36757,3602,0,0,0,0,0,0,0,0,753,14603,0,17799,0,0,0,0,0,0,0,0,0,0
SG,Singapore,country,East Asia and Pacific,1.352083,103.819836,SK,Slovak Rep.,country,Europe and Central Asia,48.669026,19.699024,9473.7425588913,1997,4491,0,0,0,0,0,0,0,0,0,0,0,0,4491,0,0,0,0,0,0,0,0,0,0
SI,Slovenia,country,Europe and Central Asia,46.151241,14.995463,SK,Slovak Rep.,country,Europe and Central Asia,48.669026,19.699024,451.646620482029,1997,73965,0,0,0,0,0,0,0,15908,0,0,0,0,555,0,50677,0,23,6802,0,0,0,0,0
ZA,S. Africa,country,Sub-Saharan Africa,-30.559482,22.937506,SK,Slovak Rep.,country,Europe and Central Asia,48.669026,19.699024,8825.57285851893,1997,18901,1019,0,0,0,0,2667,9641,4117,0,9,0,0,1448,0,0,0,0,0,0,0,0,0,0
ES,Spain,country,Europe and Central Asia,40.463667,-3.74922,SK,Slovak Rep.,country,Europe and Central Asia,48.669026,19.699024,2060.47825933092,1997,3305,0,0,0,0,0,0,0,397,0,0,0,0,2832,2,74,0,0,0,0,0,0,0,0
LK,Sri Lanka,country,South Asia,7.873054,80.771797,SK,Slovak Rep.,country,Europe and Central Asia,48.669026,19.699024,7259.20198267398,1997,475,0,0,0,0,0,0,0,0,0,0,31,26,418,0,0,0,0,0,0,0,0,0,0
SE,Sweden,country,Europe and Central Asia,60.128161,18.643501,SK,Slovak Rep.,country,Europe and Central Asia,48.669026,19.699024,1277.41570459968,1997,38382,15666,0,0,0,0,0,0,280,0,0,0,0,0,0,18023,0,0,4245,168,0,0,0,0
CH,Switzerland,country,Europe and Central Asia,46.818188,8.227512,SK,Slovak Rep.,country,Europe and Central Asia,48.669026,19.699024,882.157561183668,1997,58,0,0,0,58,0,0,0,0,0,0,0,0,0,0,0,0,0,0,0,0,0,0,0
SY,Syrian Arab Rep.,country,Middle East and North Africa,34.802075,38.996815,SK,Slovak Rep.,country,Europe and Central Asia,48.669026,19.699024,2213.41944175148,1997,58,0,0,0,0,0,0,0,0,0,53,0,0,5,0,0,0,0,0,0,0,0,0,0
TH,Thailand,country,East Asia and Pacific,15.870032,100.992541,SK,Slovak Rep.,country,Europe and Central Asia,48.669026,19.699024,8065.3673925535,1997,45734,248,0,0,0,0,0,3762,706,0,0,40938,0,80,0,0,0,0,0,0,0,0,0,0
TR,Turkey,country,Europe and Central Asia,38.963745,35.243322,SK,Slovak Rep.,country,Europe and Central Asia,48.669026,19.699024,1645.46268972578,1997,54158,5574,0,5379,71,122,1083,6605,23299,0,20,0,8541,1042,2422,0,0,0,0,0,0,0,0,0
UA,Ukraine,country,Europe and Central Asia,48.379433,31.16558,SK,Slovak Rep.,country,Europe and Central Asia,48.669026,19.699024,845.215296141843,1997,49697,36472,0,0,0,0,0,0,19,23,0,714,0,155,193,0,0,0,0,12121,0,0,0,0
GB,United Kingdom,country,Europe and Central Asia,55.378051,-3.435973,SK,Slovak Rep.,country,Europe and Central Asia,48.669026,19.699024,1740.95685068405,1997,5164,991,0,21,0,0,0,0,423,0,0,0,0,1903,11,1815,0,0,0,0,0,0,0,0
TZ,Tanzania,country,Sub-Saharan Africa,-6.369028,34.888822,SK,Slovak Rep.,country,Europe and Central Asia,48.669026,19.699024,6303.57548634644,1997,1364,0,0,0,0,0,0,0,0,0,0,0,0,1364,0,0,0,0,0,0,0,0,0,0
US,USA,country,North America,37.09024,-95.712891,SK,Slovak Rep.,country,Europe and Central Asia,48.669026,19.699024,8559.56122867489,1997,58905,0,0,38339,1543,1004,1218,795,4075,0,0,1342,1068,6598,2317,0,0,0,174,432,0,0,0,0
UY,Uruguay,country,Latin America and the Caribbean,-32.522779,-55.765835,SK,Slovak Rep.,country,Europe and Central Asia,48.669026,19.699024,11722.5267069637,1997,8430,0,0,0,0,0,0,0,4807,2594,0,0,241,788,0,0,0,0,0,0,0,0,0,0
UZ,Uzbekistan,country,Europe and Central Asia,41.377491,64.585262,SK,Slovak Rep.,country,Europe and Central Asia,48.669026,19.699024,3569.23781615218,1997,87755,79532,0,0,0,0,0,0,0,8223,0,0,0,0,0,0,0,0,0,0,0,0,0,0
VU,Vanuatu,country,East Asia and Pacific,-15.376706,166.959158,SK,Slovak Rep.,country,Europe and Central Asia,48.669026,19.699024,15282.3428636346,1997,6883,0,0,0,0,0,0,0,0,0,0,0,6883,0,0,0,0,0,0,0,0,0,0,0
VN,Vietnam,country,East Asia and Pacific,14.058324,108.277199,SK,Slovak Rep.,country,Europe and Central Asia,48.669026,19.699024,8745.54084892293,1997,65771,38732,0,0,0,630,0,0,0,0,589,0,3141,22679,0,0,0,0,0,0,0,0,0,0
ZW,Zimbabwe,country,Sub-Saharan Africa,-19.015438,29.154857,SK,Slovak Rep.,country,Europe and Central Asia,48.669026,19.699024,7592.98129763657,1997,2712,0,0,0,0,0,0,0,0,0,0,0,0,2712,0,0,0,0,0,0,0,0,0,0
AU,Australia,country,East Asia and Pacific,-25.274398,133.775136,SK,Slovak Rep.,country,Europe and Central Asia,48.669026,19.699024,13842.417967848,1998,39,0,0,0,0,0,0,0,0,0,0,0,0,0,0,0,0,39,0,0,0,0,0,0
AT,Austria,country,Europe and Central Asia,47.516231,14.550072,SK,Slovak Rep.,country,Europe and Central Asia,48.669026,19.699024,403.681104129486,1998,762,88,0,0,0,0,0,0,478,0,0,0,14,15,0,0,0,0,167,0,0,0,0,0
BE,Belgium,country,Europe and Central Asia,50.503887,4.469936,SK,Slovak Rep.,country,Europe and Central Asia,48.669026,19.699024,1115.79230067346,1998,7,0,0,0,0,0,0,0,0,0,0,0,0,0,0,0,0,7,0,0,0,0,0,0
CN,China,country,East Asia and Pacific,35.86166,104.195397,SK,Slovak Rep.,country,Europe and Central Asia,48.669026,19.699024,6743.52783630172,1998,14,4,0,0,0,0,0,10,0,0,0,0,0,0,0,0,0,0,0,0,0,0,0,0
TW,Taiwan,country,East Asia and Pacific,23.69781,120.960515,SK,Slovak Rep.,country,Europe and Central Asia,48.669026,19.699024,8840.36547767449,1998,15759,0,0,0,0,0,0,35,0,0,0,0,199,1,0,15524,0,0,0,0,0,0,0,0
CR,Costa Rica,country,Latin America and the Caribbean,9.748917,-83.753428,SK,Slovak Rep.,country,Europe and Central Asia,48.669026,19.699024,10173.5396848959,1998,0,0,0,0,0,0,0,0,0,0,0,0,0,0,0,0,0,0,0,0,0,0,0,0
HR,Croatia,country,Europe and Central Asia,45.1,15.2,SK,Slovak Rep.,country,Europe and Central Asia,48.669026,19.699024,524.232901555576,1998,202,0,0,0,0,0,202,0,0,0,0,0,0,0,0,0,0,0,0,0,0,0,0,0
CZ,Czech Republic,country,Europe and Central Asia,49.817492,15.472962,SK,Slovak Rep.,country,Europe and Central Asia,48.669026,19.699024,332.613983609082,1998,19609,221,0,2510,0,0,0,1055,67,33,0,580,0,1648,0,5822,12709,4427,3246,0,0,0,0,0
CD,"Congo, Dem. Rep.",country,Sub-Saharan Africa,-4.038333,21.758664,SK,Slovak Rep.,country,Europe and Central Asia,48.669026,19.699024,5870.7677468208,1998,9825,0,0,0,0,0,0,0,0,0,0,0,9825,0,0,0,0,0,0,0,0,0,0,0
DK,Denmark,country,Europe and Central Asia,56.26392,9.501785,SK,Slovak Rep.,country,Europe and Central Asia,48.669026,19.699024,1089.95684863369,1998,291,0,0,0,0,0,0,0,0,0,0,0,0,0,272,0,0,19,0,0,0,0,0,0
SV,El Salvador,country,Latin America and the Caribbean,13.794185,-88.89653,SK,Slovak Rep.,country,Europe and Central Asia,48.669026,19.699024,10181.2755973345,1998,9011,0,0,0,0,0,0,0,9011,0,0,0,0,0,0,0,0,0,0,0,0,0,0,0
FR,France,country,Europe and Central Asia,46.227638,2.213749,SK,Slovak Rep.,country,Europe and Central Asia,48.669026,19.699024,1340.89145486655,1998,4012,0,0,0,0,0,0,3,0,0,0,0,0,17,0,3229,0,667,96,0,0,0,0,0
DE,Germany,country,Europe and Central Asia,51.165691,10.451526,SK,Slovak Rep.,country,Europe and Central Asia,48.669026,19.699024,718.106805343431,1998,4267,53,0,0,0,0,0,0,632,23,0,0,0,132,2711,0,0,0,9,707,0,0,0,0
GR,Greece,country,Europe and Central Asia,39.074208,21.824312,SK,Slovak Rep.,country,Europe and Central Asia,48.669026,19.699024,1081.50208782265,1998,79,0,0,0,0,0,0,0,0,0,79,0,0,0,0,0,0,0,0,0,0,0,0,0
HU,Hungary,country,Europe and Central Asia,47.162494,19.503304,SK,Slovak Rep.,country,Europe and Central Asia,48.669026,19.699024,168.340731564295,1998,19118,311,0,504,30,0,440,503,0,45,0,0,0,9,3739,0,8827,12448,885,204,0,0,0,0
IN,India,country,South Asia,20.593684,78.96288,SK,Slovak Rep.,country,Europe and Central Asia,48.669026,19.699024,6071.79778265058,1998,158,0,0,0,0,0,0,0,0,0,10,0,0,0,148,0,0,0,0,0,0,0,0,0
ID,Indonesia,country,East Asia and Pacific,-0.789275,113.921327,SK,Slovak Rep.,country,Europe and Central Asia,48.669026,19.699024,10395.0438902824,1998,39,0,0,0,0,0,0,0,0,0,0,0,0,38,1,0,0,0,0,0,0,0,0,0
IR,Iran,country,Middle East and North Africa,32.427908,53.688046,SK,Slovak Rep.,country,Europe and Central Asia,48.669026,19.699024,3354.50169610042,1998,81,0,0,0,0,0,0,0,0,0,79,0,0,2,0,0,0,0,0,0,0,0,0,0
IL,Israel,country,Middle East and North Africa,31.046051,34.851612,SK,Slovak Rep.,country,Europe and Central Asia,48.669026,19.699024,2340.95347393149,1998,31,0,0,0,0,0,0,0,31,0,0,0,0,0,0,0,7356,0,0,0,0,0,0,0
IT,Italy,country,Europe and Central Asia,41.87194,12.56738,SK,Slovak Rep.,country,Europe and Central Asia,48.669026,19.699024,939.671508752536,1998,44188,132,0,0,0,0,0,221,38688,0,254,14,0,6,2361,1578,0,928,6,0,0,0,0,0
JP,Japan,country,East Asia and Pacific,36.204824,138.252924,SK,Slovak Rep.,country,Europe and Central Asia,48.669026,19.699024,8807.11191313363,1998,3477,33,13,0,41,0,0,0,0,0,0,0,0,0,0,3390,0,0,0,0,0,0,0,0
JO,Jordan,country,Middle East and North Africa,30.585164,36.238414,SK,Slovak Rep.,country,Europe and Central Asia,48.669026,19.699024,2450.79745021181,1998,61,0,0,0,0,0,0,0,0,0,0,0,0,61,0,0,0,0,0,0,0,0,0,0
MG,Madagascar,country,Sub-Saharan Africa,-18.766947,46.869107,SK,Slovak Rep.,country,Europe and Central Asia,48.669026,19.699024,7976.7384388712,1998,4,0,0,0,0,0,0,0,0,0,4,0,0,0,0,0,0,0,0,0,0,0,0,0
MY,Malaysia,country,East Asia and Pacific,4.210484,101.975766,SK,Slovak Rep.,country,Europe and Central Asia,48.669026,19.699024,9099.39435570157,1998,39,0,0,0,0,0,0,0,0,0,11,28,0,0,0,0,0,0,0,0,0,0,0,0
NL,Netherlands,country,Europe and Central Asia,52.132633,5.291266,SK,Slovak Rep.,country,Europe and Central Asia,48.669026,19.699024,1090.33105897845,1998,30927,3056,3148,454,158,92,10295,872,2249,0,79,38,1438,2211,4221,2414,0,0,202,0,0,0,0,0
NZ,New Zealand,country,East Asia and Pacific,-40.900557,174.885971,SK,Slovak Rep.,country,Europe and Central Asia,48.669026,19.699024,17907.2416541012,1998,3471,0,0,0,0,0,0,0,3175,296,0,0,0,0,0,0,0,0,0,0,0,0,0,0
PG,Papua New Guinea,country,East Asia and Pacific,-6.314993,143.95555,SK,Slovak Rep.,country,Europe and Central Asia,48.669026,19.699024,13010.7319994087,1998,1,0,0,0,0,0,0,0,0,0,1,0,0,0,0,0,0,0,0,0,0,0,0,0
PH,Philippines,country,East Asia and Pacific,12.879721,121.774017,SK,Slovak Rep.,country,Europe and Central Asia,48.669026,19.699024,9810.11958540061,1998,28,0,0,0,0,0,0,0,0,0,0,0,0,28,0,0,0,0,0,0,0,0,0,0
PL,Poland,country,Europe and Central Asia,51.919438,19.145136,SK,Slovak Rep.,country,Europe and Central Asia,48.669026,19.699024,363.968890092027,1998,71955,3367,7464,0,192,0,0,25643,8498,0,0,18,8057,6586,0,0,0,2751,9379,0,0,0,0,0
PT,Portugal,country,Europe and Central Asia,39.399872,-8.224454,SK,Slovak Rep.,country,Europe and Central Asia,48.669026,19.699024,2443.16352677066,1998,172,0,0,0,0,0,0,172,0,0,0,0,0,0,0,0,0,0,0,0,0,0,0,0
RU,Russian Federation,country,Europe and Central Asia,61.52401,105.318756,SK,Slovak Rep.,country,Europe and Central Asia,48.669026,19.699024,5213.58363494127,1998,1624,0,0,0,0,0,0,0,0,0,18,0,0,0,0,0,0,0,0,1606,0,0,0,0
SN,Senegal,country,Sub-Saharan Africa,14.497401,-14.452362,SK,Slovak Rep.,country,Europe and Central Asia,48.669026,19.699024,4918.56648799334,1998,112,0,0,0,0,0,0,15,0,0,0,0,97,0,0,0,0,0,0,0,0,0,0,0
RS,Serbia,country,Europe and Central Asia,44.016521,21.005859,SK,Slovak Rep.,country,Europe and Central Asia,48.669026,19.699024,527.538851466392,1998,27412,5843,0,0,0,0,0,265,2704,0,817,0,1335,8186,8262,0,0,0,0,0,0,0,0,0
SI,Slovenia,country,Europe and Central Asia,46.151241,14.995463,SK,Slovak Rep.,country,Europe and Central Asia,48.669026,19.699024,451.646620482029,1998,21666,0,0,0,0,0,0,0,12840,0,0,0,0,1616,0,0,0,28,7182,0,0,0,0,0
SO,Somalia,country,Sub-Saharan Africa,5.152149,46.199616,SK,Slovak Rep.,country,Europe and Central Asia,48.669026,19.699024,5454.62379783004,1998,14,0,0,0,0,0,0,0,0,0,0,0,0,14,0,0,0,0,0,0,0,0,0,0
ZA,S. Africa,country,Sub-Saharan Africa,-30.559482,22.937506,SK,Slovak Rep.,country,Europe and Central Asia,48.669026,19.699024,8825.57285851893,1998,72609,0,0,0,0,0,2932,9485,57208,0,0,0,0,2109,386,0,0,0,0,489,0,0,0,0
ES,Spain,country,Europe and Central Asia,40.463667,-3.74922,SK,Slovak Rep.,country,Europe and Central Asia,48.669026,19.699024,2060.47825933092,1998,8450,0,0,0,0,0,0,8437,0,0,0,4,0,0,9,0,0,0,0,0,0,0,0,0
LK,Sri Lanka,country,South Asia,7.873054,80.771797,SK,Slovak Rep.,country,Europe and Central Asia,48.669026,19.699024,7259.20198267398,1998,29,0,0,0,0,0,0,0,0,0,0,29,0,0,0,0,0,0,0,0,0,0,0,0
SD,Sudan,country,Sub-Saharan Africa,12.862807,30.217636,SK,Slovak Rep.,country,Europe and Central Asia,48.669026,19.699024,4102.41279431453,1998,240,0,0,0,0,0,230,0,0,0,0,0,0,10,0,0,0,0,0,0,0,0,0,0
SE,Sweden,country,Europe and Central Asia,60.128161,18.643501,SK,Slovak Rep.,country,Europe and Central Asia,48.669026,19.699024,1277.41570459968,1998,25021,82,0,0,0,0,0,0,0,0,0,1754,185,0,430,22570,0,0,0,0,0,0,0,0
CH,Switzerland,country,Europe and Central Asia,46.818188,8.227512,SK,Slovak Rep.,country,Europe and Central Asia,48.669026,19.699024,882.157561183668,1998,1,1,0,0,0,0,0,0,0,0,0,0,0,0,0,0,0,0,0,0,0,0,0,0
TH,Thailand,country,East Asia and Pacific,15.870032,100.992541,SK,Slovak Rep.,country,Europe and Central Asia,48.669026,19.699024,8065.3673925535,1998,101456,5024,0,0,0,0,0,2724,61721,0,8,3349,0,5239,0,23391,0,0,0,0,0,0,0,0
TR,Turkey,country,Europe and Central Asia,38.963745,35.243322,SK,Slovak Rep.,country,Europe and Central Asia,48.669026,19.699024,1645.46268972578,1998,38422,11795,0,476,0,786,892,11317,328,212,204,0,10935,1477,0,0,0,0,0,0,0,0,0,0
UA,Ukraine,country,Europe and Central Asia,48.379433,31.16558,SK,Slovak Rep.,country,Europe and Central Asia,48.669026,19.699024,845.215296141843,1998,22775,306,0,0,0,0,0,0,672,511,0,0,0,303,983,91,0,0,0,19909,0,0,0,0
GB,United Kingdom,country,Europe and Central Asia,55.378051,-3.435973,SK,Slovak Rep.,country,Europe and Central Asia,48.669026,19.699024,1740.95685068405,1998,3758,1017,0,3,0,0,179,0,546,0,0,0,0,0,2,2011,0,0,0,0,0,0,0,0
TZ,Tanzania,country,Sub-Saharan Africa,-6.369028,34.888822,SK,Slovak Rep.,country,Europe and Central Asia,48.669026,19.699024,6303.57548634644,1998,1156,0,0,0,0,0,0,0,0,0,0,0,0,1156,0,0,0,0,0,0,0,0,0,0
US,USA,country,North America,37.09024,-95.712891,SK,Slovak Rep.,country,Europe and Central Asia,48.669026,19.699024,8559.56122867489,1998,314734,12440,0,39704,3443,966,805,3958,6135,7,54,225730,60,20595,314,0,0,523,0,0,0,0,0,0
UY,Uruguay,country,Latin America and the Caribbean,-32.522779,-55.765835,SK,Slovak Rep.,country,Europe and Central Asia,48.669026,19.699024,11722.5267069637,1998,870,0,0,0,0,0,0,0,0,0,0,0,0,870,0,0,0,0,0,0,0,0,0,0
UZ,Uzbekistan,country,Europe and Central Asia,41.377491,64.585262,SK,Slovak Rep.,country,Europe and Central Asia,48.669026,19.699024,3569.23781615218,1998,8852,0,0,0,0,0,0,0,0,8852,0,0,0,0,0,0,0,0,0,0,0,0,0,0
VN,Vietnam,country,East Asia and Pacific,14.058324,108.277199,SK,Slovak Rep.,country,Europe and Central Asia,48.669026,19.699024,8745.54084892293,1998,59985,33844,0,0,0,94,0,0,1343,0,442,0,3509,20753,0,0,0,0,0,0,0,0,0,0
ZW,Zimbabwe,country,Sub-Saharan Africa,-19.015438,29.154857,SK,Slovak Rep.,country,Europe and Central Asia,48.669026,19.699024,7592.98129763657,1998,4652,0,0,0,0,0,0,0,720,0,0,0,0,3932,0,0,0,0,0,0,0,0,0,0
AT,Austria,country,Europe and Central Asia,47.516231,14.550072,SK,Slovak Rep.,country,Europe and Central Asia,48.669026,19.699024,403.681104129486,1999,59,2,0,0,0,0,0,0,57,0,0,0,0,0,0,0,0,0,0,0,0,0,0,0
BE,Belgium,country,Europe and Central Asia,50.503887,4.469936,SK,Slovak Rep.,country,Europe and Central Asia,48.669026,19.699024,1115.79230067346,1999,50,0,0,0,0,0,0,0,0,0,0,0,0,0,0,0,0,0,50,0,0,0,0,0
CN,China,country,East Asia and Pacific,35.86166,104.195397,SK,Slovak Rep.,country,Europe and Central Asia,48.669026,19.699024,6743.52783630172,1999,7,5,0,0,0,0,0,2,0,0,0,0,0,0,0,0,0,0,0,0,0,0,0,0
TW,Taiwan,country,East Asia and Pacific,23.69781,120.960515,SK,Slovak Rep.,country,Europe and Central Asia,48.669026,19.699024,8840.36547767449,1999,21926,0,0,0,0,0,0,0,21926,0,0,0,0,0,0,0,0,0,0,0,0,0,0,0
CR,Costa Rica,country,Latin America and the Caribbean,9.748917,-83.753428,SK,Slovak Rep.,country,Europe and Central Asia,48.669026,19.699024,10173.5396848959,1999,0,0,0,0,0,0,0,0,0,0,0,0,0,0,0,0,0,0,0,0,0,0,0,0
HR,Croatia,country,Europe and Central Asia,45.1,15.2,SK,Slovak Rep.,country,Europe and Central Asia,48.669026,19.699024,524.232901555576,1999,34997,0,0,0,0,0,34997,0,0,0,0,0,0,0,0,0,0,0,0,0,0,0,0,0
CZ,Czech Republic,country,Europe and Central Asia,49.817492,15.472962,SK,Slovak Rep.,country,Europe and Central Asia,48.669026,19.699024,332.613983609082,1999,52581,9124,0,209,0,0,1256,2000,0,32,4,1625,0,2362,0,30752,620761,1648,3569,0,0,0,0,0
DK,Denmark,country,Europe and Central Asia,56.26392,9.501785,SK,Slovak Rep.,country,Europe and Central Asia,48.669026,19.699024,1089.95684863369,1999,3808,0,0,0,0,0,0,0,0,0,0,0,0,6,486,0,0,3316,0,0,0,0,0,0
FI,Finland,country,Europe and Central Asia,61.92411,25.748151,SK,Slovak Rep.,country,Europe and Central Asia,48.669026,19.699024,1522.94399461862,1999,0,0,0,0,0,0,0,0,0,0,0,0,0,0,0,0,0,0,0,0,0,0,0,0
FR,France,country,Europe and Central Asia,46.227638,2.213749,SK,Slovak Rep.,country,Europe and Central Asia,48.669026,19.699024,1340.89145486655,1999,1554,0,0,0,0,0,0,0,1420,26,0,0,0,0,0,0,0,37,71,0,0,0,0,0
DE,Germany,country,Europe and Central Asia,51.165691,10.451526,SK,Slovak Rep.,country,Europe and Central Asia,48.669026,19.699024,718.106805343431,1999,11322,35,0,0,0,8,0,33,725,0,0,0,84,58,4666,3361,0,0,1845,507,0,0,0,0
GR,Greece,country,Europe and Central Asia,39.074208,21.824312,SK,Slovak Rep.,country,Europe and Central Asia,48.669026,19.699024,1081.50208782265,1999,2708,0,0,0,0,0,178,0,0,0,0,0,0,0,0,2530,0,0,0,0,0,0,0,0
HU,Hungary,country,Europe and Central Asia,47.162494,19.503304,SK,Slovak Rep.,country,Europe and Central Asia,48.669026,19.699024,168.340731564295,1999,30210,936,0,0,3,0,837,578,7561,0,0,0,0,1792,3283,0,827558,14769,451,0,0,0,0,0
IN,India,country,South Asia,20.593684,78.96288,SK,Slovak Rep.,country,Europe and Central Asia,48.669026,19.699024,6071.79778265058,1999,147,0,0,0,0,0,0,0,0,34,3,0,0,1,109,0,0,0,0,0,0,0,0,0
IR,Iran,country,Middle East and North Africa,32.427908,53.688046,SK,Slovak Rep.,country,Europe and Central Asia,48.669026,19.699024,3354.50169610042,1999,2,0,0,0,0,0,0,0,0,0,0,0,0,2,0,0,0,0,0,0,0,0,0,0
IE,Ireland,country,Europe and Central Asia,53.41291,-8.24389,SK,Slovak Rep.,country,Europe and Central Asia,48.669026,19.699024,2011.45192831536,1999,1467,0,0,0,0,0,0,0,0,0,0,0,0,0,0,1467,0,0,0,0,0,0,0,0
IL,Israel,country,Middle East and North Africa,31.046051,34.851612,SK,Slovak Rep.,country,Europe and Central Asia,48.669026,19.699024,2340.95347393149,1999,0,0,0,0,0,0,0,0,0,0,0,0,0,0,0,0,11925,0,0,0,0,0,0,0
IT,Italy,country,Europe and Central Asia,41.87194,12.56738,SK,Slovak Rep.,country,Europe and Central Asia,48.669026,19.699024,939.671508752536,1999,7758,1843,0,0,0,0,0,1680,1917,0,0,32,0,26,32,1006,0,0,1222,0,0,0,0,0
JP,Japan,country,East Asia and Pacific,36.204824,138.252924,SK,Slovak Rep.,country,Europe and Central Asia,48.669026,19.699024,8807.11191313363,1999,86,0,0,0,0,0,0,86,0,0,0,0,0,0,0,0,0,0,0,0,0,0,0,0
MY,Malaysia,country,East Asia and Pacific,4.210484,101.975766,SK,Slovak Rep.,country,Europe and Central Asia,48.669026,19.699024,9099.39435570157,1999,2310,0,0,0,0,0,0,0,0,0,0,2285,0,0,25,0,0,0,0,0,0,0,0,0
MX,Mexico,country,Latin America and the Caribbean,23.634501,-102.552784,SK,Slovak Rep.,country,Europe and Central Asia,48.669026,19.699024,10157.9422913411,1999,8420,0,0,0,0,0,0,0,8420,0,0,0,0,0,0,0,0,0,0,0,0,0,0,0
NL,Netherlands,country,Europe and Central Asia,52.132633,5.291266,SK,Slovak Rep.,country,Europe and Central Asia,48.669026,19.699024,1090.33105897845,1999,194237,0,3727,6162,0,0,732,9512,25,10,166,158531,1317,2396,11589,3,0,0,67,0,0,0,0,0
NZ,New Zealand,country,East Asia and Pacific,-40.900557,174.885971,SK,Slovak Rep.,country,Europe and Central Asia,48.669026,19.699024,17907.2416541012,1999,4130,0,0,0,0,0,0,0,3204,0,0,0,0,80,0,0,0,0,0,846,0,0,0,0
PA,Panama,country,Latin America and the Caribbean,8.537981,-80.782127,SK,Slovak Rep.,country,Europe and Central Asia,48.669026,19.699024,10065.4508041533,1999,60,0,0,0,0,0,0,0,0,0,0,0,0,60,0,0,0,0,0,0,0,0,0,0
PG,Papua New Guinea,country,East Asia and Pacific,-6.314993,143.95555,SK,Slovak Rep.,country,Europe and Central Asia,48.669026,19.699024,13010.7319994087,1999,1,0,0,0,0,0,0,0,0,0,1,0,0,0,0,0,0,0,0,0,0,0,0,0
PL,Poland,country,Europe and Central Asia,51.919438,19.145136,SK,Slovak Rep.,country,Europe and Central Asia,48.669026,19.699024,363.968890092027,1999,117493,6234,7869,47195,179,654,0,4380,7856,0,244,38,2478,6830,15116,0,0,4883,13173,364,0,0,0,0
PT,Portugal,country,Europe and Central Asia,39.399872,-8.224454,SK,Slovak Rep.,country,Europe and Central Asia,48.669026,19.699024,2443.16352677066,1999,1981,0,0,0,0,0,0,154,0,0,0,0,0,0,0,1827,0,0,0,0,0,0,0,0
PR,Puerto Rico,country,Latin America and the Caribbean,18.220833,-66.590149,SK,Slovak Rep.,country,Europe and Central Asia,48.669026,19.699024,8239.26417124769,1999,22,0,0,0,0,22,0,0,0,0,0,0,0,0,0,0,0,0,0,0,0,0,0,0
RO,Romania,country,Europe and Central Asia,45.943161,24.96676,SK,Slovak Rep.,country,Europe and Central Asia,48.669026,19.699024,499.990009709658,1999,1838,0,0,0,0,0,0,209,0,1281,0,0,0,0,0,0,0,0,0,348,0,0,0,0
RU,Russian Federation,country,Europe and Central Asia,61.52401,105.318756,SK,Slovak Rep.,country,Europe and Central Asia,48.669026,19.699024,5213.58363494127,1999,2,0,0,0,0,0,0,0,0,0,2,0,0,0,0,0,0,0,0,0,0,0,0,0
RS,Serbia,country,Europe and Central Asia,44.016521,21.005859,SK,Slovak Rep.,country,Europe and Central Asia,48.669026,19.699024,527.538851466392,1999,15399,0,0,1331,0,0,2938,790,516,0,909,0,141,7824,950,0,0,0,0,0,0,0,0,0
SI,Slovenia,country,Europe and Central Asia,46.151241,14.995463,SK,Slovak Rep.,country,Europe and Central Asia,48.669026,19.699024,451.646620482029,1999,47882,1309,38419,0,0,0,0,0,7823,0,0,0,0,330,0,0,0,1,0,0,0,0,0,0
ZA,S. Africa,country,Sub-Saharan Africa,-30.559482,22.937506,SK,Slovak Rep.,country,Europe and Central Asia,48.669026,19.699024,8825.57285851893,1999,88292,0,0,0,0,0,152,21592,60934,0,10,0,0,5255,349,0,0,0,0,0,0,0,0,0
ES,Spain,country,Europe and Central Asia,40.463667,-3.74922,SK,Slovak Rep.,country,Europe and Central Asia,48.669026,19.699024,2060.47825933092,1999,398,0,0,0,0,0,0,0,387,0,0,0,0,7,4,0,0,0,0,0,0,0,0,0
LK,Sri Lanka,country,South Asia,7.873054,80.771797,SK,Slovak Rep.,country,Europe and Central Asia,48.669026,19.699024,7259.20198267398,1999,42,0,0,0,0,0,0,0,0,0,0,42,0,0,0,0,0,0,0,0,0,0,0,0
SE,Sweden,country,Europe and Central Asia,60.128161,18.643501,SK,Slovak Rep.,country,Europe and Central Asia,48.669026,19.699024,1277.41570459968,1999,5401,1214,0,0,0,0,0,0,539,0,0,1850,0,92,0,1706,0,0,0,0,0,0,0,0
CH,Switzerland,country,Europe and Central Asia,46.818188,8.227512,SK,Slovak Rep.,country,Europe and Central Asia,48.669026,19.699024,882.157561183668,1999,486,0,0,0,0,0,0,0,0,0,0,0,0,0,0,0,0,0,486,0,0,0,0,0
TH,Thailand,country,East Asia and Pacific,15.870032,100.992541,SK,Slovak Rep.,country,Europe and Central Asia,48.669026,19.699024,8065.3673925535,1999,70731,486,0,0,0,72,0,5739,64224,0,0,0,0,210,0,0,0,0,0,0,0,0,0,0
TN,Tunisia,country,Middle East and North Africa,33.886917,9.537499,SK,Slovak Rep.,country,Europe and Central Asia,48.669026,19.699024,1848.32430010649,1999,195,0,0,0,0,0,0,0,0,0,0,0,0,78,117,0,0,0,0,0,0,0,0,0
TR,Turkey,country,Europe and Central Asia,38.963745,35.243322,SK,Slovak Rep.,country,Europe and Central Asia,48.669026,19.699024,1645.46268972578,1999,30428,11484,0,5881,0,0,0,9049,3026,136,155,0,697,0,0,0,0,0,0,0,0,0,0,0
UG,Uganda,country,Sub-Saharan Africa,1.373333,32.290275,SK,Slovak Rep.,country,Europe and Central Asia,48.669026,19.699024,5401.40782281378,1999,7445,0,0,0,0,0,0,0,0,0,0,0,7445,0,0,0,0,0,0,0,0,0,0,0
UA,Ukraine,country,Europe and Central Asia,48.379433,31.16558,SK,Slovak Rep.,country,Europe and Central Asia,48.669026,19.699024,845.215296141843,1999,16927,61,0,0,0,0,38,0,120,748,0,0,0,0,0,15800,0,0,0,160,0,0,0,0
GB,United Kingdom,country,Europe and Central Asia,55.378051,-3.435973,SK,Slovak Rep.,country,Europe and Central Asia,48.669026,19.699024,1740.95685068405,1999,796,93,0,539,0,0,0,0,37,0,0,0,0,127,0,0,0,0,0,0,0,0,0,0
US,USA,country,North America,37.09024,-95.712891,SK,Slovak Rep.,country,Europe and Central Asia,48.669026,19.699024,8559.56122867489,1999,131044,12503,0,0,3744,1096,187,1752,3119,0,54,45452,8838,27232,287,6018,0,746,0,20016,0,0,0,0
UY,Uruguay,country,Latin America and the Caribbean,-32.522779,-55.765835,SK,Slovak Rep.,country,Europe and Central Asia,48.669026,19.699024,11722.5267069637,1999,116,0,0,0,0,116,0,0,0,0,0,0,0,0,0,0,0,0,0,0,0,0,0,0
UZ,Uzbekistan,country,Europe and Central Asia,41.377491,64.585262,SK,Slovak Rep.,country,Europe and Central Asia,48.669026,19.699024,3569.23781615218,1999,7996,0,0,0,0,0,0,0,0,7966,0,0,0,30,0,0,0,0,0,0,0,0,0,0
VN,Vietnam,country,East Asia and Pacific,14.058324,108.277199,SK,Slovak Rep.,country,Europe and Central Asia,48.669026,19.699024,8745.54084892293,1999,66586,33742,0,0,0,0,2872,0,0,18,492,0,10194,19268,0,0,0,0,0,0,0,0,0,0
ZW,Zimbabwe,country,Sub-Saharan Africa,-19.015438,29.154857,SK,Slovak Rep.,country,Europe and Central Asia,48.669026,19.699024,7592.98129763657,1999,5699,0,0,0,0,0,0,357,181,0,0,0,0,5161,0,0,0,0,0,0,0,0,0,0
AL,Albania,country,Europe and Central Asia,41.153332,20.168331,SK,Slovak Rep.,country,Europe and Central Asia,48.669026,19.699024,837.456245083589,2000,104,0,0,0,0,0,0,0,0,0,61,0,0,43,0,0,0,0,0,0,0,0,0,0
AG,Antigua & Barbuda,country,Latin America and the Caribbean,17.060816,-61.796428,SK,Slovak Rep.,country,Europe and Central Asia,48.669026,19.699024,7983.74321885388,2000,11,0,0,0,0,0,11,0,0,0,0,0,0,0,0,0,0,0,0,0,0,0,0,0
AR,Argentina,country,Latin America and the Caribbean,-38.416097,-63.616672,SK,Slovak Rep.,country,Europe and Central Asia,48.669026,19.699024,12687.7934412495,2000,978,3,0,5,0,0,452,2,194,81,0,0,4,236,0,1,0,0,0,0,0,0,0,0
AM,Armenia,country,Europe and Central Asia,40.069099,45.038189,SK,Slovak Rep.,country,Europe and Central Asia,48.669026,19.699024,2218.15963244041,2000,0,0,0,0,0,0,0,0,0,0,0,0,0,0,0,0,0,0,0,0,0,0,0,0
AU,Australia,country,East Asia and Pacific,-25.274398,133.775136,SK,Slovak Rep.,country,Europe and Central Asia,48.669026,19.699024,13842.417967848,2000,2298,0,0,0,1,0,0,0,81,1459,0,0,0,8,0,10,0,2,0,737,0,0,0,0
AT,Austria,country,Europe and Central Asia,47.516231,14.550072,SK,Slovak Rep.,country,Europe and Central Asia,48.669026,19.699024,403.681104129486,2000,52668,11616,7065,170,0,291,210,1830,5180,3,126,7737,1121,2670,4255,7993,2278,1335,462,597,7,0,0,0
AZ,Azerbaijan,country,Europe and Central Asia,40.143105,47.576927,SK,Slovak Rep.,country,Europe and Central Asia,48.669026,19.699024,2394.3667521138,2000,83,0,0,0,0,59,0,0,0,24,0,0,0,0,0,0,0,0,0,0,0,0,0,0
BS,The Bahamas,country,Latin America and the Caribbean,25.03428,-77.39628,SK,Slovak Rep.,country,Europe and Central Asia,48.669026,19.699024,8447.64325122833,2000,16,0,0,0,0,0,0,0,0,0,0,0,0,0,0,16,0,0,0,0,0,0,0,0
BY,Belarus,country,Europe and Central Asia,53.709807,27.953389,SK,Slovak Rep.,country,Europe and Central Asia,48.669026,19.699024,803.107804439422,2000,22,0,0,0,0,0,0,0,22,0,0,0,0,0,0,0,0,0,0,0,0,0,0,0
BE,Belgium,country,Europe and Central Asia,50.503887,4.469936,SK,Slovak Rep.,country,Europe and Central Asia,48.669026,19.699024,1115.79230067346,2000,28941,622,18097,316,0,0,3,771,3561,117,1,1922,81,387,154,998,0,1442,297,172,0,0,0,0
BT,Bhutan,country,South Asia,27.514162,90.433601,SK,Slovak Rep.,country,Europe and Central Asia,48.669026,19.699024,6379.30605638475,2000,0,0,0,0,0,0,0,0,0,0,0,0,0,0,0,0,0,0,0,0,0,0,0,0
BO,Bolivia,country,Latin America and the Caribbean,-16.290154,-63.588653,SK,Slovak Rep.,country,Europe and Central Asia,48.669026,19.699024,10892.3439058926,2000,10,0,0,0,0,10,0,0,0,0,0,0,0,0,0,0,0,0,0,0,0,0,0,0
BR,Brazil,country,Latin America and the Caribbean,-14.235004,-51.92528,SK,Slovak Rep.,country,Europe and Central Asia,48.669026,19.699024,9909.35749609004,2000,6689,0,0,0,0,12,0,30,4041,0,2,0,836,402,1167,49,0,150,0,0,0,0,0,0
BG,Bulgaria,country,Europe and Central Asia,42.733883,25.48583,SK,Slovak Rep.,country,Europe and Central Asia,48.669026,19.699024,798.80386751614,2000,532,94,0,10,0,0,0,72,148,0,0,0,0,56,0,132,0,0,20,0,0,0,0,0
KH,Cambodia,country,East Asia and Pacific,12.565679,104.990963,SK,Slovak Rep.,country,Europe and Central Asia,48.669026,19.699024,8628.34645584411,2000,77,0,0,0,0,0,0,0,0,0,0,0,0,77,0,0,0,0,0,0,0,0,0,0
CM,Cameroon,country,Sub-Saharan Africa,7.369722,12.354722,SK,Slovak Rep.,country,Europe and Central Asia,48.669026,19.699024,4649.10690536104,2000,795,0,0,0,0,0,0,0,746,0,0,0,49,0,0,0,0,0,0,0,0,0,0,0
CA,Canada,country,North America,56.130366,-106.346771,SK,Slovak Rep.,country,Europe and Central Asia,48.669026,19.699024,7345.85757190154,2000,3282,79,24,0,2997,0,69,0,0,0,0,0,0,30,0,83,350,0,0,0,0,0,0,0
CF,Central African Rep.,country,Sub-Saharan Africa,6.611111,20.939444,SK,Slovak Rep.,country,Europe and Central Asia,48.669026,19.699024,4683.3292081691,2000,1,0,0,0,0,0,0,0,1,0,0,0,0,0,0,0,0,0,0,0,0,0,0,0
CL,Chile,country,Latin America and the Caribbean,-35.675147,-71.542969,SK,Slovak Rep.,country,Europe and Central Asia,48.669026,19.699024,12992.6261253828,2000,241,0,0,0,0,0,0,1,229,0,0,0,0,0,0,11,0,0,0,0,0,0,0,0
HK,Hong Kong,country,East Asia and Pacific,22.396428,114.109497,SK,Slovak Rep.,country,Europe and Central Asia,48.669026,19.699024,8478.49668346838,2000,0,0,0,0,0,0,0,0,0,0,0,0,0,0,0,0,0,0,0,0,0,0,0,0
CN,China,country,East Asia and Pacific,35.86166,104.195397,SK,Slovak Rep.,country,Europe and Central Asia,48.669026,19.699024,6743.52783630172,2000,14504,5321,0,18,696,24,1751,4295,783,0,6,0,137,257,10,0,0,1206,0,0,0,0,0,0
TW,Taiwan,country,East Asia and Pacific,23.69781,120.960515,SK,Slovak Rep.,country,Europe and Central Asia,48.669026,19.699024,8840.36547767449,2000,92,0,0,0,0,0,0,2,6,0,0,0,0,0,0,84,0,0,0,0,0,0,0,0
CO,Colombia,country,Latin America and the Caribbean,4.570868,-74.297333,SK,Slovak Rep.,country,Europe and Central Asia,48.669026,19.699024,9929.70014318263,2000,12297,0,0,1,0,0,0,0,12078,0,0,0,32,186,0,0,0,0,0,0,0,0,0,0
KM,Comoros,country,Sub-Saharan Africa,-11.875001,43.872219,SK,Slovak Rep.,country,Europe and Central Asia,48.669026,19.699024,7147.75342778531,2000,0,0,0,0,0,0,0,0,0,0,0,0,0,0,0,0,0,0,0,0,0,0,0,0
CG,"Congo, Rep.",country,Sub-Saharan Africa,-0.228021,15.827659,SK,Slovak Rep.,country,Europe and Central Asia,48.669026,19.699024,5455.93855422102,2000,15,0,0,0,0,0,0,0,0,0,0,0,15,0,0,0,0,0,0,0,0,0,0,0
CK,Cook Islands,country,East Asia and Pacific,-21.236736,-159.777671,SK,Slovak Rep.,country,Europe and Central Asia,48.669026,19.699024,16983.4043583118,2000,1,0,0,0,0,0,0,1,0,0,0,0,0,0,0,0,0,0,0,0,0,0,0,0
CR,Costa Rica,country,Latin America and the Caribbean,9.748917,-83.753428,SK,Slovak Rep.,country,Europe and Central Asia,48.669026,19.699024,10173.5396848959,2000,7110,0,0,0,0,0,0,9,7083,0,0,0,7,11,0,0,0,0,0,0,0,0,0,0
CI,Ivory Coast,country,Sub-Saharan Africa,7.539989,-5.54708,SK,Slovak Rep.,country,Europe and Central Asia,48.669026,19.699024,5155.73540726631,2000,7178,0,0,0,0,0,77,1,442,0,0,0,6571,87,0,0,0,0,0,0,0,0,0,0
HR,Croatia,country,Europe and Central Asia,45.1,15.2,SK,Slovak Rep.,country,Europe and Central Asia,48.669026,19.699024,524.232901555576,2000,1353,52,0,0,0,0,561,6,42,0,0,0,12,415,11,250,0,0,0,4,0,0,0,0
CU,Cuba,country,Latin America and the Caribbean,21.521757,-77.781167,SK,Slovak Rep.,country,Europe and Central Asia,48.669026,19.699024,8763.78570801154,2000,248,0,0,0,0,0,0,0,58,0,0,0,180,0,0,10,0,0,0,0,0,0,0,0
CY,Cyprus,country,Europe and Central Asia,35.126413,33.429859,SK,Slovak Rep.,country,Europe and Central Asia,48.669026,19.699024,1882.48067514411,2000,4652,0,0,0,0,0,0,127,4521,0,0,0,0,1,0,3,0,0,0,0,0,0,0,0
CZ,Czech Republic,country,Europe and Central Asia,49.817492,15.472962,SK,Slovak Rep.,country,Europe and Central Asia,48.669026,19.699024,332.613983609082,2000,334746,82453,3749,6378,304,189,2037,9948,11084,364,624,1779,11984,28463,40611,99240,18776,10004,23603,1932,0,0,0,0
KP,"Korea, Dem. Rep.",country,East Asia and Pacific,40.339852,127.510093,SK,Slovak Rep.,country,Europe and Central Asia,48.669026,19.699024,7859.53269824578,2000,0,0,0,0,0,0,0,0,0,0,0,0,0,0,0,0,0,0,0,0,0,0,0,0
DK,Denmark,country,Europe and Central Asia,56.26392,9.501785,SK,Slovak Rep.,country,Europe and Central Asia,48.669026,19.699024,1089.95684863369,2000,32562,29411,93,21,0,0,0,0,228,0,1,93,269,514,78,42,0,1663,109,40,0,0,0,0
DO,Dominican Republic,country,Latin America and the Caribbean,18.735693,-70.162651,SK,Slovak Rep.,country,Europe and Central Asia,48.669026,19.699024,8455.14270266498,2000,21,0,0,0,0,0,1,0,20,0,0,0,0,0,0,0,0,0,0,0,0,0,0,0
EC,Ecuador,country,Latin America and the Caribbean,-1.831239,-78.183406,SK,Slovak Rep.,country,Europe and Central Asia,48.669026,19.699024,10750.773925595,2000,15752,0,0,0,0,0,0,0,15658,0,0,0,73,21,0,0,0,0,0,0,0,0,0,0
EG,Egypt,country,Middle East and North Africa,26.820553,30.802498,SK,Slovak Rep.,country,Europe and Central Asia,48.669026,19.699024,2614.74519155679,2000,140,0,3,0,0,0,0,115,15,0,4,0,0,3,0,0,0,0,0,0,0,0,0,0
SV,El Salvador,country,Latin America and the Caribbean,13.794185,-88.89653,SK,Slovak Rep.,country,Europe and Central Asia,48.669026,19.699024,10181.2755973345,2000,121,0,0,0,0,0,0,0,0,0,0,0,120,1,0,0,0,0,0,0,0,0,0,0
ER,Eritrea,country,Sub-Saharan Africa,15.179384,39.782334,SK,Slovak Rep.,country,Europe and Central Asia,48.669026,19.699024,4154.77818374223,2000,0,0,0,0,0,0,0,0,0,0,0,0,0,0,0,0,0,0,0,0,0,0,0,0
ET,Ethiopia,country,Sub-Saharan Africa,9.145,40.489673,SK,Slovak Rep.,country,Europe and Central Asia,48.669026,19.699024,4809.63178428947,2000,522,0,0,0,316,0,0,0,0,0,0,0,206,0,0,0,0,0,0,0,0,0,0,0
FI,Finland,country,Europe and Central Asia,61.92411,25.748151,SK,Slovak Rep.,country,Europe and Central Asia,48.669026,19.699024,1522.94399461862,2000,164,3,0,11,0,0,0,0,0,0,0,0,4,3,0,143,0,0,0,0,0,0,0,0
FR,France,country,Europe and Central Asia,46.227638,2.213749,SK,Slovak Rep.,country,Europe and Central Asia,48.669026,19.699024,1340.89145486655,2000,42015,28427,49,1064,4,4,181,2204,900,640,11,2563,604,1281,258,2602,461,1101,122,0,0,0,0,0
GM,The Gambia,country,Sub-Saharan Africa,13.443182,-15.310139,SK,Slovak Rep.,country,Europe and Central Asia,48.669026,19.699024,5067.22199712221,2000,0,0,0,0,0,0,0,0,0,0,0,0,0,0,0,0,0,0,0,0,0,0,0,0
GE,Georgia,country,Europe and Central Asia,42.315407,43.356892,SK,Slovak Rep.,country,Europe and Central Asia,48.669026,19.699024,1967.09321577295,2000,30,0,0,0,0,0,0,0,0,0,0,0,2,0,0,28,0,0,0,0,0,0,0,0
DE,Germany,country,Europe and Central Asia,51.165691,10.451526,SK,Slovak Rep.,country,Europe and Central Asia,48.669026,19.699024,718.106805343431,2000,124947,18576,3277,29162,127,82,214,6973,1318,4,138,36013,2548,4128,5017,2175,138,2230,3283,9682,0,0,0,0
GH,Ghana,country,Sub-Saharan Africa,7.946527,-1.023194,SK,Slovak Rep.,country,Europe and Central Asia,48.669026,19.699024,4932.62314390073,2000,371,0,0,0,0,0,0,2,105,0,0,0,65,199,0,0,0,0,0,0,0,0,0,0
GR,Greece,country,Europe and Central Asia,39.074208,21.824312,SK,Slovak Rep.,country,Europe and Central Asia,48.669026,19.699024,1081.50208782265,2000,15964,485,355,1,0,2,24,2397,11064,353,0,0,160,950,3,153,0,17,0,0,0,0,0,0
GD,Grenada,country,Latin America and the Caribbean,12.262776,-61.604171,SK,Slovak Rep.,country,Europe and Central Asia,48.669026,19.699024,8360.51869091784,2000,0,0,0,0,0,0,0,0,0,0,0,0,0,0,0,0,0,0,0,0,0,0,0,0
GU,Guam,country,East Asia and Pacific,13.444304,144.793731,SK,Slovak Rep.,country,Europe and Central Asia,48.669026,19.699024,11268.5420640641,2000,1,0,0,0,0,0,0,0,0,0,0,0,0,1,0,0,0,0,0,0,0,0,0,0
GT,Guatemala,country,Latin America and the Caribbean,15.783471,-90.230759,SK,Slovak Rep.,country,Europe and Central Asia,48.669026,19.699024,10097.6905364674,2000,3793,0,0,0,0,0,0,1,3439,0,0,0,338,15,0,0,0,0,0,0,0,0,0,0
GN,Guinea,country,Sub-Saharan Africa,9.945587,-9.696645,SK,Slovak Rep.,country,Europe and Central Asia,48.669026,19.699024,5105.00992532881,2000,3,0,0,0,0,0,0,2,1,0,0,0,0,0,0,0,0,0,0,0,0,0,0,0
GY,Guyana,country,Latin America and the Caribbean,4.860416,-58.93018,SK,Slovak Rep.,country,Europe and Central Asia,48.669026,19.699024,8777.6634949281,2000,0,0,0,0,0,0,0,0,0,0,0,0,0,0,0,0,0,0,0,0,0,0,0,0
HT,Haiti,country,Latin America and the Caribbean,18.971187,-72.285215,SK,Slovak Rep.,country,Europe and Central Asia,48.669026,19.699024,8587.70520079775,2000,0,0,0,0,0,0,0,0,0,0,0,0,0,0,0,0,0,0,0,0,0,0,0,0
HN,Honduras,country,Latin America and the Caribbean,15.199999,-86.241905,SK,Slovak Rep.,country,Europe and Central Asia,48.669026,19.699024,9879.40281701926,2000,1492,0,0,0,0,0,0,4,537,0,0,0,951,0,0,0,0,0,0,0,0,0,0,0
HU,Hungary,country,Europe and Central Asia,47.162494,19.503304,SK,Slovak Rep.,country,Europe and Central Asia,48.669026,19.699024,168.340731564295,2000,68081,3966,13434,897,67,331,1037,10680,10806,64,333,1309,913,4753,2924,10760,503,5007,631,169,0,0,0,0
IN,India,country,South Asia,20.593684,78.96288,SK,Slovak Rep.,country,Europe and Central Asia,48.669026,19.699024,6071.79778265058,2000,3376,0,0,0,0,24,256,74,0,0,64,0,2646,180,77,0,0,0,55,0,0,0,0,0
ID,Indonesia,country,East Asia and Pacific,-0.789275,113.921327,SK,Slovak Rep.,country,Europe and Central Asia,48.669026,19.699024,10395.0438902824,2000,10882,0,0,0,0,0,66,1,85,0,69,0,764,9822,75,0,0,0,0,0,0,0,0,0
IR,Iran,country,Middle East and North Africa,32.427908,53.688046,SK,Slovak Rep.,country,Europe and Central Asia,48.669026,19.699024,3354.50169610042,2000,1147,0,0,0,0,149,0,0,997,0,0,0,0,1,0,0,0,0,0,0,0,0,0,0
IE,Ireland,country,Europe and Central Asia,53.41291,-8.24389,SK,Slovak Rep.,country,Europe and Central Asia,48.669026,19.699024,2011.45192831536,2000,857,222,0,0,0,0,0,0,140,0,0,0,0,253,0,242,0,0,0,0,0,0,0,0
IL,Israel,country,Middle East and North Africa,31.046051,34.851612,SK,Slovak Rep.,country,Europe and Central Asia,48.669026,19.699024,2340.95347393149,2000,282,4,0,0,0,0,0,6,200,0,0,0,0,18,0,1,134,0,17,36,0,0,0,0
IT,Italy,country,Europe and Central Asia,41.87194,12.56738,SK,Slovak Rep.,country,Europe and Central Asia,48.669026,19.699024,939.671508752536,2000,95433,22956,1512,303,1,111,25,5960,36659,157,0,813,332,11804,1081,12777,0,844,33,65,0,0,0,0
JM,Jamaica,country,Latin America and the Caribbean,18.109581,-77.297508,SK,Slovak Rep.,country,Europe and Central Asia,48.669026,19.699024,9013.55186421397,2000,1,0,0,0,0,0,0,0,1,0,0,0,0,0,0,0,0,0,0,0,0,0,0,0
JP,Japan,country,East Asia and Pacific,36.204824,138.252924,SK,Slovak Rep.,country,Europe and Central Asia,48.669026,19.699024,8807.11191313363,2000,6,0,0,0,0,0,0,0,0,0,0,0,6,0,0,0,0,0,0,0,0,0,0,0
JO,Jordan,country,Middle East and North Africa,30.585164,36.238414,SK,Slovak Rep.,country,Europe and Central Asia,48.669026,19.699024,2450.79745021181,2000,0,0,0,0,0,0,0,0,0,0,0,0,0,0,0,0,0,0,0,0,0,0,0,0
KZ,Kazakhstan,country,Europe and Central Asia,48.019573,66.923684,SK,Slovak Rep.,country,Europe and Central Asia,48.669026,19.699024,3438.15099058726,2000,1682,300,0,0,0,0,0,0,0,761,0,0,0,0,0,0,0,0,0,621,0,0,0,0
KE,Kenya,country,Sub-Saharan Africa,-0.023559,37.906193,SK,Slovak Rep.,country,Europe and Central Asia,48.669026,19.699024,5696.03454263573,2000,39,0,0,0,0,0,0,0,5,0,0,0,21,13,0,0,0,0,0,0,0,0,0,0
KG,Kyrgyz Rep.,country,Europe and Central Asia,41.20438,74.766098,SK,Slovak Rep.,country,Europe and Central Asia,48.669026,19.699024,4320.87917811966,2000,107,0,0,0,0,0,0,0,19,88,0,0,0,0,0,0,0,0,0,0,0,0,0,0
LA,Lao PDR,country,East Asia and Pacific,19.85627,102.495496,SK,Slovak Rep.,country,Europe and Central Asia,48.669026,19.699024,7853.8713393875,2000,273,0,0,0,0,0,0,0,0,0,0,0,273,0,0,0,0,0,0,0,0,0,0,0
LV,Latvia,country,Europe and Central Asia,56.879635,24.603189,SK,Slovak Rep.,country,Europe and Central Asia,48.669026,19.699024,971.221227073749,2000,11,0,0,0,0,0,0,0,0,11,0,0,0,0,0,0,0,0,0,0,0,0,0,0
LR,Liberia,country,Sub-Saharan Africa,6.428055,-9.429499,SK,Slovak Rep.,country,Europe and Central Asia,48.669026,19.699024,5443.92806068004,2000,16,0,0,0,0,0,0,0,0,0,0,0,0,16,0,0,0,0,0,0,0,0,0,0
LT,Lithuania,country,Europe and Central Asia,55.169438,23.881275,SK,Slovak Rep.,country,Europe and Central Asia,48.669026,19.699024,778.164409200553,2000,202,0,0,168,0,0,0,3,11,0,0,0,1,0,0,0,0,0,0,19,0,0,0,0
LU,Luxembourg,country,Europe and Central Asia,49.815273,6.129583,SK,Slovak Rep.,country,Europe and Central Asia,48.669026,19.699024,993.003033210224,2000,92,92,0,0,0,0,0,0,0,0,0,0,0,0,0,0,0,0,0,0,0,0,0,0
MG,Madagascar,country,Sub-Saharan Africa,-18.766947,46.869107,SK,Slovak Rep.,country,Europe and Central Asia,48.669026,19.699024,7976.7384388712,2000,87,0,0,0,0,0,0,0,2,0,12,0,73,0,0,0,0,0,0,0,0,0,0,0
MW,Malawi,country,Sub-Saharan Africa,-13.254308,34.301525,SK,Slovak Rep.,country,Europe and Central Asia,48.669026,19.699024,7042.45747811354,2000,241,0,0,0,0,0,0,0,0,0,0,0,172,69,0,0,0,0,0,0,0,0,0,0
MY,Malaysia,country,East Asia and Pacific,4.210484,101.975766,SK,Slovak Rep.,country,Europe and Central Asia,48.669026,19.699024,9099.39435570157,2000,8933,0,0,0,0,0,1,0,12,0,7,126,32,8451,304,0,0,0,0,0,0,0,0,0
ML,Mali,country,Sub-Saharan Africa,17.570692,-3.996166,SK,Slovak Rep.,country,Europe and Central Asia,48.669026,19.699024,4070.1480366847,2000,2,0,0,0,0,0,0,0,1,0,0,0,0,1,0,0,0,0,0,0,0,0,0,0
MT,Malta,country,Middle East and North Africa,35.937496,14.375416,SK,Slovak Rep.,country,Europe and Central Asia,48.669026,19.699024,1482.54068696024,2000,1,0,0,0,0,0,0,0,1,0,0,0,0,0,0,0,0,0,0,0,0,0,0,0
MR,Mauritania,country,Sub-Saharan Africa,21.00789,-10.940835,SK,Slovak Rep.,country,Europe and Central Asia,48.669026,19.699024,4108.20406657978,2000,0,0,0,0,0,0,0,0,0,0,0,0,0,0,0,0,0,0,0,0,0,0,0,0
MU,Mauritius,country,Sub-Saharan Africa,-20.348404,57.552152,SK,Slovak Rep.,country,Europe and Central Asia,48.669026,19.699024,8552.96658668107,2000,0,0,0,0,0,0,0,0,0,0,0,0,0,0,0,0,0,0,0,0,0,0,0,0
MX,Mexico,country,Latin America and the Caribbean,23.634501,-102.552784,SK,Slovak Rep.,country,Europe and Central Asia,48.669026,19.699024,10157.9422913411,2000,465,0,0,12,0,0,0,0,1,0,27,0,316,1,0,108,0,0,0,0,0,0,0,0
MA,Morocco,country,Middle East and North Africa,31.791702,-7.09262,SK,Slovak Rep.,country,Europe and Central Asia,48.669026,19.699024,2925.04333524108,2000,3347,0,0,0,0,0,0,2790,551,0,0,0,0,6,0,0,0,0,0,0,0,0,0,0
MZ,Mozambique,country,Sub-Saharan Africa,-18.665695,35.529562,SK,Slovak Rep.,country,Europe and Central Asia,48.669026,19.699024,7658.83341439277,2000,29,0,0,0,0,0,0,0,29,0,0,0,0,0,0,0,0,0,0,0,0,0,0,0
MM,Myanmar,country,East Asia and Pacific,21.913965,95.956223,SK,Slovak Rep.,country,Europe and Central Asia,48.669026,19.699024,7213.3425272109,2000,283,24,0,0,259,0,0,0,0,0,0,0,0,0,0,0,0,0,0,0,0,0,0,0
NA,Namibia,country,Sub-Saharan Africa,-22.95764,18.49041,SK,Slovak Rep.,country,Europe and Central Asia,48.669026,19.699024,7974.35319832598,2000,28,0,0,0,0,0,0,0,28,0,0,0,0,0,0,0,0,0,0,0,0,0,0,0
NP,Nepal,country,South Asia,28.394857,84.124008,SK,Slovak Rep.,country,Europe and Central Asia,48.669026,19.699024,5851.32266308888,2000,0,0,0,0,0,0,0,0,0,0,0,0,0,0,0,0,0,0,0,0,0,0,0,0
NL,Netherlands,country,Europe and Central Asia,52.132633,5.291266,SK,Slovak Rep.,country,Europe and Central Asia,48.669026,19.699024,1090.33105897845,2000,166940,202,8020,289,430,16,1200,13427,1272,0,152,127557,877,4467,7832,107,105,909,141,42,0,0,0,0
NZ,New Zealand,country,East Asia and Pacific,-40.900557,174.885971,SK,Slovak Rep.,country,Europe and Central Asia,48.669026,19.699024,17907.2416541012,2000,218,0,0,0,5,0,0,21,111,81,0,0,0,0,0,0,0,0,0,0,0,0,0,0
NI,Nicaragua,country,Latin America and the Caribbean,12.865416,-85.207229,SK,Slovak Rep.,country,Europe and Central Asia,48.669026,19.699024,10008.6708652567,2000,452,0,0,0,0,0,0,0,446,0,0,0,6,0,0,0,0,0,0,0,0,0,0,0
NG,Nigeria,country,Sub-Saharan Africa,9.081999,8.675277,SK,Slovak Rep.,country,Europe and Central Asia,48.669026,19.699024,4525.9070573105,2000,0,0,0,0,0,0,0,0,0,0,0,0,0,0,0,0,0,0,0,0,0,0,0,0
NO,Norway,country,Europe and Central Asia,60.472024,8.468946,SK,Slovak Rep.,country,Europe and Central Asia,48.669026,19.699024,1495.83560806524,2000,0,0,0,0,0,0,0,0,0,0,0,0,0,0,0,0,0,0,0,0,0,0,0,0
PK,Pakistan,country,South Asia,30.375321,69.345116,SK,Slovak Rep.,country,Europe and Central Asia,48.669026,19.699024,4622.93643972754,2000,239,224,0,0,0,1,0,0,14,0,0,0,0,0,0,0,0,0,0,0,0,0,0,0
PA,Panama,country,Latin America and the Caribbean,8.537981,-80.782127,SK,Slovak Rep.,country,Europe and Central Asia,48.669026,19.699024,10065.4508041533,2000,5805,0,0,0,0,0,0,0,5392,0,0,0,0,413,0,0,0,0,0,0,0,0,0,0
PG,Papua New Guinea,country,East Asia and Pacific,-6.314993,143.95555,SK,Slovak Rep.,country,Europe and Central Asia,48.669026,19.699024,13010.7319994087,2000,158,0,0,0,0,0,0,0,0,0,0,0,139,19,0,0,0,0,0,0,0,0,0,0
PY,Paraguay,country,Latin America and the Caribbean,-23.442503,-58.443832,SK,Slovak Rep.,country,Europe and Central Asia,48.669026,19.699024,11135.7644641834,2000,116,0,0,0,0,0,0,0,0,0,0,0,0,116,0,0,0,0,0,0,0,0,0,0
PE,Peru,country,Latin America and the Caribbean,-9.189967,-75.015152,SK,Slovak Rep.,country,Europe and Central Asia,48.669026,19.699024,11131.0226862782,2000,1262,0,0,0,0,3,0,2,1,0,0,68,1188,0,0,0,0,0,0,0,0,0,0,0
PH,Philippines,country,East Asia and Pacific,12.879721,121.774017,SK,Slovak Rep.,country,Europe and Central Asia,48.669026,19.699024,9810.11958540061,2000,442,0,0,0,0,0,73,0,63,0,0,0,0,57,249,0,0,0,0,0,0,0,0,0
PL,Poland,country,Europe and Central Asia,51.919438,19.145136,SK,Slovak Rep.,country,Europe and Central Asia,48.669026,19.699024,363.968890092027,2000,77757,3880,5474,20390,72,5,14,28713,3021,60,38,265,2436,9368,290,445,602,1161,1986,139,0,0,0,0
PT,Portugal,country,Europe and Central Asia,39.399872,-8.224454,SK,Slovak Rep.,country,Europe and Central Asia,48.669026,19.699024,2443.16352677066,2000,105,0,0,0,0,5,0,43,21,0,0,0,0,32,0,4,0,0,0,0,0,0,0,0
KR,"Korea, Rep.",country,East Asia and Pacific,35.907757,127.766922,SK,Slovak Rep.,country,Europe and Central Asia,48.669026,19.699024,8245.21404851828,2000,11,0,0,11,0,0,0,0,0,0,0,0,0,0,0,0,0,0,0,0,0,0,0,0
MD,Moldova,country,Europe and Central Asia,47.411631,28.369885,SK,Slovak Rep.,country,Europe and Central Asia,48.669026,19.699024,659.975914633722,2000,450,0,0,0,0,0,0,0,109,0,0,40,0,0,0,301,0,0,0,0,0,0,0,0
RO,Romania,country,Europe and Central Asia,45.943161,24.96676,SK,Slovak Rep.,country,Europe and Central Asia,48.669026,19.699024,499.990009709658,2000,1592,135,0,0,2,0,0,0,50,197,0,0,0,532,0,431,0,0,0,245,0,0,0,0
RU,Russian Federation,country,Europe and Central Asia,61.52401,105.318756,SK,Slovak Rep.,country,Europe and Central Asia,48.669026,19.699024,5213.58363494127,2000,6486,28,0,0,0,0,0,0,0,0,1,0,0,106,0,5,0,0,15,6331,0,0,0,0
KN,St. Kitts and Nevis,country,Latin America and the Caribbean,17.357822,-62.782998,SK,Slovak Rep.,country,Europe and Central Asia,48.669026,19.699024,8031.90691487653,2000,0,0,0,0,0,0,0,0,0,0,0,0,0,0,0,0,0,0,0,0,0,0,0,0
SA,Saudi Arabia,country,Middle East and North Africa,23.885942,45.079162,SK,Slovak Rep.,country,Europe and Central Asia,48.669026,19.699024,3543.25374106467,2000,18,0,0,8,0,0,0,0,9,0,0,0,0,1,0,0,0,0,0,0,0,0,0,0
SN,Senegal,country,Sub-Saharan Africa,14.497401,-14.452362,SK,Slovak Rep.,country,Europe and Central Asia,48.669026,19.699024,4918.56648799334,2000,4,0,0,0,0,0,0,0,0,0,0,0,0,4,0,0,0,0,0,0,0,0,0,0
RS,Serbia,country,Europe and Central Asia,44.016521,21.005859,SK,Slovak Rep.,country,Europe and Central Asia,48.669026,19.699024,527.538851466392,2000,3266,21,0,0,0,0,10,84,317,0,1,40,0,200,2593,0,0,0,0,0,0,0,0,0
SL,Sierra Leone,country,Sub-Saharan Africa,8.460555,-11.779889,SK,Slovak Rep.,country,Europe and Central Asia,48.669026,19.699024,5356.73702796425,2000,0,0,0,0,0,0,0,0,0,0,0,0,0,0,0,0,0,0,0,0,0,0,0,0
SG,Singapore,country,East Asia and Pacific,1.352083,103.819836,SK,Slovak Rep.,country,Europe and Central Asia,48.669026,19.699024,9473.7425588913,2000,894,0,0,0,0,0,0,0,0,0,0,0,0,891,3,0,0,0,0,0,0,0,0,0
SI,Slovenia,country,Europe and Central Asia,46.151241,14.995463,SK,Slovak Rep.,country,Europe and Central Asia,48.669026,19.699024,451.646620482029,2000,3782,21,42,21,0,0,0,0,327,0,0,0,16,127,0,3201,0,0,27,0,0,0,0,0
ZA,S. Africa,country,Sub-Saharan Africa,-30.559482,22.937506,SK,Slovak Rep.,country,Europe and Central Asia,48.669026,19.699024,8825.57285851893,2000,3556,0,0,0,0,0,13,3,3399,0,121,0,0,4,5,11,0,0,0,0,0,0,0,0
ES,Spain,country,Europe and Central Asia,40.463667,-3.74922,SK,Slovak Rep.,country,Europe and Central Asia,48.669026,19.699024,2060.47825933092,2000,44714,849,1,535,74,9,282,7832,32789,0,106,26,42,375,155,702,0,937,0,0,0,0,0,0
LK,Sri Lanka,country,South Asia,7.873054,80.771797,SK,Slovak Rep.,country,Europe and Central Asia,48.669026,19.699024,7259.20198267398,2000,457,0,0,0,0,1,344,0,0,0,3,43,62,4,0,0,0,0,0,0,0,0,0,0
SD,Sudan,country,Sub-Saharan Africa,12.862807,30.217636,SK,Slovak Rep.,country,Europe and Central Asia,48.669026,19.699024,4102.41279431453,2000,284,0,0,0,0,0,279,0,0,0,0,0,0,5,0,0,0,0,0,0,0,0,0,0
SR,Suriname,country,Latin America and the Caribbean,3.919305,-56.027783,SK,Slovak Rep.,country,Europe and Central Asia,48.669026,19.699024,8644.72571496472,2000,21,0,0,0,0,0,0,0,21,0,0,0,0,0,0,0,0,0,0,0,0,0,0,0
SZ,Swaziland,country,Sub-Saharan Africa,-26.522503,31.465866,SK,Slovak Rep.,country,Europe and Central Asia,48.669026,19.699024,8452.06814329011,2000,172,0,0,0,0,0,0,0,172,0,0,0,0,0,0,0,0,0,0,0,0,0,0,0
SE,Sweden,country,Europe and Central Asia,60.128161,18.643501,SK,Slovak Rep.,country,Europe and Central Asia,48.669026,19.699024,1277.41570459968,2000,474,15,0,9,35,0,0,0,4,0,0,16,13,78,103,192,0,9,0,0,0,0,0,0
CH,Switzerland,country,Europe and Central Asia,46.818188,8.227512,SK,Slovak Rep.,country,Europe and Central Asia,48.669026,19.699024,882.157561183668,2000,794,68,0,5,5,0,90,83,0,0,0,24,404,17,25,0,0,0,55,18,0,0,0,0
SY,Syrian Arab Rep.,country,Middle East and North Africa,34.802075,38.996815,SK,Slovak Rep.,country,Europe and Central Asia,48.669026,19.699024,2213.41944175148,2000,10,2,0,0,0,0,0,0,7,0,1,0,0,0,0,0,0,0,0,0,0,0,0,0
TJ,Tajikistan,country,Europe and Central Asia,38.861034,71.276093,SK,Slovak Rep.,country,Europe and Central Asia,48.669026,19.699024,4201.94622430763,2000,2097,0,0,0,0,0,0,0,0,2097,0,0,0,0,0,0,0,0,0,0,0,0,0,0
TH,Thailand,country,East Asia and Pacific,15.870032,100.992541,SK,Slovak Rep.,country,Europe and Central Asia,48.669026,19.699024,8065.3673925535,2000,2772,736,0,7,0,0,0,31,1746,0,0,6,0,229,0,17,0,0,0,0,0,0,0,0
MK,Macedonia,country,Europe and Central Asia,41.608635,21.745275,SK,Slovak Rep.,country,Europe and Central Asia,48.669026,19.699024,802.132460514595,2000,1360,0,0,4,0,0,0,1120,57,0,0,0,1,59,0,0,0,0,0,119,0,0,0,0
TN,Tunisia,country,Middle East and North Africa,33.886917,9.537499,SK,Slovak Rep.,country,Europe and Central Asia,48.669026,19.699024,1848.32430010649,2000,153,0,0,0,0,0,0,0,150,0,0,0,0,0,3,0,0,0,0,0,0,0,0,0
TR,Turkey,country,Europe and Central Asia,38.963745,35.243322,SK,Slovak Rep.,country,Europe and Central Asia,48.669026,19.699024,1645.46268972578,2000,5459,407,0,131,6,484,24,422,3794,162,22,0,3,4,0,0,0,0,0,0,0,0,0,0
TM,Turkmenistan,country,Europe and Central Asia,38.969719,59.556278,SK,Slovak Rep.,country,Europe and Central Asia,48.669026,19.699024,3334.78503394675,2000,526,0,0,0,0,0,0,0,2,524,0,0,0,0,0,0,0,0,0,0,0,0,0,0
UG,Uganda,country,Sub-Saharan Africa,1.373333,32.290275,SK,Slovak Rep.,country,Europe and Central Asia,48.669026,19.699024,5401.40782281378,2000,184,0,0,0,0,0,0,0,0,0,0,0,184,0,0,0,0,0,0,0,0,0,0,0
UA,Ukraine,country,Europe and Central Asia,48.379433,31.16558,SK,Slovak Rep.,country,Europe and Central Asia,48.669026,19.699024,845.215296141843,2000,40844,39448,0,2,5,109,12,26,212,0,4,0,0,33,0,153,0,0,81,759,0,0,0,0
AE,United Arab Emirates,country,Middle East and North Africa,23.424076,53.847818,SK,Slovak Rep.,country,Europe and Central Asia,48.669026,19.699024,4104.22239857601,2000,0,0,0,0,0,0,0,0,0,0,0,0,0,0,0,0,0,0,0,0,0,0,0,0
GB,United Kingdom,country,Europe and Central Asia,55.378051,-3.435973,SK,Slovak Rep.,country,Europe and Central Asia,48.669026,19.699024,1740.95685068405,2000,9746,8667,1,56,98,0,0,52,18,3,0,9,24,76,0,587,843,60,95,0,0,0,0,0
TZ,Tanzania,country,Sub-Saharan Africa,-6.369028,34.888822,SK,Slovak Rep.,country,Europe and Central Asia,48.669026,19.699024,6303.57548634644,2000,98,0,0,0,0,0,0,0,0,58,0,0,0,40,0,0,0,0,0,0,0,0,0,0
US,USA,country,North America,37.09024,-95.712891,SK,Slovak Rep.,country,Europe and Central Asia,48.669026,19.699024,8559.56122867489,2000,3721,209,5,34,24,190,126,11,342,30,0,3,1,879,7,632,4,0,2,1226,0,0,0,0
UY,Uruguay,country,Latin America and the Caribbean,-32.522779,-55.765835,SK,Slovak Rep.,country,Europe and Central Asia,48.669026,19.699024,11722.5267069637,2000,343,0,0,0,0,0,0,0,339,2,0,0,0,0,0,2,0,0,0,0,0,0,0,0
UZ,Uzbekistan,country,Europe and Central Asia,41.377491,64.585262,SK,Slovak Rep.,country,Europe and Central Asia,48.669026,19.699024,3569.23781615218,2000,3214,0,0,0,0,0,0,0,0,3213,0,0,0,1,0,0,0,0,0,0,0,0,0,0
VE,Venezuela,country,Latin America and the Caribbean,6.42375,-66.58973,SK,Slovak Rep.,country,Europe and Central Asia,48.669026,19.699024,9209.81182136399,2000,1980,0,0,0,0,0,0,0,1980,0,0,0,0,0,0,0,0,0,0,0,0,0,0,0
VN,Vietnam,country,East Asia and Pacific,14.058324,108.277199,SK,Slovak Rep.,country,Europe and Central Asia,48.669026,19.699024,8745.54084892293,2000,8710,3307,0,0,0,0,0,11,61,0,195,0,2081,3055,0,0,0,0,0,0,0,0,0,0
ZM,Zambia,country,Sub-Saharan Africa,-13.133897,27.849332,SK,Slovak Rep.,country,Europe and Central Asia,48.669026,19.699024,6926.78858665024,2000,0,0,0,0,0,0,0,0,0,0,0,0,0,0,0,0,0,0,0,0,0,0,0,0
ZW,Zimbabwe,country,Sub-Saharan Africa,-19.015438,29.154857,SK,Slovak Rep.,country,Europe and Central Asia,48.669026,19.699024,7592.98129763657,2000,74,0,0,0,0,0,0,0,29,0,0,0,0,45,0,0,0,0,0,0,0,0,0,0
AF,Afghanistan,country,South Asia,33.93911,67.709953,SK,Slovak Rep.,country,Europe and Central Asia,48.669026,19.699024,4253.24103341233,2001,7,0,0,0,0,0,0,0,7,0,0,0,0,0,0,0,0,0,0,0,0,0,0,0
AL,Albania,country,Europe and Central Asia,41.153332,20.168331,SK,Slovak Rep.,country,Europe and Central Asia,48.669026,19.699024,837.456245083589,2001,92,0,0,0,0,0,0,0,0,0,81,0,0,11,0,0,0,0,0,0,0,0,0,0
AG,Antigua & Barbuda,country,Latin America and the Caribbean,17.060816,-61.796428,SK,Slovak Rep.,country,Europe and Central Asia,48.669026,19.699024,7983.74321885388,2001,1,0,0,0,0,0,0,0,0,0,0,0,1,0,0,0,0,0,0,0,0,0,0,0
AR,Argentina,country,Latin America and the Caribbean,-38.416097,-63.616672,SK,Slovak Rep.,country,Europe and Central Asia,48.669026,19.699024,12687.7934412495,2001,1528,2,0,16,0,1,431,0,804,7,0,96,13,156,0,2,0,0,0,0,0,0,0,0
AM,Armenia,country,Europe and Central Asia,40.069099,45.038189,SK,Slovak Rep.,country,Europe and Central Asia,48.669026,19.699024,2218.15963244041,2001,3,0,0,0,0,0,0,0,0,0,0,0,0,0,0,3,0,0,0,0,0,0,0,0
AU,Australia,country,East Asia and Pacific,-25.274398,133.775136,SK,Slovak Rep.,country,Europe and Central Asia,48.669026,19.699024,13842.417967848,2001,2259,0,0,0,1,1,0,0,26,2202,0,0,0,3,0,11,0,0,0,15,0,0,0,0
AT,Austria,country,Europe and Central Asia,47.516231,14.550072,SK,Slovak Rep.,country,Europe and Central Asia,48.669026,19.699024,403.681104129486,2001,40105,9706,315,118,0,307,119,1181,5569,2,109,888,994,3006,5433,10868,145,946,398,146,0,0,0,0
AZ,Azerbaijan,country,Europe and Central Asia,40.143105,47.576927,SK,Slovak Rep.,country,Europe and Central Asia,48.669026,19.699024,2394.3667521138,2001,122,0,0,0,0,42,0,0,0,60,0,0,0,0,0,0,0,0,0,20,0,0,0,0
BS,The Bahamas,country,Latin America and the Caribbean,25.03428,-77.39628,SK,Slovak Rep.,country,Europe and Central Asia,48.669026,19.699024,8447.64325122833,2001,22,0,0,0,0,0,0,0,0,0,0,0,0,0,0,22,0,0,0,0,0,0,0,0
BD,Bangladesh,country,South Asia,23.684994,90.356331,SK,Slovak Rep.,country,Europe and Central Asia,48.669026,19.699024,6664.73081019315,2001,0,0,0,0,0,0,0,0,0,0,0,0,0,0,0,0,0,0,0,0,0,0,0,0
BY,Belarus,country,Europe and Central Asia,53.709807,27.953389,SK,Slovak Rep.,country,Europe and Central Asia,48.669026,19.699024,803.107804439422,2001,0,0,0,0,0,0,0,0,0,0,0,0,0,0,0,0,0,0,0,0,0,0,0,0
BE,Belgium,country,Europe and Central Asia,50.503887,4.469936,SK,Slovak Rep.,country,Europe and Central Asia,48.669026,19.699024,1115.79230067346,2001,26575,643,1054,360,0,2,305,961,2723,2,0,16586,713,625,453,662,0,585,880,21,0,0,0,0
BJ,Benin,country,Sub-Saharan Africa,9.30769,2.315834,SK,Slovak Rep.,country,Europe and Central Asia,48.669026,19.699024,4673.0171427369,2001,3,0,0,0,0,3,0,0,0,0,0,0,0,0,0,0,0,0,0,0,0,0,0,0
BO,Bolivia,country,Latin America and the Caribbean,-16.290154,-63.588653,SK,Slovak Rep.,country,Europe and Central Asia,48.669026,19.699024,10892.3439058926,2001,17,0,0,0,0,17,0,0,0,0,0,0,0,0,0,0,0,0,0,0,0,0,0,0
BR,Brazil,country,Latin America and the Caribbean,-14.235004,-51.92528,SK,Slovak Rep.,country,Europe and Central Asia,48.669026,19.699024,9909.35749609004,2001,5884,0,0,0,0,7,0,58,3761,0,66,402,1091,257,1,198,0,43,0,0,0,0,0,0
BG,Bulgaria,country,Europe and Central Asia,42.733883,25.48583,SK,Slovak Rep.,country,Europe and Central Asia,48.669026,19.699024,798.80386751614,2001,1233,289,0,20,0,0,0,203,36,0,0,0,0,89,0,596,0,0,0,0,0,0,0,0
BF,Burkina Faso,country,Sub-Saharan Africa,12.238333,-1.561593,SK,Slovak Rep.,country,Europe and Central Asia,48.669026,19.699024,4506.03878120726,2001,8,0,0,0,0,0,0,0,8,0,0,0,0,0,0,0,0,0,0,0,0,0,0,0
CM,Cameroon,country,Sub-Saharan Africa,7.369722,12.354722,SK,Slovak Rep.,country,Europe and Central Asia,48.669026,19.699024,4649.10690536104,2001,1222,0,0,0,0,0,0,0,962,0,0,0,77,183,0,0,0,0,0,0,0,0,0,0
CA,Canada,country,North America,56.130366,-106.346771,SK,Slovak Rep.,country,Europe and Central Asia,48.669026,19.699024,7345.85757190154,2001,4403,25,0,0,3996,0,191,13,0,0,1,1,0,81,0,95,0,0,0,0,0,0,0,0
KY,Cayman Islands,country,Latin America and the Caribbean,19.513469,-80.566956,SK,Slovak Rep.,country,Europe and Central Asia,48.669026,19.699024,9123.59363226774,2001,13,0,0,0,0,0,0,13,0,0,0,0,0,0,0,0,0,0,0,0,0,0,0,0
CF,Central African Rep.,country,Sub-Saharan Africa,6.611111,20.939444,SK,Slovak Rep.,country,Europe and Central Asia,48.669026,19.699024,4683.3292081691,2001,311,0,0,0,0,0,0,0,0,311,0,0,0,0,0,0,0,0,0,0,0,0,0,0
CL,Chile,country,Latin America and the Caribbean,-35.675147,-71.542969,SK,Slovak Rep.,country,Europe and Central Asia,48.669026,19.699024,12992.6261253828,2001,557,0,0,0,0,0,0,0,527,0,0,0,0,3,0,27,0,0,0,0,0,0,0,0
HK,Hong Kong,country,East Asia and Pacific,22.396428,114.109497,SK,Slovak Rep.,country,Europe and Central Asia,48.669026,19.699024,8478.49668346838,2001,0,0,0,0,0,0,0,0,0,0,0,0,0,0,0,0,0,0,0,0,0,0,0,0
CN,China,country,East Asia and Pacific,35.86166,104.195397,SK,Slovak Rep.,country,Europe and Central Asia,48.669026,19.699024,6743.52783630172,2001,18949,2577,0,12,2606,38,2096,5044,1648,0,6,10,144,154,0,10,0,4604,0,0,0,0,0,0
TW,Taiwan,country,East Asia and Pacific,23.69781,120.960515,SK,Slovak Rep.,country,Europe and Central Asia,48.669026,19.699024,8840.36547767449,2001,247,0,0,0,0,0,0,0,178,0,0,0,0,0,0,69,0,0,0,0,0,0,0,0
CO,Colombia,country,Latin America and the Caribbean,4.570868,-74.297333,SK,Slovak Rep.,country,Europe and Central Asia,48.669026,19.699024,9929.70014318263,2001,8624,0,0,2,0,0,0,0,8438,0,0,0,85,99,0,0,0,0,0,0,0,0,0,0
CG,"Congo, Rep.",country,Sub-Saharan Africa,-0.228021,15.827659,SK,Slovak Rep.,country,Europe and Central Asia,48.669026,19.699024,5455.93855422102,2001,21,0,0,0,0,0,0,0,0,0,0,0,21,0,0,0,0,0,0,0,0,0,0,0
CR,Costa Rica,country,Latin America and the Caribbean,9.748917,-83.753428,SK,Slovak Rep.,country,Europe and Central Asia,48.669026,19.699024,10173.5396848959,2001,5104,0,0,0,0,0,0,21,5045,0,0,0,7,31,0,0,0,0,0,0,0,0,0,0
CI,Ivory Coast,country,Sub-Saharan Africa,7.539989,-5.54708,SK,Slovak Rep.,country,Europe and Central Asia,48.669026,19.699024,5155.73540726631,2001,1548,0,0,0,0,0,113,3,817,0,0,0,320,295,0,0,0,0,0,0,0,0,0,0
HR,Croatia,country,Europe and Central Asia,45.1,15.2,SK,Slovak Rep.,country,Europe and Central Asia,48.669026,19.699024,524.232901555576,2001,1352,51,0,7,0,0,2,5,249,0,0,195,32,543,0,266,0,0,0,2,0,0,0,0
CU,Cuba,country,Latin America and the Caribbean,21.521757,-77.781167,SK,Slovak Rep.,country,Europe and Central Asia,48.669026,19.699024,8763.78570801154,2001,46,0,0,0,0,0,0,0,40,0,0,0,0,0,0,6,0,0,0,0,0,0,0,0
CY,Cyprus,country,Europe and Central Asia,35.126413,33.429859,SK,Slovak Rep.,country,Europe and Central Asia,48.669026,19.699024,1882.48067514411,2001,4346,0,0,0,0,0,0,42,4182,0,0,0,0,77,0,45,0,0,0,0,0,0,0,0
CZ,Czech Republic,country,Europe and Central Asia,49.817492,15.472962,SK,Slovak Rep.,country,Europe and Central Asia,48.669026,19.699024,332.613983609082,2001,470705,184414,2491,9101,1223,356,5520,9838,11012,279,631,663,13438,28139,55908,111043,23495,13872,21580,1197,0,0,0,0
KP,"Korea, Dem. Rep.",country,East Asia and Pacific,40.339852,127.510093,SK,Slovak Rep.,country,Europe and Central Asia,48.669026,19.699024,7859.53269824578,2001,0,0,0,0,0,0,0,0,0,0,0,0,0,0,0,0,0,0,0,0,0,0,0,0
DK,Denmark,country,Europe and Central Asia,56.26392,9.501785,SK,Slovak Rep.,country,Europe and Central Asia,48.669026,19.699024,1089.95684863369,2001,12273,8200,49,20,0,0,0,69,59,0,1,158,233,703,111,43,25,2616,11,0,0,0,0,0
DM,Dominica,country,Latin America and the Caribbean,15.414999,-61.370976,SK,Slovak Rep.,country,Europe and Central Asia,48.669026,19.699024,8085.92244747466,2001,20,0,0,0,0,0,0,0,20,0,0,0,0,0,0,0,0,0,0,0,0,0,0,0
DO,Dominican Republic,country,Latin America and the Caribbean,18.735693,-70.162651,SK,Slovak Rep.,country,Europe and Central Asia,48.669026,19.699024,8455.14270266498,2001,0,0,0,0,0,0,0,0,0,0,0,0,0,0,0,0,0,0,0,0,0,0,0,0
EC,Ecuador,country,Latin America and the Caribbean,-1.831239,-78.183406,SK,Slovak Rep.,country,Europe and Central Asia,48.669026,19.699024,10750.773925595,2001,21531,0,0,0,0,0,0,0,21464,0,0,0,57,10,0,0,0,0,0,0,0,0,0,0
EG,Egypt,country,Middle East and North Africa,26.820553,30.802498,SK,Slovak Rep.,country,Europe and Central Asia,48.669026,19.699024,2614.74519155679,2001,2365,2214,0,0,0,0,0,118,7,0,3,0,18,5,0,0,0,0,0,0,0,0,0,0
SV,El Salvador,country,Latin America and the Caribbean,13.794185,-88.89653,SK,Slovak Rep.,country,Europe and Central Asia,48.669026,19.699024,10181.2755973345,2001,279,0,0,0,0,0,0,0,0,0,0,0,279,0,0,0,0,0,0,0,0,0,0,0
GQ,Equatorial Guinea,country,Sub-Saharan Africa,1.650801,10.267895,SK,Slovak Rep.,country,Europe and Central Asia,48.669026,19.699024,5311.40262555972,2001,2,0,0,0,0,0,0,0,2,0,0,0,0,0,0,0,0,0,0,0,0,0,0,0
ET,Ethiopia,country,Sub-Saharan Africa,9.145,40.489673,SK,Slovak Rep.,country,Europe and Central Asia,48.669026,19.699024,4809.63178428947,2001,722,24,0,0,680,0,0,0,0,0,0,0,18,0,0,0,0,0,0,0,0,0,0,0
FO,Faroe Islands,country,Europe and Central Asia,61.892635,-6.911806,SK,Slovak Rep.,country,Europe and Central Asia,48.669026,19.699024,2210.79446305026,2001,1,0,0,0,0,0,1,0,0,0,0,0,0,0,0,0,0,0,0,0,0,0,0,0
FJ,Fiji,country,East Asia and Pacific,-16.578193,179.414413,SK,Slovak Rep.,country,Europe and Central Asia,48.669026,19.699024,16018.4685191505,2001,1,0,0,0,0,0,0,0,1,0,0,0,0,0,0,0,0,0,0,0,0,0,0,0
FI,Finland,country,Europe and Central Asia,61.92411,25.748151,SK,Slovak Rep.,country,Europe and Central Asia,48.669026,19.699024,1522.94399461862,2001,243,20,0,16,0,0,0,0,0,0,0,0,16,2,0,189,0,0,0,0,0,0,0,0
FR,France,country,Europe and Central Asia,46.227638,2.213749,SK,Slovak Rep.,country,Europe and Central Asia,48.669026,19.699024,1340.89145486655,2001,51742,41678,50,696,7,4,223,2120,453,766,0,5,710,1068,374,2403,405,994,137,54,0,0,0,0
