sourceCode,sourceName,sourceGrouping,sourceRegion,sourceLat,sourceLong,destCode,destName,destGrouping,destRegion,destLat,destLong,distance,year,totalTons,cereals,roots,sugarCrops,pulses,nuts,oilCrops,vegetables,fruits,fibers,spices,fodderCrops,coffeeTea,tobaccoRubber,oilsFats,beverages,livestock,animalMeats,animalProducts,animalHides,nimalOther,pesticides,fertilizers,machinery
AF,Afghanistan,country,South Asia,33.93911,67.709953,YE,Yemen,country,Middle East and North Africa,15.552727,48.516388,2809.80049300432,1998,11,0,0,0,0,0,0,0,0,0,11,0,0,0,0,0,0,0,0,0,0,0,0,0
DZ,Algeria,country,Middle East and North Africa,28.033886,1.659626,YE,Yemen,country,Middle East and North Africa,15.552727,48.516388,5005.76286787739,1998,83,0,0,10,0,0,0,0,0,0,0,0,0,1,0,0,0,0,72,0,0,0,0,0
AR,Argentina,country,Latin America and the Caribbean,-38.416097,-63.616672,YE,Yemen,country,Middle East and North Africa,15.552727,48.516388,13002.9419003749,1998,157908,124564,0,0,0,0,0,0,0,0,0,33344,0,0,0,0,0,0,0,0,0,0,0,0
AU,Australia,country,East Asia and Pacific,-25.274398,133.775136,YE,Yemen,country,Middle East and North Africa,15.552727,48.516388,10289.7161571676,1998,619148,618352,0,67,0,0,0,0,87,0,0,0,0,0,0,219,0,32,391,0,0,0,0,0
AT,Austria,country,Europe and Central Asia,47.516231,14.550072,YE,Yemen,country,Middle East and North Africa,15.552727,48.516388,4730.27624417639,1998,208,0,0,0,0,0,0,0,141,0,1,0,5,61,0,0,0,0,0,0,0,0,0,0
BH,Bahrain,country,Middle East and North Africa,25.930414,50.637772,YE,Yemen,country,Middle East and North Africa,15.552727,48.516388,1176.077370226,1998,579,0,0,0,0,0,0,0,79,0,0,0,0,0,0,500,0,0,0,0,0,0,0,0
BD,Bangladesh,country,South Asia,23.684994,90.356331,YE,Yemen,country,Middle East and North Africa,15.552727,48.516388,4463.29402953326,1998,3,0,0,0,0,0,0,0,0,0,3,0,0,0,0,0,0,0,0,0,0,0,0,0
BE,Belgium,country,Europe and Central Asia,50.503887,4.469936,YE,Yemen,country,Middle East and North Africa,15.552727,48.516388,5528.10560101808,1998,85001,58518,0,18023,0,0,0,2,17,0,0,7548,3,36,14,180,0,4,656,0,0,0,0,0
BR,Brazil,country,Latin America and the Caribbean,-14.235004,-51.92528,YE,Yemen,country,Middle East and North Africa,15.552727,48.516388,11532.8769459926,1998,240738,50770,0,188810,0,0,0,0,0,0,0,0,0,158,0,0,0,1000,0,0,0,0,0,0
CA,Canada,country,North America,56.130366,-106.346771,YE,Yemen,country,Middle East and North Africa,15.552727,48.516388,11718.9867643119,1998,36,0,0,0,0,0,0,0,0,1,0,0,10,0,0,0,0,0,25,0,0,0,0,0
CL,Chile,country,Latin America and the Caribbean,-35.675147,-71.542969,YE,Yemen,country,Middle East and North Africa,15.552727,48.516388,13720.6788003906,1998,311,0,0,0,0,0,0,292,0,0,0,0,0,19,0,0,0,0,0,0,0,0,0,0
HK,Hong Kong,country,East Asia and Pacific,22.396428,114.109497,YE,Yemen,country,Middle East and North Africa,15.552727,48.516388,6896.43484921883,1998,845,0,0,21,0,0,0,99,65,0,28,0,504,32,0,96,0,0,0,0,0,0,0,0
CN,China,country,East Asia and Pacific,35.86166,104.195397,YE,Yemen,country,Middle East and North Africa,15.552727,48.516388,5935.9937643865,1998,24069,91,0,13595,0,0,0,8027,1684,0,76,0,343,206,17,30,0,0,0,0,0,0,0,0
TW,Taiwan,country,East Asia and Pacific,23.69781,120.960515,YE,Yemen,country,Middle East and North Africa,15.552727,48.516388,7574.92442326994,1998,71,0,0,0,0,0,0,0,71,0,0,0,0,0,0,0,0,0,0,0,0,0,0,0
HR,Croatia,country,Europe and Central Asia,45.1,15.2,YE,Yemen,country,Middle East and North Africa,15.552727,48.516388,4530.18686623993,1998,50,0,0,0,0,0,0,0,0,0,0,0,0,0,0,0,0,0,50,0,0,0,0,0
CY,Cyprus,country,Europe and Central Asia,35.126413,33.429859,YE,Yemen,country,Middle East and North Africa,15.552727,48.516388,2647.90839573188,1998,11567,11450,0,0,0,0,0,0,5,0,0,0,0,93,0,19,0,0,0,0,0,0,0,0
CZ,Czech Republic,country,Europe and Central Asia,49.817492,15.472962,YE,Yemen,country,Middle East and North Africa,15.552727,48.516388,4837.47240324221,1998,121,0,0,96,0,0,0,0,0,0,0,0,0,0,0,0,0,0,25,0,0,0,0,0
CD,"Congo, Dem. Rep.",country,Sub-Saharan Africa,-4.038333,21.758664,YE,Yemen,country,Middle East and North Africa,15.552727,48.516388,3667.27908857222,1998,144,0,0,0,0,0,0,0,0,0,0,0,0,0,0,0,0,0,144,0,0,0,0,0
DK,Denmark,country,Europe and Central Asia,56.26392,9.501785,YE,Yemen,country,Middle East and North Africa,15.552727,48.516388,5600.04151300287,1998,3474,6,0,0,0,0,0,17,15,0,0,0,0,104,0,146,0,0,3186,0,0,0,0,0
DJ,Djibouti,country,Middle East and North Africa,11.825138,42.590275,YE,Yemen,country,Middle East and North Africa,15.552727,48.516388,763.423877104999,1998,10607,266,0,86,0,0,2489,597,370,0,315,0,1738,202,0,573,0,0,3971,0,0,0,0,0
EG,Egypt,country,Middle East and North Africa,26.820553,30.802498,YE,Yemen,country,Middle East and North Africa,15.552727,48.516388,2221.36109191692,1998,4041,793,0,476,0,0,0,38,1757,0,22,0,73,336,1,211,0,0,334,0,0,0,0,0
ER,Eritrea,country,Sub-Saharan Africa,15.179384,39.782334,YE,Yemen,country,Middle East and North Africa,15.552727,48.516388,938.369162068095,1998,1,0,0,0,0,0,0,0,0,0,0,0,0,1,0,0,0,0,0,0,0,0,0,0
ET,Ethiopia,country,Sub-Saharan Africa,9.145,40.489673,YE,Yemen,country,Middle East and North Africa,15.552727,48.516388,1126.81707470139,1998,503,0,0,27,0,0,446,0,0,0,0,0,0,29,0,0,0,0,1,0,0,0,0,0
FR,France,country,Europe and Central Asia,46.227638,2.213749,YE,Yemen,country,Middle East and North Africa,15.552727,48.516388,5471.71743772721,1998,208970,177027,0,43,409,0,0,6,20,0,0,320,0,118,4,44,10,26018,4961,0,0,0,0,0
DE,Germany,country,Europe and Central Asia,51.165691,10.451526,YE,Yemen,country,Middle East and North Africa,15.552727,48.516388,5210.31362677837,1998,25781,106,0,19423,230,0,0,146,2,0,15,821,22,87,2403,312,0,17,2197,0,0,0,0,0
GR,Greece,country,Europe and Central Asia,39.074208,21.824312,YE,Yemen,country,Middle East and North Africa,15.552727,48.516388,3690.62413538929,1998,8782,8554,0,79,0,0,0,0,149,0,0,0,0,0,0,0,0,0,0,0,0,0,0,0
HU,Hungary,country,Europe and Central Asia,47.162494,19.503304,YE,Yemen,country,Middle East and North Africa,15.552727,48.516388,4419.00216056352,1998,4346,0,0,0,0,0,0,0,0,0,0,0,0,2,0,0,0,0,4344,0,0,0,0,0
IN,India,country,South Asia,20.593684,78.96288,YE,Yemen,country,Middle East and North Africa,15.552727,48.516388,3265.51574962719,1998,50818,43445,2,128,0,0,233,153,1434,0,982,30,432,1309,58,0,0,2023,589,0,0,0,0,0
ID,Indonesia,country,East Asia and Pacific,-0.789275,113.921327,YE,Yemen,country,Middle East and North Africa,15.552727,48.516388,7413.29823183377,1998,37570,4062,0,120,0,0,0,20,0,0,4,0,0,175,33189,0,0,0,0,0,0,0,0,0
IR,Iran,country,Middle East and North Africa,32.427908,53.688046,YE,Yemen,country,Middle East and North Africa,15.552727,48.516388,1949.95293727742,1998,750,39,0,0,0,0,0,0,631,0,0,0,0,4,63,13,0,0,0,0,0,0,0,0
IQ,Iraq,country,Middle East and North Africa,33.223191,43.679291,YE,Yemen,country,Middle East and North Africa,15.552727,48.516388,2026.5097854677,1998,122,0,0,0,0,0,0,0,122,0,0,0,0,0,0,0,0,0,0,0,0,0,0,0
IE,Ireland,country,Europe and Central Asia,53.41291,-8.24389,YE,Yemen,country,Middle East and North Africa,15.552727,48.516388,6455.57803653896,1998,676,78,0,0,0,0,0,0,27,0,0,0,0,59,0,0,0,0,512,0,0,0,0,0
IT,Italy,country,Europe and Central Asia,41.87194,12.56738,YE,Yemen,country,Middle East and North Africa,15.552727,48.516388,4515.3013915207,1998,242662,235923,0,11,0,0,0,6433,98,0,0,0,43,72,30,5,0,0,47,0,0,0,0,0
JP,Japan,country,East Asia and Pacific,36.204824,138.252924,YE,Yemen,country,Middle East and North Africa,15.552727,48.516388,8981.25225984533,1998,527,28,0,7,0,0,0,0,0,0,0,0,0,0,492,0,0,0,0,0,0,0,0,0
JO,Jordan,country,Middle East and North Africa,30.585164,36.238414,YE,Yemen,country,Middle East and North Africa,15.552727,48.516388,2089.62869111912,1998,1255,460,25,38,25,0,0,0,35,0,0,40,0,19,589,0,0,24,0,0,0,0,0,0
KE,Kenya,country,Sub-Saharan Africa,-0.023559,37.906193,YE,Yemen,country,Middle East and North Africa,15.552727,48.516388,2089.77290770266,1998,1921,168,0,0,0,8,8,0,0,0,3,0,1723,0,10,0,0,0,1,0,0,0,0,0
KW,Kuwait,country,Middle East and North Africa,29.31166,47.481766,YE,Yemen,country,Middle East and North Africa,15.552727,48.516388,1535.30585440912,1998,70,0,0,0,0,0,0,0,70,0,0,0,0,0,0,0,0,0,0,0,0,0,0,0
LB,Lebanon,country,Middle East and North Africa,33.854721,35.862285,YE,Yemen,country,Middle East and North Africa,15.552727,48.516388,2400.94247300665,1998,90,0,0,59,0,0,0,2,12,0,16,0,1,0,0,0,0,0,0,0,0,0,0,0
LY,Libya,country,Middle East and North Africa,26.3351,17.228331,YE,Yemen,country,Middle East and North Africa,15.552727,48.516388,3455.71956541413,1998,73,0,0,0,0,0,0,0,0,0,0,0,73,0,0,0,0,0,0,0,0,0,0,0
LT,Lithuania,country,Europe and Central Asia,55.169438,23.881275,YE,Yemen,country,Middle East and North Africa,15.552727,48.516388,4889.74012638493,1998,118,0,0,0,0,0,0,0,0,0,0,0,0,0,0,0,0,0,118,0,0,0,0,0
MG,Madagascar,country,Sub-Saharan Africa,-18.766947,46.869107,YE,Yemen,country,Middle East and North Africa,15.552727,48.516388,3824.71102029919,1998,23,0,0,0,0,0,0,0,0,0,23,0,0,0,0,0,0,0,0,0,0,0,0,0
MY,Malaysia,country,East Asia and Pacific,4.210484,101.975766,YE,Yemen,country,Middle East and North Africa,15.552727,48.516388,5980.10083643748,1998,73743,61,0,101,0,0,131,0,9,0,29,0,156,292,72946,18,0,0,0,0,0,0,0,0
MT,Malta,country,Middle East and North Africa,35.937496,14.375416,YE,Yemen,country,Middle East and North Africa,15.552727,48.516388,4072.90928426755,1998,850,428,0,36,0,0,0,0,0,0,0,0,0,386,0,0,0,0,0,0,0,0,0,0
MX,Mexico,country,Latin America and the Caribbean,23.634501,-102.552784,YE,Yemen,country,Middle East and North Africa,15.552727,48.516388,14658.3279162412,1998,15151,21,0,14600,0,0,0,0,0,0,0,0,0,0,0,0,0,0,530,0,0,0,0,0
MA,Morocco,country,Middle East and North Africa,31.791702,-7.09262,YE,Yemen,country,Middle East and North Africa,15.552727,48.516388,5884.28837568472,1998,10,10,0,0,0,0,0,0,0,0,0,0,0,0,0,0,0,0,0,0,0,0,0,0
NL,Netherlands,country,Europe and Central Asia,52.132633,5.291266,YE,Yemen,country,Middle East and North Africa,15.552727,48.516388,5567.76949615627,1998,54416,17296,0,3504,258,0,6,0,74,7,0,25190,3,83,4115,148,253,0,3732,0,0,0,0,0
NZ,New Zealand,country,East Asia and Pacific,-40.900557,174.885971,YE,Yemen,country,Middle East and North Africa,15.552727,48.516388,14181.9250367704,1998,4266,211,0,500,0,0,0,0,0,0,0,0,0,0,0,0,0,58,3497,0,0,0,0,0
NE,Niger,country,Sub-Saharan Africa,17.607789,8.081666,YE,Yemen,country,Middle East and North Africa,15.552727,48.516388,4312.15953337549,1998,3,0,0,0,0,0,0,0,0,0,0,0,0,3,0,0,0,0,0,0,0,0,0,0
NG,Nigeria,country,Sub-Saharan Africa,9.081999,8.675277,YE,Yemen,country,Middle East and North Africa,15.552727,48.516388,4385.73212357103,1998,332,0,0,0,0,0,0,0,0,0,0,0,0,332,0,0,0,0,0,0,0,0,0,0
NO,Norway,country,Europe and Central Asia,60.472024,8.468946,YE,Yemen,country,Middle East and North Africa,15.552727,48.516388,5940.15611884409,1998,42,0,0,0,0,0,0,0,0,0,0,0,0,42,0,0,0,0,0,0,0,0,0,0
OM,Oman,country,Middle East and North Africa,21.512583,55.923255,YE,Yemen,country,Middle East and North Africa,15.552727,48.516388,1024.94171136052,1998,647,400,0,5,0,0,0,10,165,0,9,0,32,11,10,5,0,0,0,0,0,0,0,0
PK,Pakistan,country,South Asia,30.375321,69.345116,YE,Yemen,country,Middle East and North Africa,15.552727,48.516388,2689.4895735583,1998,12793,8497,0,3876,0,0,0,32,1,0,4,2,0,324,0,0,0,0,57,0,0,0,0,0
PL,Poland,country,Europe and Central Asia,51.919438,19.145136,YE,Yemen,country,Middle East and North Africa,15.552727,48.516388,4809.99666967664,1998,481,0,0,67,0,0,0,0,0,0,0,41,65,0,0,0,0,0,308,0,0,0,0,0
QA,Qatar,country,Middle East and North Africa,25.354826,51.183884,YE,Yemen,country,Middle East and North Africa,15.552727,48.516388,1125.95689628297,1998,99,0,0,82,0,0,0,0,0,0,0,0,17,0,0,0,0,0,0,0,0,0,0,0
KR,"Korea, Rep.",country,East Asia and Pacific,35.907757,127.766922,YE,Yemen,country,Middle East and North Africa,15.552727,48.516388,8056.72672002934,1998,12,0,0,1,0,0,0,0,0,0,0,0,0,11,0,0,0,0,0,0,0,0,0,0
RU,Russian Federation,country,Europe and Central Asia,61.52401,105.318756,YE,Yemen,country,Middle East and North Africa,15.552727,48.516388,6773.16011690724,1998,57,0,0,0,0,0,0,0,0,0,0,0,0,0,0,1,0,0,56,0,0,0,0,0
SA,Saudi Arabia,country,Middle East and North Africa,23.885942,45.079162,YE,Yemen,country,Middle East and North Africa,15.552727,48.516388,994.962087477527,1998,80194,11111,23,3223,551,72,75,3993,14658,203,155,1163,907,3337,3134,17725,1497,4499,15365,0,0,0,0,0
SC,Seychelles,country,Sub-Saharan Africa,-4.679574,55.491977,YE,Yemen,country,Middle East and North Africa,15.552727,48.516388,2379.87301576366,1998,29,0,0,0,0,0,0,0,0,0,0,0,29,0,0,0,0,0,0,0,0,0,0,0
SG,Singapore,country,East Asia and Pacific,1.352083,103.819836,YE,Yemen,country,Middle East and North Africa,15.552727,48.516388,6269.45837379242,1998,20347,284,0,564,0,0,86,863,2981,107,705,0,336,395,10308,62,0,50,3606,0,0,0,0,0
SK,Slovak Rep.,country,Europe and Central Asia,48.669026,19.699024,YE,Yemen,country,Middle East and North Africa,15.552727,48.516388,4524.44832238131,1998,25,0,0,0,0,0,0,0,0,0,0,0,0,0,0,0,0,0,25,0,0,0,0,0
SO,Somalia,country,Sub-Saharan Africa,5.152149,46.199616,YE,Yemen,country,Middle East and North Africa,15.552727,48.516388,1185.17569796322,1998,1000,1,0,0,0,0,24,0,0,0,0,0,0,146,0,0,0,0,829,0,0,0,0,0
ZA,S. Africa,country,Sub-Saharan Africa,-30.559482,22.937506,YE,Yemen,country,Middle East and North Africa,15.552727,48.516388,5818.6526037916,1998,8437,8277,0,0,0,0,0,0,32,0,0,0,0,128,0,0,0,0,0,0,0,0,0,0
ES,Spain,country,Europe and Central Asia,40.463667,-3.74922,YE,Yemen,country,Middle East and North Africa,15.552727,48.516388,5732.4484973809,1998,436,95,0,39,0,0,0,94,4,0,0,0,0,83,121,0,0,0,0,0,0,0,0,0
LK,Sri Lanka,country,South Asia,7.873054,80.771797,YE,Yemen,country,Middle East and North Africa,15.552727,48.516388,3613.50426468729,1998,2119,2,0,39,0,0,13,0,93,0,195,0,1710,18,49,0,0,0,0,0,0,0,0,0
SD,Sudan,country,Sub-Saharan Africa,12.862807,30.217636,YE,Yemen,country,Middle East and North Africa,15.552727,48.516388,1996.55530210888,1998,22685,0,0,18505,0,565,2309,100,0,0,0,0,0,1203,0,0,0,3,0,0,0,0,0,0
SE,Sweden,country,Europe and Central Asia,60.128161,18.643501,YE,Yemen,country,Middle East and North Africa,15.552727,48.516388,5517.64292744005,1998,65,0,0,0,0,0,0,0,0,0,0,0,0,1,0,0,0,0,64,0,0,0,0,0
CH,Switzerland,country,Europe and Central Asia,46.818188,8.227512,YE,Yemen,country,Middle East and North Africa,15.552727,48.516388,5087.51158473012,1998,609,0,0,1,0,0,0,0,20,0,0,0,7,1,0,580,0,0,0,0,0,0,0,0
SY,Syrian Arab Rep.,country,Middle East and North Africa,34.802075,38.996815,YE,Yemen,country,Middle East and North Africa,15.552727,48.516388,2344.48521241392,1998,58,0,0,57,0,0,0,1,0,0,0,0,0,0,0,0,0,0,0,0,0,0,0,0
TH,Thailand,country,East Asia and Pacific,15.870032,100.992541,YE,Yemen,country,Middle East and North Africa,15.552727,48.516388,5607.85442943642,1998,61921,61005,0,134,0,0,0,26,749,0,0,0,0,7,0,0,0,0,0,0,0,0,0,0
TN,Tunisia,country,Middle East and North Africa,33.886917,9.537499,YE,Yemen,country,Middle East and North Africa,15.552727,48.516388,4401.40252468683,1998,127,48,0,0,0,0,0,0,1,0,0,0,0,78,0,0,0,0,0,0,0,0,0,0
TR,Turkey,country,Europe and Central Asia,38.963745,35.243322,YE,Yemen,country,Middle East and North Africa,15.552727,48.516388,2910.64500427987,1998,1595,265,0,413,0,0,0,206,15,0,0,0,184,472,36,0,0,4,0,0,0,0,0,0
AE,United Arab Emirates,country,Middle East and North Africa,23.424076,53.847818,YE,Yemen,country,Middle East and North Africa,15.552727,48.516388,1039.28505072365,1998,43389,23157,30,4145,1347,14,47,2029,3477,35,1089,787,594,2787,1343,280,0,1743,485,0,0,0,0,0
GB,United Kingdom,country,Europe and Central Asia,55.378051,-3.435973,YE,Yemen,country,Middle East and North Africa,15.552727,48.516388,6243.14697759231,1998,17460,3175,495,4937,886,0,0,50,72,0,1,2,173,3803,2000,134,152,776,956,0,0,0,0,0
US,USA,country,North America,37.09024,-95.712891,YE,Yemen,country,Middle East and North Africa,15.552727,48.516388,13080.5256939974,1998,573696,558927,0,6985,0,0,0,247,127,0,0,5589,0,183,1573,21,45,2,42,0,0,0,0,0
ZW,Zimbabwe,country,Sub-Saharan Africa,-19.015438,29.154857,YE,Yemen,country,Middle East and North Africa,15.552727,48.516388,4393.94472945579,1998,633,0,0,0,0,0,0,0,0,0,0,0,0,633,0,0,0,0,0,0,0,0,0,0
AO,Angola,country,Sub-Saharan Africa,-11.202692,17.873887,YE,Yemen,country,Middle East and North Africa,15.552727,48.516388,4502.83191899207,2002,1,0,0,0,0,0,0,0,0,0,0,0,0,1,0,0,0,0,0,0,0,0,0,0
AR,Argentina,country,Latin America and the Caribbean,-38.416097,-63.616672,YE,Yemen,country,Middle East and North Africa,15.552727,48.516388,13002.9419003749,2002,279006,207925,0,14000,0,0,0,0,17,0,0,57053,11,0,0,0,0,0,0,0,0,0,0,0
AU,Australia,country,East Asia and Pacific,-25.274398,133.775136,YE,Yemen,country,Middle East and North Africa,15.552727,48.516388,10289.7161571676,2002,190890,190812,0,5,0,0,0,0,0,0,0,0,0,0,0,13,0,0,60,0,0,0,0,0
BH,Bahrain,country,Middle East and North Africa,25.930414,50.637772,YE,Yemen,country,Middle East and North Africa,15.552727,48.516388,1176.077370226,2002,1,0,0,0,0,0,0,0,0,0,0,0,0,0,0,1,0,0,0,0,0,0,0,0
BD,Bangladesh,country,South Asia,23.684994,90.356331,YE,Yemen,country,Middle East and North Africa,15.552727,48.516388,4463.29402953326,2002,307,0,0,0,0,0,0,0,0,0,0,0,0,307,0,0,0,0,0,0,0,0,0,0
BE,Belgium,country,Europe and Central Asia,50.503887,4.469936,YE,Yemen,country,Middle East and North Africa,15.552727,48.516388,5528.10560101808,2002,247,163,0,43,0,0,0,0,15,0,10,0,0,0,0,6,0,0,10,0,0,0,0,0
BT,Bhutan,country,South Asia,27.514162,90.433601,YE,Yemen,country,Middle East and North Africa,15.552727,48.516388,4515.85870622579,2002,3465,3465,0,0,0,0,0,0,0,0,0,0,0,0,0,0,0,0,0,0,0,0,0,0
BR,Brazil,country,Latin America and the Caribbean,-14.235004,-51.92528,YE,Yemen,country,Middle East and North Africa,15.552727,48.516388,11532.8769459926,2002,324887,0,0,324449,0,0,0,0,0,0,0,0,26,412,0,0,0,0,0,0,0,0,0,0
BG,Bulgaria,country,Europe and Central Asia,42.733883,25.48583,YE,Yemen,country,Middle East and North Africa,15.552727,48.516388,3737.50300236752,2002,12156,12156,0,0,0,0,0,0,0,0,0,0,0,0,0,0,0,0,0,0,0,0,0,0
CM,Cameroon,country,Sub-Saharan Africa,7.369722,12.354722,YE,Yemen,country,Middle East and North Africa,15.552727,48.516388,4042.70178279199,2002,1952,250,0,1450,0,0,252,0,0,0,0,0,0,0,0,0,0,0,0,0,0,0,0,0
CA,Canada,country,North America,56.130366,-106.346771,YE,Yemen,country,Middle East and North Africa,15.552727,48.516388,11718.9867643119,2002,614,576,0,0,0,0,33,0,0,0,0,0,5,0,0,0,0,0,0,0,0,0,0,0
HK,Hong Kong,country,East Asia and Pacific,22.396428,114.109497,YE,Yemen,country,Middle East and North Africa,15.552727,48.516388,6896.43484921883,2002,34,9,0,0,0,0,0,25,0,0,0,0,0,0,0,0,0,0,0,0,0,0,0,0
CN,China,country,East Asia and Pacific,35.86166,104.195397,YE,Yemen,country,Middle East and North Africa,15.552727,48.516388,5935.9937643865,2002,47788,27095,26,13000,0,25,36,6123,214,0,349,0,18,774,0,121,0,0,7,0,0,0,0,0
CO,Colombia,country,Latin America and the Caribbean,4.570868,-74.297333,YE,Yemen,country,Middle East and North Africa,15.552727,48.516388,13351.2644822331,2002,34,0,0,0,0,0,0,0,0,0,0,0,34,0,0,0,0,0,0,0,0,0,0,0
CY,Cyprus,country,Europe and Central Asia,35.126413,33.429859,YE,Yemen,country,Middle East and North Africa,15.552727,48.516388,2647.90839573188,2002,18,7,0,0,0,0,0,0,0,0,0,0,0,0,0,11,0,0,0,0,0,0,0,0
CZ,Czech Republic,country,Europe and Central Asia,49.817492,15.472962,YE,Yemen,country,Middle East and North Africa,15.552727,48.516388,4837.47240324221,2002,0,0,0,0,0,0,0,0,0,0,0,0,0,0,0,0,0,0,0,0,0,0,0,0
DK,Denmark,country,Europe and Central Asia,56.26392,9.501785,YE,Yemen,country,Middle East and North Africa,15.552727,48.516388,5600.04151300287,2002,498,5,0,0,0,0,0,0,0,0,0,0,0,0,0,5,0,0,488,0,0,0,0,0
DJ,Djibouti,country,Middle East and North Africa,11.825138,42.590275,YE,Yemen,country,Middle East and North Africa,15.552727,48.516388,763.423877104999,2002,13541,6020,0,2052,0,173,263,315,606,0,867,0,883,1962,0,365,0,0,35,0,0,0,0,0
EG,Egypt,country,Middle East and North Africa,26.820553,30.802498,YE,Yemen,country,Middle East and North Africa,15.552727,48.516388,2221.36109191692,2002,3059,1496,0,75,0,0,0,230,852,0,92,0,36,0,0,88,0,0,190,0,0,0,0,0
ER,Eritrea,country,Sub-Saharan Africa,15.179384,39.782334,YE,Yemen,country,Middle East and North Africa,15.552727,48.516388,938.369162068095,2002,329,0,0,0,0,0,201,0,0,0,35,0,0,93,0,0,0,0,0,0,0,0,0,0
ET,Ethiopia,country,Sub-Saharan Africa,9.145,40.489673,YE,Yemen,country,Middle East and North Africa,15.552727,48.516388,1126.81707470139,2002,8098,1541,40,412,0,0,5510,0,0,0,370,0,189,36,0,0,0,0,0,0,0,0,0,0
FJ,Fiji,country,East Asia and Pacific,-16.578193,179.414413,YE,Yemen,country,Middle East and North Africa,15.552727,48.516388,14797.0093064655,2002,2,0,0,0,0,0,0,0,2,0,0,0,0,0,0,0,0,0,0,0,0,0,0,0
FR,France,country,Europe and Central Asia,46.227638,2.213749,YE,Yemen,country,Middle East and North Africa,15.552727,48.516388,5471.71743772721,2002,227522,223548,0,2500,0,0,0,0,988,0,0,0,0,0,0,25,160,0,461,0,0,0,0,0
DE,Germany,country,Europe and Central Asia,51.165691,10.451526,YE,Yemen,country,Middle East and North Africa,15.552727,48.516388,5210.31362677837,2002,478,10,0,15,0,0,0,0,0,0,0,0,8,0,0,347,121,0,98,0,0,0,0,0
GR,Greece,country,Europe and Central Asia,39.074208,21.824312,YE,Yemen,country,Middle East and North Africa,15.552727,48.516388,3690.62413538929,2002,223,84,0,0,0,0,0,0,139,0,0,0,0,0,0,0,0,0,0,0,0,0,0,0
IN,India,country,South Asia,20.593684,78.96288,YE,Yemen,country,Middle East and North Africa,15.552727,48.516388,3265.51574962719,2002,346997,326308,0,13325,0,0,2,495,0,0,1193,0,382,4536,0,0,70,0,756,0,0,0,0,0
ID,Indonesia,country,East Asia and Pacific,-0.789275,113.921327,YE,Yemen,country,Middle East and North Africa,15.552727,48.516388,7413.29823183377,2002,187,64,0,0,0,0,0,0,0,0,23,0,74,6,0,0,0,0,20,0,0,0,0,0
IR,Iran,country,Middle East and North Africa,32.427908,53.688046,YE,Yemen,country,Middle East and North Africa,15.552727,48.516388,1949.95293727742,2002,1888,1022,0,41,0,0,15,0,798,0,12,0,0,0,0,0,0,0,0,0,0,0,0,0
IE,Ireland,country,Europe and Central Asia,53.41291,-8.24389,YE,Yemen,country,Middle East and North Africa,15.552727,48.516388,6455.57803653896,2002,20,0,0,0,0,0,0,0,0,0,0,0,0,0,0,0,0,0,20,0,0,0,0,0
IT,Italy,country,Europe and Central Asia,41.87194,12.56738,YE,Yemen,country,Middle East and North Africa,15.552727,48.516388,4515.3013915207,2002,4152,4122,0,0,0,0,0,0,28,0,0,0,0,0,0,2,0,0,0,0,0,0,0,0
JP,Japan,country,East Asia and Pacific,36.204824,138.252924,YE,Yemen,country,Middle East and North Africa,15.552727,48.516388,8981.25225984533,2002,3,0,0,0,0,0,0,0,0,0,0,0,0,0,0,0,0,0,3,0,0,0,0,0
JO,Jordan,country,Middle East and North Africa,30.585164,36.238414,YE,Yemen,country,Middle East and North Africa,15.552727,48.516388,2089.62869111912,2002,152,62,0,0,0,0,0,0,46,0,23,0,21,0,0,0,0,0,0,0,0,0,0,0
KE,Kenya,country,Sub-Saharan Africa,-0.023559,37.906193,YE,Yemen,country,Middle East and North Africa,15.552727,48.516388,2089.77290770266,2002,7998,1,0,0,0,0,3,20,0,0,0,0,7824,150,0,0,0,0,0,0,0,0,0,0
KW,Kuwait,country,Middle East and North Africa,29.31166,47.481766,YE,Yemen,country,Middle East and North Africa,15.552727,48.516388,1535.30585440912,2002,10,10,0,0,0,0,0,0,0,0,0,0,0,0,0,0,0,0,0,0,0,0,0,0
LB,Lebanon,country,Middle East and North Africa,33.854721,35.862285,YE,Yemen,country,Middle East and North Africa,15.552727,48.516388,2400.94247300665,2002,27,14,0,0,0,0,0,0,0,0,0,0,0,8,0,1,0,0,4,0,0,0,0,0
MY,Malaysia,country,East Asia and Pacific,4.210484,101.975766,YE,Yemen,country,Middle East and North Africa,15.552727,48.516388,5980.10083643748,2002,1135,666,0,0,0,0,24,0,0,0,0,0,406,0,0,39,0,0,0,0,0,0,0,0
MT,Malta,country,Middle East and North Africa,35.937496,14.375416,YE,Yemen,country,Middle East and North Africa,15.552727,48.516388,4072.90928426755,2002,59,0,0,0,0,0,0,0,37,0,0,0,22,0,0,0,0,0,0,0,0,0,0,0
NL,Netherlands,country,Europe and Central Asia,52.132633,5.291266,YE,Yemen,country,Middle East and North Africa,15.552727,48.516388,5567.76949615627,2002,788,110,0,0,0,0,11,0,94,0,0,0,8,0,0,369,10,0,196,0,0,0,0,0
NZ,New Zealand,country,East Asia and Pacific,-40.900557,174.885971,YE,Yemen,country,Middle East and North Africa,15.552727,48.516388,14181.9250367704,2002,21,0,0,0,0,0,0,0,0,0,0,0,0,0,0,0,0,0,21,0,0,0,0,0
NG,Nigeria,country,Sub-Saharan Africa,9.081999,8.675277,YE,Yemen,country,Middle East and North Africa,15.552727,48.516388,4385.73212357103,2002,517,0,0,0,0,0,0,0,0,0,0,0,0,517,0,0,0,0,0,0,0,0,0,0
OM,Oman,country,Middle East and North Africa,21.512583,55.923255,YE,Yemen,country,Middle East and North Africa,15.552727,48.516388,1024.94171136052,2002,9513,8355,0,20,0,0,0,199,364,0,116,0,285,0,0,2,0,0,172,0,0,0,0,0
PK,Pakistan,country,South Asia,30.375321,69.345116,YE,Yemen,country,Middle East and North Africa,15.552727,48.516388,2689.4895735583,2002,49635,49281,0,0,0,0,0,12,4,0,0,0,16,188,0,0,178,0,134,0,0,0,0,0
PL,Poland,country,Europe and Central Asia,51.919438,19.145136,YE,Yemen,country,Middle East and North Africa,15.552727,48.516388,4809.99666967664,2002,3169,3169,0,0,0,0,0,0,0,0,0,0,0,0,0,0,0,0,0,0,0,0,0,0
PT,Portugal,country,Europe and Central Asia,39.399872,-8.224454,YE,Yemen,country,Middle East and North Africa,15.552727,48.516388,6084.48341187938,2002,9,0,0,0,0,0,0,0,0,0,0,0,0,0,0,0,0,0,9,0,0,0,0,0
KR,"Korea, Rep.",country,East Asia and Pacific,35.907757,127.766922,YE,Yemen,country,Middle East and North Africa,15.552727,48.516388,8056.72672002934,2002,6,0,0,0,0,0,0,0,0,0,0,0,6,0,0,0,0,0,0,0,0,0,0,0
RW,Rwanda,country,Sub-Saharan Africa,-1.940278,29.873888,YE,Yemen,country,Middle East and North Africa,15.552727,48.516388,2829.00050829405,2002,5,0,0,0,0,0,0,0,0,0,0,0,0,5,0,0,0,0,0,0,0,0,0,0
SA,Saudi Arabia,country,Middle East and North Africa,23.885942,45.079162,YE,Yemen,country,Middle East and North Africa,15.552727,48.516388,994.962087477527,2002,77509,9015,0,55,0,57,11,475,28572,41,471,0,507,1499,0,25774,746,0,11032,0,0,0,0,0
SG,Singapore,country,East Asia and Pacific,1.352083,103.819836,YE,Yemen,country,Middle East and North Africa,15.552727,48.516388,6269.45837379242,2002,34433,31898,0,0,0,0,16,0,29,0,332,2150,8,0,0,0,0,0,0,0,0,0,0,0
SO,Somalia,country,Sub-Saharan Africa,5.152149,46.199616,YE,Yemen,country,Middle East and North Africa,15.552727,48.516388,1185.17569796322,2002,4311,3650,0,655,0,0,1,0,0,0,5,0,0,0,0,0,0,0,0,0,0,0,0,0
ZA,S. Africa,country,Sub-Saharan Africa,-30.559482,22.937506,YE,Yemen,country,Middle East and North Africa,15.552727,48.516388,5818.6526037916,2002,413,132,0,0,0,0,0,0,169,0,0,0,17,95,0,0,0,0,0,0,0,0,0,0
ES,Spain,country,Europe and Central Asia,40.463667,-3.74922,YE,Yemen,country,Middle East and North Africa,15.552727,48.516388,5732.4484973809,2002,39531,39509,0,0,0,0,0,0,0,0,0,0,22,0,0,0,0,0,0,0,0,0,0,0
LK,Sri Lanka,country,South Asia,7.873054,80.771797,YE,Yemen,country,Middle East and North Africa,15.552727,48.516388,3613.50426468729,2002,331,0,0,0,0,0,61,0,0,0,2,0,268,0,0,0,0,0,0,0,0,0,0,0
SD,Sudan,country,Sub-Saharan Africa,12.862807,30.217636,YE,Yemen,country,Middle East and North Africa,15.552727,48.516388,1996.55530210888,2002,10684,2995,0,0,0,4776,2509,0,202,0,0,0,0,202,0,0,0,0,0,0,0,0,0,0
SE,Sweden,country,Europe and Central Asia,60.128161,18.643501,YE,Yemen,country,Middle East and North Africa,15.552727,48.516388,5517.64292744005,2002,82,0,0,0,0,0,0,0,0,0,0,0,0,0,0,0,0,0,82,0,0,0,0,0
CH,Switzerland,country,Europe and Central Asia,46.818188,8.227512,YE,Yemen,country,Middle East and North Africa,15.552727,48.516388,5087.51158473012,2002,35741,34126,0,17,0,0,0,0,7,0,0,768,0,0,0,791,0,0,32,0,0,0,0,0
SY,Syrian Arab Rep.,country,Middle East and North Africa,34.802075,38.996815,YE,Yemen,country,Middle East and North Africa,15.552727,48.516388,2344.48521241392,2002,309,22,0,1,0,0,44,0,0,0,242,0,0,0,0,0,0,0,0,0,0,0,0,0
TH,Thailand,country,East Asia and Pacific,15.870032,100.992541,YE,Yemen,country,Middle East and North Africa,15.552727,48.516388,5607.85442943642,2002,179590,138158,0,41285,0,0,0,0,0,0,0,0,25,0,0,122,0,0,0,0,0,0,0,0
TR,Turkey,country,Europe and Central Asia,38.963745,35.243322,YE,Yemen,country,Middle East and North Africa,15.552727,48.516388,2910.64500427987,2002,3973,3661,0,0,0,0,23,0,3,0,25,0,259,0,0,2,0,0,0,0,0,0,0,0
AE,United Arab Emirates,country,Middle East and North Africa,23.424076,53.847818,YE,Yemen,country,Middle East and North Africa,15.552727,48.516388,1039.28505072365,2002,141184,111019,0,20281,0,23,81,225,7077,0,919,1,384,567,0,251,0,0,356,0,0,0,0,0
GB,United Kingdom,country,Europe and Central Asia,55.378051,-3.435973,YE,Yemen,country,Middle East and North Africa,15.552727,48.516388,6243.14697759231,2002,22337,125,0,17650,0,0,1165,0,2,40,3,0,141,3157,0,46,364,0,8,0,0,0,0,0
TZ,Tanzania,country,Sub-Saharan Africa,-6.369028,34.888822,YE,Yemen,country,Middle East and North Africa,15.552727,48.516388,2865.85589430864,2002,0,0,0,0,0,0,0,0,0,0,0,0,0,0,0,0,0,0,0,0,0,0,0,0
US,USA,country,North America,37.09024,-95.712891,YE,Yemen,country,Middle East and North Africa,15.552727,48.516388,13080.5256939974,2002,396867,386757,0,165,0,0,0,0,560,0,0,9382,1,0,0,2,87,0,0,0,0,0,0,0
ZW,Zimbabwe,country,Sub-Saharan Africa,-19.015438,29.154857,YE,Yemen,country,Middle East and North Africa,15.552727,48.516388,4393.94472945579,2002,384,0,0,0,0,0,0,0,0,0,0,0,0,384,0,0,0,0,0,0,0,0,0,0
AR,Argentina,country,Latin America and the Caribbean,-38.416097,-63.616672,YE,Yemen,country,Middle East and North Africa,15.552727,48.516388,13002.9419003749,2003,147966,135675,0,0,0,0,0,0,0,0,0,12202,0,20,0,0,0,0,69,0,0,0,0,0
AM,Armenia,country,Europe and Central Asia,40.069099,45.038189,YE,Yemen,country,Middle East and North Africa,15.552727,48.516388,2749.94984704117,2003,21,15,0,0,0,0,0,0,6,0,0,0,0,0,0,0,0,0,0,0,0,0,0,0
AU,Australia,country,East Asia and Pacific,-25.274398,133.775136,YE,Yemen,country,Middle East and North Africa,15.552727,48.516388,10289.7161571676,2003,165522,162266,0,136,0,0,0,0,54,0,0,0,0,16,0,0,0,120,2930,0,0,0,0,0
AT,Austria,country,Europe and Central Asia,47.516231,14.550072,YE,Yemen,country,Middle East and North Africa,15.552727,48.516388,4730.27624417639,2003,3020,16,0,2000,0,0,0,18,482,0,0,0,0,323,0,0,0,0,181,0,0,0,0,0
BH,Bahrain,country,Middle East and North Africa,25.930414,50.637772,YE,Yemen,country,Middle East and North Africa,15.552727,48.516388,1176.077370226,2003,735,599,0,0,0,0,0,0,11,0,0,0,0,125,0,0,0,0,0,0,0,0,0,0
BD,Bangladesh,country,South Asia,23.684994,90.356331,YE,Yemen,country,Middle East and North Africa,15.552727,48.516388,4463.29402953326,2003,22,0,0,22,0,0,0,0,0,0,0,0,0,0,0,0,0,0,0,0,0,0,0,0
BE,Belgium,country,Europe and Central Asia,50.503887,4.469936,YE,Yemen,country,Middle East and North Africa,15.552727,48.516388,5528.10560101808,2003,6474,963,0,62,0,0,0,0,94,0,1,4739,0,22,0,0,0,121,472,0,0,0,0,0
BA,Bosnia & Herzegovina,country,Europe and Central Asia,43.915886,17.679076,YE,Yemen,country,Middle East and North Africa,15.552727,48.516388,4293.63036835553,2003,14000,0,0,14000,0,0,0,0,0,0,0,0,0,0,0,0,0,0,0,0,0,0,0,0
BR,Brazil,country,Latin America and the Caribbean,-14.235004,-51.92528,YE,Yemen,country,Middle East and North Africa,15.552727,48.516388,11532.8769459926,2003,342816,0,0,284899,0,0,0,500,0,0,0,0,77,0,0,0,0,57289,51,0,0,0,0,0
CA,Canada,country,North America,56.130366,-106.346771,YE,Yemen,country,Middle East and North Africa,15.552727,48.516388,11718.9867643119,2003,85,6,0,0,0,0,0,79,0,0,0,0,0,0,0,0,0,0,0,0,0,0,0,0
CF,Central African Rep.,country,Sub-Saharan Africa,6.611111,20.939444,YE,Yemen,country,Middle East and North Africa,15.552727,48.516388,3168.48889385934,2003,64,0,0,0,0,0,0,0,0,0,0,0,64,0,0,0,0,0,0,0,0,0,0,0
CL,Chile,country,Latin America and the Caribbean,-35.675147,-71.542969,YE,Yemen,country,Middle East and North Africa,15.552727,48.516388,13720.6788003906,2003,32,0,0,8,0,0,0,0,24,0,0,0,0,0,0,0,0,0,0,0,0,0,0,0
HK,Hong Kong,country,East Asia and Pacific,22.396428,114.109497,YE,Yemen,country,Middle East and North Africa,15.552727,48.516388,6896.43484921883,2003,626,15,0,611,0,0,0,0,0,0,0,0,0,0,0,0,0,0,0,0,0,0,0,0
CN,China,country,East Asia and Pacific,35.86166,104.195397,YE,Yemen,country,Middle East and North Africa,15.552727,48.516388,5935.9937643865,2003,101869,71316,0,2049,72,0,0,22789,3805,0,365,108,16,1150,0,0,0,193,6,0,0,0,0,0
TW,Taiwan,country,East Asia and Pacific,23.69781,120.960515,YE,Yemen,country,Middle East and North Africa,15.552727,48.516388,7574.92442326994,2003,80,0,0,80,0,0,0,0,0,0,0,0,0,0,0,0,0,0,0,0,0,0,0,0
CY,Cyprus,country,Europe and Central Asia,35.126413,33.429859,YE,Yemen,country,Middle East and North Africa,15.552727,48.516388,2647.90839573188,2003,133,18,0,3,0,0,0,0,55,0,0,0,0,0,0,0,0,0,57,0,0,0,0,0
CZ,Czech Republic,country,Europe and Central Asia,49.817492,15.472962,YE,Yemen,country,Middle East and North Africa,15.552727,48.516388,4837.47240324221,2003,0,0,0,0,0,0,0,0,0,0,0,0,0,0,0,0,0,0,0,0,0,0,0,0
KP,"Korea, Dem. Rep.",country,East Asia and Pacific,40.339852,127.510093,YE,Yemen,country,Middle East and North Africa,15.552727,48.516388,7983.20472702344,2003,20125,20125,0,0,0,0,0,0,0,0,0,0,0,0,0,0,0,0,0,0,0,0,0,0
CD,"Congo, Dem. Rep.",country,Sub-Saharan Africa,-4.038333,21.758664,YE,Yemen,country,Middle East and North Africa,15.552727,48.516388,3667.27908857222,2003,13,0,0,0,0,0,0,0,13,0,0,0,0,0,0,0,0,0,0,0,0,0,0,0
DK,Denmark,country,Europe and Central Asia,56.26392,9.501785,YE,Yemen,country,Middle East and North Africa,15.552727,48.516388,5600.04151300287,2003,8616,5,0,8,0,0,0,14,112,0,0,0,0,39,0,0,0,10,8428,0,0,0,0,0
DJ,Djibouti,country,Middle East and North Africa,11.825138,42.590275,YE,Yemen,country,Middle East and North Africa,15.552727,48.516388,763.423877104999,2003,4963,1853,0,137,0,162,0,256,99,0,954,315,153,138,0,0,0,0,896,0,0,0,0,0
EC,Ecuador,country,Latin America and the Caribbean,-1.831239,-78.183406,YE,Yemen,country,Middle East and North Africa,15.552727,48.516388,13996.5731656811,2003,699,561,0,0,0,0,0,0,0,0,0,32,0,82,0,0,0,0,24,0,0,0,0,0
EG,Egypt,country,Middle East and North Africa,26.820553,30.802498,YE,Yemen,country,Middle East and North Africa,15.552727,48.516388,2221.36109191692,2003,6869,1872,3,559,0,0,0,0,3916,0,83,0,51,207,0,0,0,0,178,0,0,0,0,0
ET,Ethiopia,country,Sub-Saharan Africa,9.145,40.489673,YE,Yemen,country,Middle East and North Africa,15.552727,48.516388,1126.81707470139,2003,1191,0,0,2,0,0,0,0,7,0,517,0,303,37,0,0,0,325,0,0,0,0,0,0
FI,Finland,country,Europe and Central Asia,61.92411,25.748151,YE,Yemen,country,Middle East and North Africa,15.552727,48.516388,5466.54784977188,2003,238,0,0,0,0,0,0,0,0,0,0,0,0,0,0,0,0,0,238,0,0,0,0,0
FR,France,country,Europe and Central Asia,46.227638,2.213749,YE,Yemen,country,Middle East and North Africa,15.552727,48.516388,5471.71743772721,2003,336904,307238,24,6,0,0,0,110,369,0,0,18,2,175,0,0,55,25561,3401,0,0,0,0,0
DE,Germany,country,Europe and Central Asia,51.165691,10.451526,YE,Yemen,country,Middle East and North Africa,15.552727,48.516388,5210.31362677837,2003,897,223,0,200,0,0,0,3,32,0,31,22,36,332,0,0,2,0,18,0,0,0,0,0
GR,Greece,country,Europe and Central Asia,39.074208,21.824312,YE,Yemen,country,Middle East and North Africa,15.552727,48.516388,3690.62413538929,2003,439,226,0,82,0,0,0,0,131,0,0,0,0,0,0,0,0,0,0,0,0,0,0,0
GT,Guatemala,country,Latin America and the Caribbean,15.783471,-90.230759,YE,Yemen,country,Middle East and North Africa,15.552727,48.516388,14316.9983631908,2003,10,0,0,0,0,0,0,0,0,0,10,0,0,0,0,0,0,0,0,0,0,0,0,0
HU,Hungary,country,Europe and Central Asia,47.162494,19.503304,YE,Yemen,country,Middle East and North Africa,15.552727,48.516388,4419.00216056352,2003,145,0,0,0,0,0,0,0,0,0,0,0,0,0,0,0,0,0,145,0,0,0,0,0
IN,India,country,South Asia,20.593684,78.96288,YE,Yemen,country,Middle East and North Africa,15.552727,48.516388,3265.51574962719,2003,745962,592991,0,133160,0,41,21,1443,11779,0,991,863,738,355,0,0,0,3411,169,0,0,0,0,0
ID,Indonesia,country,East Asia and Pacific,-0.789275,113.921327,YE,Yemen,country,Middle East and North Africa,15.552727,48.516388,7413.29823183377,2003,837,9,0,416,0,1,0,299,6,0,0,0,25,81,0,0,0,0,0,0,0,0,0,0
IR,Iran,country,Middle East and North Africa,32.427908,53.688046,YE,Yemen,country,Middle East and North Africa,15.552727,48.516388,1949.95293727742,2003,2462,364,0,526,0,13,0,0,1479,0,0,0,0,0,0,0,0,0,80,0,0,0,0,0
IQ,Iraq,country,Middle East and North Africa,33.223191,43.679291,YE,Yemen,country,Middle East and North Africa,15.552727,48.516388,2026.5097854677,2003,1069,0,0,23,0,0,0,0,1046,0,0,0,0,0,0,0,0,0,0,0,0,0,0,0
IE,Ireland,country,Europe and Central Asia,53.41291,-8.24389,YE,Yemen,country,Middle East and North Africa,15.552727,48.516388,6455.57803653896,2003,102,0,0,0,0,0,0,0,0,0,0,0,0,0,0,0,0,56,46,0,0,0,0,0
IT,Italy,country,Europe and Central Asia,41.87194,12.56738,YE,Yemen,country,Middle East and North Africa,15.552727,48.516388,4515.3013915207,2003,55214,49073,91,41,67,0,0,5806,92,0,0,0,0,44,0,0,0,0,0,0,0,0,0,0
JP,Japan,country,East Asia and Pacific,36.204824,138.252924,YE,Yemen,country,Middle East and North Africa,15.552727,48.516388,8981.25225984533,2003,1034,117,0,31,0,0,0,0,860,0,0,0,0,26,0,0,0,0,0,0,0,0,0,0
JO,Jordan,country,Middle East and North Africa,30.585164,36.238414,YE,Yemen,country,Middle East and North Africa,15.552727,48.516388,2089.62869111912,2003,855,416,0,0,0,0,0,0,199,0,0,0,0,209,0,0,0,30,1,0,0,0,0,0
KE,Kenya,country,Sub-Saharan Africa,-0.023559,37.906193,YE,Yemen,country,Middle East and North Africa,15.552727,48.516388,2089.77290770266,2003,12360,0,0,3000,0,0,0,187,0,0,9,0,9164,0,0,0,0,0,0,0,0,0,0,0
KW,Kuwait,country,Middle East and North Africa,29.31166,47.481766,YE,Yemen,country,Middle East and North Africa,15.552727,48.516388,1535.30585440912,2003,103,0,0,66,0,0,0,0,37,0,0,0,0,0,0,0,0,0,0,0,0,0,0,0
LB,Lebanon,country,Middle East and North Africa,33.854721,35.862285,YE,Yemen,country,Middle East and North Africa,15.552727,48.516388,2400.94247300665,2003,461,29,0,73,0,4,0,0,328,0,0,0,0,24,0,0,0,0,3,0,0,0,0,0
MG,Madagascar,country,Sub-Saharan Africa,-18.766947,46.869107,YE,Yemen,country,Middle East and North Africa,15.552727,48.516388,3824.71102029919,2003,6,0,0,0,0,0,0,0,0,0,0,0,6,0,0,0,0,0,0,0,0,0,0,0
MY,Malaysia,country,East Asia and Pacific,4.210484,101.975766,YE,Yemen,country,Middle East and North Africa,15.552727,48.516388,5980.10083643748,2003,33176,32033,0,396,72,0,36,0,122,0,0,0,4,109,0,0,0,0,404,0,0,0,0,0
MT,Malta,country,Middle East and North Africa,35.937496,14.375416,YE,Yemen,country,Middle East and North Africa,15.552727,48.516388,4072.90928426755,2003,166,34,0,0,34,0,0,0,0,0,0,0,0,98,0,0,0,0,0,0,0,0,0,0
MX,Mexico,country,Latin America and the Caribbean,23.634501,-102.552784,YE,Yemen,country,Middle East and North Africa,15.552727,48.516388,14658.3279162412,2003,12,0,0,0,0,0,12,0,0,0,0,0,0,0,0,0,0,0,0,0,0,0,0,0
MA,Morocco,country,Middle East and North Africa,31.791702,-7.09262,YE,Yemen,country,Middle East and North Africa,15.552727,48.516388,5884.28837568472,2003,2350,19,0,0,0,0,0,0,0,0,0,0,0,0,0,0,0,0,2331,0,0,0,0,0
NL,Netherlands,country,Europe and Central Asia,52.132633,5.291266,YE,Yemen,country,Middle East and North Africa,15.552727,48.516388,5567.76949615627,2003,31580,495,20,1000,0,0,0,0,46,0,0,24057,0,81,0,0,45,0,5881,0,0,0,0,0
NZ,New Zealand,country,East Asia and Pacific,-40.900557,174.885971,YE,Yemen,country,Middle East and North Africa,15.552727,48.516388,14181.9250367704,2003,3032,0,0,0,0,0,0,0,0,0,44,0,0,0,0,0,0,33,2955,0,0,0,0,0
NG,Nigeria,country,Sub-Saharan Africa,9.081999,8.675277,YE,Yemen,country,Middle East and North Africa,15.552727,48.516388,4385.73212357103,2003,57,0,0,0,0,40,0,0,0,0,0,0,17,0,0,0,0,0,0,0,0,0,0,0
OM,Oman,country,Middle East and North Africa,21.512583,55.923255,YE,Yemen,country,Middle East and North Africa,15.552727,48.516388,1024.94171136052,2003,68189,42420,0,576,94,0,0,756,1015,0,209,516,84,83,0,0,0,18039,4397,0,0,0,0,0
PK,Pakistan,country,South Asia,30.375321,69.345116,YE,Yemen,country,Middle East and North Africa,15.552727,48.516388,2689.4895735583,2003,65668,35315,0,29892,0,0,0,100,54,0,263,0,0,44,0,0,0,0,0,0,0,0,0,0
PG,Papua New Guinea,country,East Asia and Pacific,-6.314993,143.95555,YE,Yemen,country,Middle East and North Africa,15.552727,48.516388,10787.6251734215,2003,13,0,0,0,0,0,0,13,0,0,0,0,0,0,0,0,0,0,0,0,0,0,0,0
PH,Philippines,country,East Asia and Pacific,12.879721,121.774017,YE,Yemen,country,Middle East and North Africa,15.552727,48.516388,7871.70348100984,2003,37,0,0,0,0,0,37,0,0,0,0,0,0,0,0,0,0,0,0,0,0,0,0,0
PL,Poland,country,Europe and Central Asia,51.919438,19.145136,YE,Yemen,country,Middle East and North Africa,15.552727,48.516388,4809.99666967664,2003,24137,22621,0,901,0,0,0,0,0,0,0,0,0,4,0,0,0,0,611,0,0,0,0,0
QA,Qatar,country,Middle East and North Africa,25.354826,51.183884,YE,Yemen,country,Middle East and North Africa,15.552727,48.516388,1125.95689628297,2003,0,0,0,0,0,0,0,0,0,0,0,0,0,0,0,0,0,0,0,0,0,0,0,0
KR,"Korea, Rep.",country,East Asia and Pacific,35.907757,127.766922,YE,Yemen,country,Middle East and North Africa,15.552727,48.516388,8056.72672002934,2003,124,0,0,124,0,0,0,0,0,0,0,0,0,0,0,0,0,0,0,0,0,0,0,0
RU,Russian Federation,country,Europe and Central Asia,61.52401,105.318756,YE,Yemen,country,Middle East and North Africa,15.552727,48.516388,6773.16011690724,2003,31467,31410,0,0,0,0,0,0,0,0,0,0,0,0,0,0,0,0,57,0,0,0,0,0
SA,Saudi Arabia,country,Middle East and North Africa,23.885942,45.079162,YE,Yemen,country,Middle East and North Africa,15.552727,48.516388,994.962087477527,2003,133444,33744,252,27695,83,3689,33,6341,37974,0,691,2447,410,1669,0,0,407,526,17890,0,0,0,0,0
SG,Singapore,country,East Asia and Pacific,1.352083,103.819836,YE,Yemen,country,Middle East and North Africa,15.552727,48.516388,6269.45837379242,2003,2197,346,0,148,0,1,30,345,712,0,210,0,0,194,0,0,0,0,211,0,0,0,0,0
SI,Slovenia,country,Europe and Central Asia,46.151241,14.995463,YE,Yemen,country,Middle East and North Africa,15.552727,48.516388,4612.03577249016,2003,215,215,0,0,0,0,0,0,0,0,0,0,0,0,0,0,0,0,0,0,0,0,0,0
SO,Somalia,country,Sub-Saharan Africa,5.152149,46.199616,YE,Yemen,country,Middle East and North Africa,15.552727,48.516388,1185.17569796322,2003,680,624,0,15,0,0,0,0,5,0,0,0,20,0,0,0,0,16,0,0,0,0,0,0
ZA,S. Africa,country,Sub-Saharan Africa,-30.559482,22.937506,YE,Yemen,country,Middle East and North Africa,15.552727,48.516388,5818.6526037916,2003,97,0,0,2,0,0,0,0,53,0,0,0,0,0,0,0,0,0,42,0,0,0,0,0
ES,Spain,country,Europe and Central Asia,40.463667,-3.74922,YE,Yemen,country,Middle East and North Africa,15.552727,48.516388,5732.4484973809,2003,863,242,0,70,0,0,0,304,59,0,1,0,2,180,0,0,0,0,5,0,0,0,0,0
LK,Sri Lanka,country,South Asia,7.873054,80.771797,YE,Yemen,country,Middle East and North Africa,15.552727,48.516388,3613.50426468729,2003,492,87,0,0,0,0,108,0,0,0,1,0,296,0,0,0,0,0,0,0,0,0,0,0
SD,Sudan,country,Sub-Saharan Africa,12.862807,30.217636,YE,Yemen,country,Middle East and North Africa,15.552727,48.516388,1996.55530210888,2003,8965,0,0,0,0,5132,0,0,34,0,14,0,0,3785,0,0,0,0,0,0,0,0,0,0
SE,Sweden,country,Europe and Central Asia,60.128161,18.643501,YE,Yemen,country,Middle East and North Africa,15.552727,48.516388,5517.64292744005,2003,330,0,0,0,0,0,0,0,0,0,0,0,0,0,0,0,0,216,114,0,0,0,0,0
CH,Switzerland,country,Europe and Central Asia,46.818188,8.227512,YE,Yemen,country,Middle East and North Africa,15.552727,48.516388,5087.51158473012,2003,31807,30206,0,6,0,0,0,9,0,0,0,1000,0,0,0,0,0,0,586,0,0,0,0,0
SY,Syrian Arab Rep.,country,Middle East and North Africa,34.802075,38.996815,YE,Yemen,country,Middle East and North Africa,15.552727,48.516388,2344.48521241392,2003,4120,3346,0,495,0,0,0,50,146,0,68,0,0,15,0,0,0,0,0,0,0,0,0,0
TH,Thailand,country,East Asia and Pacific,15.870032,100.992541,YE,Yemen,country,Middle East and North Africa,15.552727,48.516388,5607.85442943642,2003,237431,108810,0,122735,0,0,0,79,5760,0,0,0,0,4,0,0,0,16,27,0,0,0,0,0
TN,Tunisia,country,Middle East and North Africa,33.886917,9.537499,YE,Yemen,country,Middle East and North Africa,15.552727,48.516388,4401.40252468683,2003,257,210,0,0,0,0,0,0,0,0,0,0,0,47,0,0,0,0,0,0,0,0,0,0
TR,Turkey,country,Europe and Central Asia,38.963745,35.243322,YE,Yemen,country,Middle East and North Africa,15.552727,48.516388,2910.64500427987,2003,15707,13675,0,1019,0,0,0,74,93,0,9,0,0,837,0,0,0,0,0,0,0,0,0,0
UG,Uganda,country,Sub-Saharan Africa,1.373333,32.290275,YE,Yemen,country,Middle East and North Africa,15.552727,48.516388,2380.24894397306,2003,2,0,0,0,0,0,0,0,0,0,0,0,0,0,0,0,0,0,2,0,0,0,0,0
UA,Ukraine,country,Europe and Central Asia,48.379433,31.16558,YE,Yemen,country,Middle East and North Africa,15.552727,48.516388,3983.77852686248,2003,219,0,0,0,0,0,0,0,0,0,0,0,0,0,0,0,0,0,219,0,0,0,0,0
AE,United Arab Emirates,country,Middle East and North Africa,23.424076,53.847818,YE,Yemen,country,Middle East and North Africa,15.552727,48.516388,1039.28505072365,2003,215681,143285,3,55049,2344,20,12,4451,5389,0,734,401,549,1334,0,0,0,799,1311,0,0,0,0,0
GB,United Kingdom,country,Europe and Central Asia,55.378051,-3.435973,YE,Yemen,country,Middle East and North Africa,15.552727,48.516388,6243.14697759231,2003,26172,357,0,24010,188,0,135,0,25,0,0,0,85,146,0,0,621,1,1225,0,0,0,0,0
TZ,Tanzania,country,Sub-Saharan Africa,-6.369028,34.888822,YE,Yemen,country,Middle East and North Africa,15.552727,48.516388,2865.85589430864,2003,36,0,0,0,0,0,0,36,0,0,0,0,0,0,0,0,0,0,0,0,0,0,0,0
US,USA,country,North America,37.09024,-95.712891,YE,Yemen,country,Middle East and North Africa,15.552727,48.516388,13080.5256939974,2003,350352,341734,0,122,0,0,0,38,895,0,1,0,3,1383,0,0,50,4,6172,0,0,0,0,0
UY,Uruguay,country,Latin America and the Caribbean,-32.522779,-55.765835,YE,Yemen,country,Middle East and North Africa,15.552727,48.516388,12262.3064289231,2003,25,0,0,0,0,0,0,0,0,0,0,0,0,25,0,0,0,0,0,0,0,0,0,0
DZ,Algeria,country,Middle East and North Africa,28.033886,1.659626,YE,Yemen,country,Middle East and North Africa,15.552727,48.516388,5005.76286787739,2004,0,0,0,0,0,0,0,0,0,0,0,0,0,0,0,0,0,0,0,0,0,0,0,0
AR,Argentina,country,Latin America and the Caribbean,-38.416097,-63.616672,YE,Yemen,country,Middle East and North Africa,15.552727,48.516388,13002.9419003749,2004,129675,96107,0,0,0,0,1200,0,29,0,0,32198,0,25,0,0,0,0,116,0,0,0,0,0
AM,Armenia,country,Europe and Central Asia,40.069099,45.038189,YE,Yemen,country,Middle East and North Africa,15.552727,48.516388,2749.94984704117,2004,8,0,0,0,0,0,0,0,0,0,0,0,0,8,0,0,0,0,0,0,0,0,0,0
AW,Aruba,country,Latin America and the Caribbean,12.52111,-69.968338,YE,Yemen,country,Middle East and North Africa,15.552727,48.516388,12576.838672499,2004,60,0,0,7,0,0,0,0,18,0,0,0,10,0,0,0,0,0,25,0,0,0,0,0
AU,Australia,country,East Asia and Pacific,-25.274398,133.775136,YE,Yemen,country,Middle East and North Africa,15.552727,48.516388,10289.7161571676,2004,401596,393083,0,181,4079,16,0,90,77,0,0,0,0,24,0,18,0,209,3819,0,0,0,0,0
AT,Austria,country,Europe and Central Asia,47.516231,14.550072,YE,Yemen,country,Middle East and North Africa,15.552727,48.516388,4730.27624417639,2004,8603,2827,0,3009,0,0,0,0,126,0,0,0,0,671,0,1679,0,0,291,0,0,0,0,0
BS,The Bahamas,country,Latin America and the Caribbean,25.03428,-77.39628,YE,Yemen,country,Middle East and North Africa,15.552727,48.516388,12633.2274814689,2004,78,0,0,0,0,0,0,0,58,0,0,0,0,0,0,0,0,0,20,0,0,0,0,0
BH,Bahrain,country,Middle East and North Africa,25.930414,50.637772,YE,Yemen,country,Middle East and North Africa,15.552727,48.516388,1176.077370226,2004,7,0,0,0,0,0,0,0,0,0,0,0,0,0,0,7,0,0,0,0,0,0,0,0
BD,Bangladesh,country,South Asia,23.684994,90.356331,YE,Yemen,country,Middle East and North Africa,15.552727,48.516388,4463.29402953326,2004,119,0,0,0,0,0,0,0,23,0,45,0,0,51,0,0,0,0,0,0,0,0,0,0
BE,Belgium,country,Europe and Central Asia,50.503887,4.469936,YE,Yemen,country,Middle East and North Africa,15.552727,48.516388,5528.10560101808,2004,5959,453,0,9,0,0,1335,0,0,0,0,3960,0,24,108,30,0,0,40,0,0,0,0,0
BO,Bolivia,country,Latin America and the Caribbean,-16.290154,-63.588653,YE,Yemen,country,Middle East and North Africa,15.552727,48.516388,12805.711960576,2004,0,0,0,0,0,0,0,0,0,0,0,0,0,0,0,0,0,0,0,0,0,0,0,0
BR,Brazil,country,Latin America and the Caribbean,-14.235004,-51.92528,YE,Yemen,country,Middle East and North Africa,15.552727,48.516388,11532.8769459926,2004,329610,31830,0,244645,0,0,0,0,0,0,0,0,171,360,171,0,0,52270,163,0,0,0,0,0
BG,Bulgaria,country,Europe and Central Asia,42.733883,25.48583,YE,Yemen,country,Middle East and North Africa,15.552727,48.516388,3737.50300236752,2004,25,0,0,0,0,0,0,0,0,0,0,0,0,0,0,0,0,0,25,0,0,0,0,0
CA,Canada,country,North America,56.130366,-106.346771,YE,Yemen,country,Middle East and North Africa,15.552727,48.516388,11718.9867643119,2004,2153,0,0,18,2135,0,0,0,0,0,0,0,0,0,0,0,0,0,0,0,0,0,0,0
CL,Chile,country,Latin America and the Caribbean,-35.675147,-71.542969,YE,Yemen,country,Middle East and North Africa,15.552727,48.516388,13720.6788003906,2004,18,0,0,0,0,0,0,0,0,0,0,0,0,18,0,0,0,0,0,0,0,0,0,0
HK,Hong Kong,country,East Asia and Pacific,22.396428,114.109497,YE,Yemen,country,Middle East and North Africa,15.552727,48.516388,6896.43484921883,2004,523,0,0,507,0,0,0,0,0,0,0,0,16,0,0,0,0,0,0,0,0,0,0,0
CN,China,country,East Asia and Pacific,35.86166,104.195397,YE,Yemen,country,Middle East and North Africa,15.552727,48.516388,5935.9937643865,2004,58135,567,0,2427,12449,17,1247,25398,4969,1,242,0,23,2169,8623,2,4,0,1,0,0,0,0,0
TW,Taiwan,country,East Asia and Pacific,23.69781,120.960515,YE,Yemen,country,Middle East and North Africa,15.552727,48.516388,7574.92442326994,2004,18,0,0,0,0,0,0,0,0,0,0,18,0,0,0,0,0,0,0,0,0,0,0,0
CO,Colombia,country,Latin America and the Caribbean,4.570868,-74.297333,YE,Yemen,country,Middle East and North Africa,15.552727,48.516388,13351.2644822331,2004,700,0,0,700,0,0,0,0,0,0,0,0,0,0,0,0,0,0,0,0,0,0,0,0
CU,Cuba,country,Latin America and the Caribbean,21.521757,-77.781167,YE,Yemen,country,Middle East and North Africa,15.552727,48.516388,12869.1827632822,2004,0,0,0,0,0,0,0,0,0,0,0,0,0,0,0,0,0,0,0,0,0,0,0,0
CY,Cyprus,country,Europe and Central Asia,35.126413,33.429859,YE,Yemen,country,Middle East and North Africa,15.552727,48.516388,2647.90839573188,2004,184,42,0,0,0,0,0,0,19,0,0,0,0,25,0,5,0,0,93,0,0,0,0,0
CZ,Czech Republic,country,Europe and Central Asia,49.817492,15.472962,YE,Yemen,country,Middle East and North Africa,15.552727,48.516388,4837.47240324221,2004,19,0,0,0,0,0,0,0,0,0,0,0,0,1,0,0,0,0,18,0,0,0,0,0
DK,Denmark,country,Europe and Central Asia,56.26392,9.501785,YE,Yemen,country,Middle East and North Africa,15.552727,48.516388,5600.04151300287,2004,13220,1086,0,0,0,0,0,9,406,0,0,0,0,163,258,1603,0,15,9680,0,0,0,0,0
DJ,Djibouti,country,Middle East and North Africa,11.825138,42.590275,YE,Yemen,country,Middle East and North Africa,15.552727,48.516388,763.423877104999,2004,4471,1701,0,0,1837,0,177,0,5,2,703,0,2,44,0,0,0,0,0,0,0,0,0,0
EG,Egypt,country,Middle East and North Africa,26.820553,30.802498,YE,Yemen,country,Middle East and North Africa,15.552727,48.516388,2221.36109191692,2004,15101,3654,0,1263,0,0,0,55,2846,0,15,0,896,4885,219,66,0,0,1202,0,0,0,0,0
ET,Ethiopia,country,Sub-Saharan Africa,9.145,40.489673,YE,Yemen,country,Middle East and North Africa,15.552727,48.516388,1126.81707470139,2004,14355,460,0,49,6690,0,6077,0,2,0,566,0,332,1,0,0,0,178,0,0,0,0,0,0
FI,Finland,country,Europe and Central Asia,61.92411,25.748151,YE,Yemen,country,Middle East and North Africa,15.552727,48.516388,5466.54784977188,2004,26,0,0,0,0,0,0,0,0,0,0,0,0,0,0,0,0,0,26,0,0,0,0,0
FR,France,country,Europe and Central Asia,46.227638,2.213749,YE,Yemen,country,Middle East and North Africa,15.552727,48.516388,5471.71743772721,2004,149907,108131,113,10,0,0,0,0,88,0,0,20,37,356,226,15,68,37719,3192,0,0,0,0,0
PF,French Polynesia,country,East Asia and Pacific,-17.679742,-149.406843,YE,Yemen,country,Middle East and North Africa,15.552727,48.516388,18111.7905519748,2004,9,0,0,0,0,0,0,0,0,0,0,0,0,0,0,0,0,0,9,0,0,0,0,0
GE,Georgia,country,Europe and Central Asia,42.315407,43.356892,YE,Yemen,country,Middle East and North Africa,15.552727,48.516388,3019.83528243652,2004,0,0,0,0,0,0,0,0,0,0,0,0,0,0,0,0,0,0,0,0,0,0,0,0
DE,Germany,country,Europe and Central Asia,51.165691,10.451526,YE,Yemen,country,Middle East and North Africa,15.552727,48.516388,5210.31362677837,2004,2440,397,0,138,0,0,0,0,162,0,0,86,37,845,0,570,0,2,203,0,0,0,0,0
GH,Ghana,country,Sub-Saharan Africa,7.946527,-1.023194,YE,Yemen,country,Middle East and North Africa,15.552727,48.516388,5453.23889712944,2004,8,0,0,0,0,8,0,0,0,0,0,0,0,0,0,0,0,0,0,0,0,0,0,0
GR,Greece,country,Europe and Central Asia,39.074208,21.824312,YE,Yemen,country,Middle East and North Africa,15.552727,48.516388,3690.62413538929,2004,1094,4,0,44,0,0,0,0,971,0,0,0,53,22,0,0,0,0,0,0,0,0,0,0
GD,Grenada,country,Latin America and the Caribbean,12.262776,-61.604171,YE,Yemen,country,Middle East and North Africa,15.552727,48.516388,11741.9071990973,2004,114,0,0,0,0,0,0,0,0,0,0,0,0,0,0,0,0,0,114,0,0,0,0,0
GT,Guatemala,country,Latin America and the Caribbean,15.783471,-90.230759,YE,Yemen,country,Middle East and North Africa,15.552727,48.516388,14316.9983631908,2004,82,0,0,0,0,0,10,0,0,0,72,0,0,0,0,0,0,0,0,0,0,0,0,0
HU,Hungary,country,Europe and Central Asia,47.162494,19.503304,YE,Yemen,country,Middle East and North Africa,15.552727,48.516388,4419.00216056352,2004,86,0,0,0,0,0,0,0,0,0,0,0,0,0,0,0,0,0,86,0,0,0,0,0
IN,India,country,South Asia,20.593684,78.96288,YE,Yemen,country,Middle East and North Africa,15.552727,48.516388,3265.51574962719,2004,424991,369568,0,4713,236,0,148,117,15719,0,2226,19222,683,8518,474,40,49,2924,403,0,0,0,0,0
ID,Indonesia,country,East Asia and Pacific,-0.789275,113.921327,YE,Yemen,country,Middle East and North Africa,15.552727,48.516388,7413.29823183377,2004,71436,52,0,337,0,15,0,0,31,0,5,0,62,240,70669,0,0,0,25,0,0,0,0,0
IR,Iran,country,Middle East and North Africa,32.427908,53.688046,YE,Yemen,country,Middle East and North Africa,15.552727,48.516388,1949.95293727742,2004,2035,426,0,444,0,0,0,0,764,0,0,0,56,13,315,0,0,0,17,0,0,0,0,0
IQ,Iraq,country,Middle East and North Africa,33.223191,43.679291,YE,Yemen,country,Middle East and North Africa,15.552727,48.516388,2026.5097854677,2004,3245,0,0,0,0,0,0,0,3245,0,0,0,0,0,0,0,0,0,0,0,0,0,0,0
IE,Ireland,country,Europe and Central Asia,53.41291,-8.24389,YE,Yemen,country,Middle East and North Africa,15.552727,48.516388,6455.57803653896,2004,338,0,0,0,0,0,0,0,0,0,0,0,0,44,0,0,0,45,249,0,0,0,0,0
IT,Italy,country,Europe and Central Asia,41.87194,12.56738,YE,Yemen,country,Middle East and North Africa,15.552727,48.516388,4515.3013915207,2004,22788,15740,30,210,65,0,0,5892,87,0,0,0,54,692,0,18,0,0,0,0,0,0,0,0
JM,Jamaica,country,Latin America and the Caribbean,18.109581,-77.297508,YE,Yemen,country,Middle East and North Africa,15.552727,48.516388,13013.4342825521,2004,0,0,0,0,0,0,0,0,0,0,0,0,0,0,0,0,0,0,0,0,0,0,0,0
JP,Japan,country,East Asia and Pacific,36.204824,138.252924,YE,Yemen,country,Middle East and North Africa,15.552727,48.516388,8981.25225984533,2004,3,0,0,0,0,0,0,0,0,0,0,0,0,1,0,2,0,0,0,0,0,0,0,0
JO,Jordan,country,Middle East and North Africa,30.585164,36.238414,YE,Yemen,country,Middle East and North Africa,15.552727,48.516388,2089.62869111912,2004,1837,1187,0,40,18,0,0,29,141,0,0,0,51,176,12,136,0,35,12,0,0,0,0,0
KE,Kenya,country,Sub-Saharan Africa,-0.023559,37.906193,YE,Yemen,country,Middle East and North Africa,15.552727,48.516388,2089.77290770266,2004,10352,47,0,1,0,0,0,0,19,0,0,0,10214,9,30,0,0,0,32,0,0,0,0,0
KW,Kuwait,country,Middle East and North Africa,29.31166,47.481766,YE,Yemen,country,Middle East and North Africa,15.552727,48.516388,1535.30585440912,2004,34,0,0,34,0,0,0,0,0,0,0,0,0,0,0,0,0,0,0,0,0,0,0,0
LB,Lebanon,country,Middle East and North Africa,33.854721,35.862285,YE,Yemen,country,Middle East and North Africa,15.552727,48.516388,2400.94247300665,2004,704,3,0,3,0,97,0,63,338,0,0,0,0,178,21,0,0,1,0,0,0,0,0,0
LY,Libya,country,Middle East and North Africa,26.3351,17.228331,YE,Yemen,country,Middle East and North Africa,15.552727,48.516388,3455.71956541413,2004,0,0,0,0,0,0,0,0,0,0,0,0,0,0,0,0,0,0,0,0,0,0,0,0
LT,Lithuania,country,Europe and Central Asia,55.169438,23.881275,YE,Yemen,country,Middle East and North Africa,15.552727,48.516388,4889.74012638493,2004,9900,9900,0,0,0,0,0,0,0,0,0,0,0,0,0,0,0,0,0,0,0,0,0,0
MY,Malaysia,country,East Asia and Pacific,4.210484,101.975766,YE,Yemen,country,Middle East and North Africa,15.552727,48.516388,5980.10083643748,2004,107211,40638,0,1019,198,14,64,411,67,0,47,0,678,84,63747,46,0,0,198,0,0,0,0,0
MT,Malta,country,Middle East and North Africa,35.937496,14.375416,YE,Yemen,country,Middle East and North Africa,15.552727,48.516388,4072.90928426755,2004,1527,239,0,0,0,0,0,0,0,0,0,0,0,1288,0,0,0,0,0,0,0,0,0,0
MN,Mongolia,country,East Asia and Pacific,46.862496,103.846656,YE,Yemen,country,Middle East and North Africa,15.552727,48.516388,6147.56713819362,2004,163,0,0,0,0,0,0,0,103,0,60,0,0,0,0,0,0,0,0,0,0,0,0,0
MA,Morocco,country,Middle East and North Africa,31.791702,-7.09262,YE,Yemen,country,Middle East and North Africa,15.552727,48.516388,5884.28837568472,2004,1415,0,0,0,0,0,0,0,0,0,0,0,0,0,0,0,0,0,1415,0,0,0,0,0
NL,Netherlands,country,Europe and Central Asia,52.132633,5.291266,YE,Yemen,country,Middle East and North Africa,15.552727,48.516388,5567.76949615627,2004,69217,36346,202,1357,0,0,318,0,115,0,0,21132,3,73,210,157,48,114,9190,0,0,0,0,0
NZ,New Zealand,country,East Asia and Pacific,-40.900557,174.885971,YE,Yemen,country,Middle East and North Africa,15.552727,48.516388,14181.9250367704,2004,7019,12,0,0,0,0,0,0,0,0,0,0,0,0,327,0,0,122,6558,0,0,0,0,0
NG,Nigeria,country,Sub-Saharan Africa,9.081999,8.675277,YE,Yemen,country,Middle East and North Africa,15.552727,48.516388,4385.73212357103,2004,5011,0,0,0,0,5011,0,0,0,0,0,0,0,0,0,0,0,0,0,0,0,0,0,0
OM,Oman,country,Middle East and North Africa,21.512583,55.923255,YE,Yemen,country,Middle East and North Africa,15.552727,48.516388,1024.94171136052,2004,34874,29113,0,756,5,0,0,740,307,0,8,165,6,300,207,11,0,1511,1745,0,0,0,0,0
PK,Pakistan,country,South Asia,30.375321,69.345116,YE,Yemen,country,Middle East and North Africa,15.552727,48.516388,2689.4895735583,2004,31189,26666,0,3404,44,0,0,115,31,25,397,84,45,376,2,0,0,0,0,0,0,0,0,0
PE,Peru,country,Latin America and the Caribbean,-9.189967,-75.015152,YE,Yemen,country,Middle East and North Africa,15.552727,48.516388,13872.863118863,2004,6,0,0,0,0,0,0,0,0,0,0,0,0,6,0,0,0,0,0,0,0,0,0,0
PH,Philippines,country,East Asia and Pacific,12.879721,121.774017,YE,Yemen,country,Middle East and North Africa,15.552727,48.516388,7871.70348100984,2004,22,14,0,0,0,0,0,0,0,0,0,0,0,8,0,0,0,0,0,0,0,0,0,0
PL,Poland,country,Europe and Central Asia,51.919438,19.145136,YE,Yemen,country,Middle East and North Africa,15.552727,48.516388,4809.99666967664,2004,3031,99,0,521,17,0,0,0,0,0,0,0,80,0,0,0,0,0,2314,0,0,0,0,0
QA,Qatar,country,Middle East and North Africa,25.354826,51.183884,YE,Yemen,country,Middle East and North Africa,15.552727,48.516388,1125.95689628297,2004,65,0,0,0,0,3,0,0,0,0,5,0,0,0,0,24,0,0,33,0,0,0,0,0
KR,"Korea, Rep.",country,East Asia and Pacific,35.907757,127.766922,YE,Yemen,country,Middle East and North Africa,15.552727,48.516388,8056.72672002934,2004,25,0,0,8,0,0,0,0,0,0,0,0,13,0,0,4,0,0,0,0,0,0,0,0
RU,Russian Federation,country,Europe and Central Asia,61.52401,105.318756,YE,Yemen,country,Middle East and North Africa,15.552727,48.516388,6773.16011690724,2004,61092,61092,0,0,0,0,0,0,0,0,0,0,0,0,0,0,0,0,0,0,0,0,0,0
WS,Samoa,country,East Asia and Pacific,-13.759029,-172.104629,YE,Yemen,country,Middle East and North Africa,15.552727,48.516388,15664.53627242,2004,2,0,0,0,0,0,0,0,0,0,0,0,0,2,0,0,0,0,0,0,0,0,0,0
SA,Saudi Arabia,country,Middle East and North Africa,23.885942,45.079162,YE,Yemen,country,Middle East and North Africa,15.552727,48.516388,994.962087477527,2004,179620,11624,886,70615,870,296,171,3124,44913,31,532,7,168,1800,2173,23711,595,1326,17370,3,0,0,0,0
SG,Singapore,country,East Asia and Pacific,1.352083,103.819836,YE,Yemen,country,Middle East and North Africa,15.552727,48.516388,6269.45837379242,2004,27662,172,0,21,238,16,25,95,979,0,258,0,0,13,25460,0,0,0,385,0,0,0,0,0
SO,Somalia,country,Sub-Saharan Africa,5.152149,46.199616,YE,Yemen,country,Middle East and North Africa,15.552727,48.516388,1185.17569796322,2004,6093,60,0,5196,54,0,694,7,6,0,0,0,0,13,5,0,0,0,58,0,0,0,0,0
ZA,S. Africa,country,Sub-Saharan Africa,-30.559482,22.937506,YE,Yemen,country,Middle East and North Africa,15.552727,48.516388,5818.6526037916,2004,1610,0,0,0,0,0,0,0,43,0,0,0,8,1558,0,1,0,0,0,0,0,0,0,0
ES,Spain,country,Europe and Central Asia,40.463667,-3.74922,YE,Yemen,country,Middle East and North Africa,15.552727,48.516388,5732.4484973809,2004,857,196,0,17,0,0,315,17,0,0,0,0,13,266,33,0,0,0,0,0,0,0,0,0
LK,Sri Lanka,country,South Asia,7.873054,80.771797,YE,Yemen,country,Middle East and North Africa,15.552727,48.516388,3613.50426468729,2004,268,5,0,9,0,0,76,0,70,0,10,0,77,21,0,0,0,0,0,0,0,0,0,0
SD,Sudan,country,Sub-Saharan Africa,12.862807,30.217636,YE,Yemen,country,Middle East and North Africa,15.552727,48.516388,1996.55530210888,2004,12465,0,0,0,0,0,657,143,0,0,37,501,0,11127,0,0,0,0,0,0,0,0,0,0
SZ,Swaziland,country,Sub-Saharan Africa,-26.522503,31.465866,YE,Yemen,country,Middle East and North Africa,15.552727,48.516388,5033.94441238812,2004,120,0,0,8,0,0,0,0,0,0,0,0,0,2,0,0,0,0,110,0,0,0,0,0
SE,Sweden,country,Europe and Central Asia,60.128161,18.643501,YE,Yemen,country,Middle East and North Africa,15.552727,48.516388,5517.64292744005,2004,380,0,0,0,0,0,0,0,0,0,0,0,0,0,0,0,0,0,380,0,0,0,0,0
CH,Switzerland,country,Europe and Central Asia,46.818188,8.227512,YE,Yemen,country,Middle East and North Africa,15.552727,48.516388,5087.51158473012,2004,2518,0,0,0,0,0,0,1101,0,0,0,0,4,33,0,1014,0,0,366,0,0,0,0,0
SY,Syrian Arab Rep.,country,Middle East and North Africa,34.802075,38.996815,YE,Yemen,country,Middle East and North Africa,15.552727,48.516388,2344.48521241392,2004,64628,63195,0,536,181,3,0,14,186,0,52,0,0,119,214,77,0,0,51,0,0,0,0,0
TJ,Tajikistan,country,Europe and Central Asia,38.861034,71.276093,YE,Yemen,country,Middle East and North Africa,15.552727,48.516388,3415.93376054447,2004,3,0,0,0,0,3,0,0,0,0,0,0,0,0,0,0,0,0,0,0,0,0,0,0
TH,Thailand,country,East Asia and Pacific,15.870032,100.992541,YE,Yemen,country,Middle East and North Africa,15.552727,48.516388,5607.85442943642,2004,189096,171614,0,8924,0,0,0,298,5961,0,41,121,70,49,0,2018,0,0,0,0,0,0,0,0
TN,Tunisia,country,Middle East and North Africa,33.886917,9.537499,YE,Yemen,country,Middle East and North Africa,15.552727,48.516388,4401.40252468683,2004,599,6,0,0,0,0,0,0,0,0,0,500,0,72,21,0,0,0,0,0,0,0,0,0
TR,Turkey,country,Europe and Central Asia,38.963745,35.243322,YE,Yemen,country,Middle East and North Africa,15.552727,48.516388,2910.64500427987,2004,12188,5899,0,713,1614,0,0,198,0,0,16,0,471,2176,1086,15,0,0,0,0,0,0,0,0
UA,Ukraine,country,Europe and Central Asia,48.379433,31.16558,YE,Yemen,country,Middle East and North Africa,15.552727,48.516388,3983.77852686248,2004,443,0,0,0,0,0,0,0,0,0,0,0,0,0,0,0,0,0,443,0,0,0,0,0
AE,United Arab Emirates,country,Middle East and North Africa,23.424076,53.847818,YE,Yemen,country,Middle East and North Africa,15.552727,48.516388,1039.28505072365,2004,423178,358231,3,24310,453,117,109,2763,8266,0,1414,15253,546,1823,6791,1957,0,394,748,0,0,0,0,0
GB,United Kingdom,country,Europe and Central Asia,55.378051,-3.435973,YE,Yemen,country,Middle East and North Africa,15.552727,48.516388,6243.14697759231,2004,38323,383,0,23083,2952,0,1172,311,64,19,0,0,157,6556,52,39,116,114,3421,0,0,0,0,0
TZ,Tanzania,country,Sub-Saharan Africa,-6.369028,34.888822,YE,Yemen,country,Middle East and North Africa,15.552727,48.516388,2865.85589430864,2004,23,0,0,0,0,0,0,0,23,0,0,0,0,0,0,0,0,0,0,0,0,0,0,0
US,USA,country,North America,37.09024,-95.712891,YE,Yemen,country,Middle East and North Africa,15.552727,48.516388,13080.5256939974,2004,334636,332163,0,151,0,0,272,15,195,0,0,0,6,1774,0,0,0,12,48,0,0,0,0,0
VN,Vietnam,country,East Asia and Pacific,14.058324,108.277199,YE,Yemen,country,Middle East and North Africa,15.552727,48.516388,6412.43502746854,2004,11295,11185,0,22,0,0,0,0,39,0,37,0,12,0,0,0,0,0,0,0,0,0,0,0
ZW,Zimbabwe,country,Sub-Saharan Africa,-19.015438,29.154857,YE,Yemen,country,Middle East and North Africa,15.552727,48.516388,4393.94472945579,2004,326,0,0,0,0,0,0,0,0,0,0,0,0,326,0,0,0,0,0,0,0,0,0,0
AR,Argentina,country,Latin America and the Caribbean,-38.416097,-63.616672,YE,Yemen,country,Middle East and North Africa,15.552727,48.516388,13002.9419003749,2005,466087,396637,0,39,0,0,20279,0,169,0,0,48585,16,0,0,0,0,261,101,0,0,0,0,0
AW,Aruba,country,Latin America and the Caribbean,12.52111,-69.968338,YE,Yemen,country,Middle East and North Africa,15.552727,48.516388,12576.838672499,2005,149,26,0,0,0,0,20,0,0,0,0,0,0,0,0,0,0,0,103,0,0,0,0,0
AU,Australia,country,East Asia and Pacific,-25.274398,133.775136,YE,Yemen,country,Middle East and North Africa,15.552727,48.516388,10289.7161571676,2005,104277,89647,0,158,6012,39,0,44,136,0,0,0,0,0,0,139,0,189,7913,0,0,0,0,0
AT,Austria,country,Europe and Central Asia,47.516231,14.550072,YE,Yemen,country,Middle East and North Africa,15.552727,48.516388,4730.27624417639,2005,7031,0,0,3865,0,0,101,0,474,0,0,0,0,53,1,2210,0,0,327,0,0,0,0,0
BD,Bangladesh,country,South Asia,23.684994,90.356331,YE,Yemen,country,Middle East and North Africa,15.552727,48.516388,4463.29402953326,2005,253,1,0,0,0,19,0,0,109,0,0,0,0,124,0,0,0,0,0,0,0,0,0,0
BE,Belgium,country,Europe and Central Asia,50.503887,4.469936,YE,Yemen,country,Middle East and North Africa,15.552727,48.516388,5528.10560101808,2005,34432,355,0,27701,0,0,0,0,0,0,0,5982,6,52,136,0,0,0,200,0,0,0,0,0
BA,Bosnia & Herzegovina,country,Europe and Central Asia,43.915886,17.679076,YE,Yemen,country,Middle East and North Africa,15.552727,48.516388,4293.63036835553,2005,101,97,0,0,0,0,0,0,0,0,0,0,0,4,0,0,0,0,0,0,0,0,0,0
BR,Brazil,country,Latin America and the Caribbean,-14.235004,-51.92528,YE,Yemen,country,Middle East and North Africa,15.552727,48.516388,11532.8769459926,2005,405798,677,0,346434,0,0,0,0,0,0,0,3508,297,192,0,0,0,54535,155,0,0,0,0,0
BG,Bulgaria,country,Europe and Central Asia,42.733883,25.48583,YE,Yemen,country,Middle East and North Africa,15.552727,48.516388,3737.50300236752,2005,34108,32016,0,2077,0,0,0,0,0,0,0,0,0,15,0,0,0,0,0,0,0,0,0,0
CA,Canada,country,North America,56.130366,-106.346771,YE,Yemen,country,Middle East and North Africa,15.552727,48.516388,11718.9867643119,2005,1402,0,22,18,1362,0,0,0,0,0,0,0,0,0,0,0,0,0,0,0,0,0,0,0
HK,Hong Kong,country,East Asia and Pacific,22.396428,114.109497,YE,Yemen,country,Middle East and North Africa,15.552727,48.516388,6896.43484921883,2005,124,0,0,98,0,0,26,0,0,0,0,0,0,0,0,0,0,0,0,0,0,0,0,0
CN,China,country,East Asia and Pacific,35.86166,104.195397,YE,Yemen,country,Middle East and North Africa,15.552727,48.516388,5935.9937643865,2005,71704,384,43,2945,15867,405,1647,34393,3891,3,745,42,168,2330,8811,6,0,1,23,0,0,0,0,0
TW,Taiwan,country,East Asia and Pacific,23.69781,120.960515,YE,Yemen,country,Middle East and North Africa,15.552727,48.516388,7574.92442326994,2005,2,0,0,0,0,0,0,0,0,0,0,0,0,0,2,0,0,0,0,0,0,0,0,0
CO,Colombia,country,Latin America and the Caribbean,4.570868,-74.297333,YE,Yemen,country,Middle East and North Africa,15.552727,48.516388,13351.2644822331,2005,25722,73,0,25649,0,0,0,0,0,0,0,0,0,0,0,0,0,0,0,0,0,0,0,0
CY,Cyprus,country,Europe and Central Asia,35.126413,33.429859,YE,Yemen,country,Middle East and North Africa,15.552727,48.516388,2647.90839573188,2005,136,30,0,0,0,0,0,0,0,0,0,0,0,25,0,0,0,0,81,0,0,0,0,0
CZ,Czech Republic,country,Europe and Central Asia,49.817492,15.472962,YE,Yemen,country,Middle East and North Africa,15.552727,48.516388,4837.47240324221,2005,0,0,0,0,0,0,0,0,0,0,0,0,0,0,0,0,0,0,0,0,0,0,0,0
KP,"Korea, Dem. Rep.",country,East Asia and Pacific,40.339852,127.510093,YE,Yemen,country,Middle East and North Africa,15.552727,48.516388,7983.20472702344,2005,10,0,0,10,0,0,0,0,0,0,0,0,0,0,0,0,0,0,0,0,0,0,0,0
DK,Denmark,country,Europe and Central Asia,56.26392,9.501785,YE,Yemen,country,Middle East and North Africa,15.552727,48.516388,5600.04151300287,2005,13914,0,0,0,0,0,0,18,254,0,0,0,0,272,196,2914,0,4,10256,0,0,0,0,0
DJ,Djibouti,country,Middle East and North Africa,11.825138,42.590275,YE,Yemen,country,Middle East and North Africa,15.552727,48.516388,763.423877104999,2005,7736,634,0,3018,1134,0,1654,71,52,0,1123,0,0,50,0,0,0,0,0,0,0,0,0,0
EG,Egypt,country,Middle East and North Africa,26.820553,30.802498,YE,Yemen,country,Middle East and North Africa,15.552727,48.516388,2221.36109191692,2005,21255,6101,22,2176,110,0,81,688,6569,0,47,0,469,1136,27,2,76,0,3827,0,0,0,0,0
ER,Eritrea,country,Sub-Saharan Africa,15.179384,39.782334,YE,Yemen,country,Middle East and North Africa,15.552727,48.516388,938.369162068095,2005,220,0,0,0,130,0,90,0,0,0,0,0,0,0,0,0,0,0,0,0,0,0,0,0
ET,Ethiopia,country,Sub-Saharan Africa,9.145,40.489673,YE,Yemen,country,Middle East and North Africa,15.552727,48.516388,1126.81707470139,2005,23202,0,0,4005,7980,0,9555,140,3,0,1114,0,296,23,0,14,0,72,0,0,0,0,0,0
FI,Finland,country,Europe and Central Asia,61.92411,25.748151,YE,Yemen,country,Middle East and North Africa,15.552727,48.516388,5466.54784977188,2005,112,64,0,0,0,0,0,0,0,0,0,0,30,0,0,18,0,0,0,0,0,0,0,0
FR,France,country,Europe and Central Asia,46.227638,2.213749,YE,Yemen,country,Middle East and North Africa,15.552727,48.516388,5471.71743772721,2005,128351,76057,0,3115,0,0,0,0,0,0,0,0,83,258,937,91,118,45452,2358,0,0,0,0,0
DE,Germany,country,Europe and Central Asia,51.165691,10.451526,YE,Yemen,country,Middle East and North Africa,15.552727,48.516388,5210.31362677837,2005,6962,757,0,4428,44,0,0,0,116,0,0,65,46,188,45,1019,75,0,254,0,0,0,0,0
GR,Greece,country,Europe and Central Asia,39.074208,21.824312,YE,Yemen,country,Middle East and North Africa,15.552727,48.516388,3690.62413538929,2005,703,4,0,110,0,0,0,0,501,0,0,0,88,0,0,0,0,0,0,0,0,0,0,0
GT,Guatemala,country,Latin America and the Caribbean,15.783471,-90.230759,YE,Yemen,country,Middle East and North Africa,15.552727,48.516388,14316.9983631908,2005,30,0,0,0,0,0,0,0,0,0,30,0,0,0,0,0,0,0,0,0,0,0,0,0
HN,Honduras,country,Latin America and the Caribbean,15.199999,-86.241905,YE,Yemen,country,Middle East and North Africa,15.552727,48.516388,13998.8654610522,2005,172,0,0,0,0,0,0,0,0,0,0,0,0,0,0,0,0,0,172,0,0,0,0,0
HU,Hungary,country,Europe and Central Asia,47.162494,19.503304,YE,Yemen,country,Middle East and North Africa,15.552727,48.516388,4419.00216056352,2005,47471,47230,0,0,0,0,0,0,0,0,0,0,0,0,0,0,0,0,241,0,0,0,0,0
IN,India,country,South Asia,20.593684,78.96288,YE,Yemen,country,Middle East and North Africa,15.552727,48.516388,3265.51574962719,2005,114153,71329,0,3651,300,602,39,169,16321,1,3892,437,1022,9012,677,66,0,3406,3229,0,0,0,0,0
ID,Indonesia,country,East Asia and Pacific,-0.789275,113.921327,YE,Yemen,country,Middle East and North Africa,15.552727,48.516388,7413.29823183377,2005,28812,4564,0,408,0,0,0,19,0,20,38,0,153,190,23420,0,0,0,0,0,0,0,0,0
IR,Iran,country,Middle East and North Africa,32.427908,53.688046,YE,Yemen,country,Middle East and North Africa,15.552727,48.516388,1949.95293727742,2005,2557,1056,0,755,22,0,0,0,1,0,12,78,109,153,371,0,0,0,0,0,0,0,0,0
IQ,Iraq,country,Middle East and North Africa,33.223191,43.679291,YE,Yemen,country,Middle East and North Africa,15.552727,48.516388,2026.5097854677,2005,4132,0,0,0,0,0,0,0,4123,0,9,0,0,0,0,0,0,0,0,0,0,0,0,0
IE,Ireland,country,Europe and Central Asia,53.41291,-8.24389,YE,Yemen,country,Middle East and North Africa,15.552727,48.516388,6455.57803653896,2005,379,0,0,0,0,0,0,0,0,0,0,0,0,37,0,24,0,0,318,0,0,0,0,0
IT,Italy,country,Europe and Central Asia,41.87194,12.56738,YE,Yemen,country,Middle East and North Africa,15.552727,48.516388,4515.3013915207,2005,19785,13829,0,0,0,0,0,4153,17,0,0,0,348,1247,188,3,0,0,0,0,0,0,0,0
JP,Japan,country,East Asia and Pacific,36.204824,138.252924,YE,Yemen,country,Middle East and North Africa,15.552727,48.516388,8981.25225984533,2005,12,12,0,0,0,0,0,0,0,0,0,0,0,0,0,0,0,0,0,0,0,0,0,0
JO,Jordan,country,Middle East and North Africa,30.585164,36.238414,YE,Yemen,country,Middle East and North Africa,15.552727,48.516388,2089.62869111912,2005,2569,1633,0,88,0,0,0,20,79,0,0,0,578,55,19,40,0,46,11,0,0,0,0,0
KZ,Kazakhstan,country,Europe and Central Asia,48.019573,66.923684,YE,Yemen,country,Middle East and North Africa,15.552727,48.516388,3988.84603610732,2005,32400,32400,0,0,0,0,0,0,0,0,0,0,0,0,0,0,0,0,0,0,0,0,0,0
KE,Kenya,country,Sub-Saharan Africa,-0.023559,37.906193,YE,Yemen,country,Middle East and North Africa,15.552727,48.516388,2089.77290770266,2005,13494,0,0,0,0,0,0,0,208,0,10,0,13216,26,34,0,0,0,0,0,0,0,0,0
KW,Kuwait,country,Middle East and North Africa,29.31166,47.481766,YE,Yemen,country,Middle East and North Africa,15.552727,48.516388,1535.30585440912,2005,183,28,0,20,0,0,0,0,131,0,3,0,0,0,0,0,0,0,1,0,0,0,0,0
LB,Lebanon,country,Middle East and North Africa,33.854721,35.862285,YE,Yemen,country,Middle East and North Africa,15.552727,48.516388,2400.94247300665,2005,1080,184,0,20,7,0,1,0,532,0,0,4,14,226,55,37,0,0,0,0,0,0,0,0
MY,Malaysia,country,East Asia and Pacific,4.210484,101.975766,YE,Yemen,country,Middle East and North Africa,15.552727,48.516388,5980.10083643748,2005,143567,3703,0,307,2275,18,118,5,28,0,72,0,837,580,135281,0,0,0,343,0,0,0,0,0
MT,Malta,country,Middle East and North Africa,35.937496,14.375416,YE,Yemen,country,Middle East and North Africa,15.552727,48.516388,4072.90928426755,2005,1790,8,0,0,0,0,0,0,0,0,0,0,0,1782,0,0,0,0,0,0,0,0,0,0
MA,Morocco,country,Middle East and North Africa,31.791702,-7.09262,YE,Yemen,country,Middle East and North Africa,15.552727,48.516388,5884.28837568472,2005,3588,1,0,0,0,0,0,0,0,0,0,0,1,0,0,0,0,0,3586,0,0,0,0,0
MZ,Mozambique,country,Sub-Saharan Africa,-18.665695,35.529562,YE,Yemen,country,Middle East and North Africa,15.552727,48.516388,4066.40522085699,2005,86,0,0,0,0,0,0,0,0,0,0,0,0,0,86,0,0,0,0,0,0,0,0,0
NL,Netherlands,country,Europe and Central Asia,52.132633,5.291266,YE,Yemen,country,Middle East and North Africa,15.552727,48.516388,5567.76949615627,2005,41418,636,22,2830,0,0,4,66,0,0,0,29700,1,234,159,111,162,14,7641,0,0,0,0,0
NZ,New Zealand,country,East Asia and Pacific,-40.900557,174.885971,YE,Yemen,country,Middle East and North Africa,15.552727,48.516388,14181.9250367704,2005,7179,0,0,5,0,0,0,0,0,0,0,0,0,0,254,0,0,283,6637,0,0,0,0,0
NI,Nicaragua,country,Latin America and the Caribbean,12.865416,-85.207229,YE,Yemen,country,Middle East and North Africa,15.552727,48.516388,14039.4280292251,2005,23,0,0,0,0,0,0,0,0,0,0,0,0,23,0,0,0,0,0,0,0,0,0,0
NG,Nigeria,country,Sub-Saharan Africa,9.081999,8.675277,YE,Yemen,country,Middle East and North Africa,15.552727,48.516388,4385.73212357103,2005,63,0,0,0,0,63,0,0,0,0,0,0,0,0,0,0,0,0,0,0,0,0,0,0
NO,Norway,country,Europe and Central Asia,60.472024,8.468946,YE,Yemen,country,Middle East and North Africa,15.552727,48.516388,5940.15611884409,2005,60,0,0,0,0,0,0,0,0,0,0,60,0,0,0,0,0,0,0,0,0,0,0,0
PS,Palestine,country,Middle East and North Africa,31.952162,35.233154,YE,Yemen,country,Middle East and North Africa,15.552727,48.516388,2267.8858739687,2005,9,0,0,0,0,0,0,0,0,0,0,0,0,0,9,0,0,0,0,0,0,0,0,0
OM,Oman,country,Middle East and North Africa,21.512583,55.923255,YE,Yemen,country,Middle East and North Africa,15.552727,48.516388,1024.94171136052,2005,21330,16165,1,12,66,0,0,2221,209,0,2,167,0,77,1008,205,0,413,784,0,0,0,0,0
PK,Pakistan,country,South Asia,30.375321,69.345116,YE,Yemen,country,Middle East and North Africa,15.552727,48.516388,2689.4895735583,2005,51784,49360,0,1537,0,105,0,57,19,0,248,0,31,422,4,0,0,0,1,0,0,0,0,0
PH,Philippines,country,East Asia and Pacific,12.879721,121.774017,YE,Yemen,country,Middle East and North Africa,15.552727,48.516388,7871.70348100984,2005,103,0,0,0,0,0,88,0,0,0,0,0,0,15,0,0,0,0,0,0,0,0,0,0
PL,Poland,country,Europe and Central Asia,51.919438,19.145136,YE,Yemen,country,Middle East and North Africa,15.552727,48.516388,4809.99666967664,2005,23392,19440,0,2827,0,0,0,0,0,0,0,0,426,0,0,0,0,0,699,0,0,0,0,0
QA,Qatar,country,Middle East and North Africa,25.354826,51.183884,YE,Yemen,country,Middle East and North Africa,15.552727,48.516388,1125.95689628297,2005,9,0,0,1,0,0,0,0,0,0,8,0,0,0,0,0,0,0,0,0,0,0,0,0
KR,"Korea, Rep.",country,East Asia and Pacific,35.907757,127.766922,YE,Yemen,country,Middle East and North Africa,15.552727,48.516388,8056.72672002934,2005,1756,66,0,0,0,0,0,0,0,0,0,0,0,21,1571,98,0,0,0,0,0,0,0,0
RU,Russian Federation,country,Europe and Central Asia,61.52401,105.318756,YE,Yemen,country,Middle East and North Africa,15.552727,48.516388,6773.16011690724,2005,223469,223216,0,0,0,0,0,0,0,0,0,0,0,253,0,0,0,0,0,0,0,0,0,0
WS,Samoa,country,East Asia and Pacific,-13.759029,-172.104629,YE,Yemen,country,Middle East and North Africa,15.552727,48.516388,15664.53627242,2005,11,4,0,0,0,0,0,0,7,0,0,0,0,0,0,0,0,0,0,0,0,0,0,0
SA,Saudi Arabia,country,Middle East and North Africa,23.885942,45.079162,YE,Yemen,country,Middle East and North Africa,15.552727,48.516388,994.962087477527,2005,209327,16127,2454,52136,150,261,140,8121,56471,36,493,91,230,3329,1874,39164,811,1709,26541,0,0,0,0,0
SG,Singapore,country,East Asia and Pacific,1.352083,103.819836,YE,Yemen,country,Middle East and North Africa,15.552727,48.516388,6269.45837379242,2005,69979,47928,0,41,110,114,102,13,834,0,649,6970,0,0,13004,0,0,0,214,0,0,0,0,0
SO,Somalia,country,Sub-Saharan Africa,5.152149,46.199616,YE,Yemen,country,Middle East and North Africa,15.552727,48.516388,1185.17569796322,2005,640,210,0,2,5,0,259,5,0,0,32,0,1,1,5,0,0,0,120,0,0,0,0,0
ZA,S. Africa,country,Sub-Saharan Africa,-30.559482,22.937506,YE,Yemen,country,Middle East and North Africa,15.552727,48.516388,5818.6526037916,2005,4989,8,0,0,0,0,17,0,0,0,0,0,0,4963,0,1,0,0,0,0,0,0,0,0
ES,Spain,country,Europe and Central Asia,40.463667,-3.74922,YE,Yemen,country,Middle East and North Africa,15.552727,48.516388,5732.4484973809,2005,1118,243,0,5,0,0,329,24,5,0,0,0,5,480,25,0,0,0,2,0,0,0,0,0
LK,Sri Lanka,country,South Asia,7.873054,80.771797,YE,Yemen,country,Middle East and North Africa,15.552727,48.516388,3613.50426468729,2005,91,0,0,0,0,0,28,0,0,0,15,0,48,0,0,0,0,0,0,0,0,0,0,0
SD,Sudan,country,Sub-Saharan Africa,12.862807,30.217636,YE,Yemen,country,Middle East and North Africa,15.552727,48.516388,1996.55530210888,2005,12795,0,0,0,0,0,478,0,0,0,22,0,0,12295,0,0,0,0,0,0,0,0,0,0
SZ,Swaziland,country,Sub-Saharan Africa,-26.522503,31.465866,YE,Yemen,country,Middle East and North Africa,15.552727,48.516388,5033.94441238812,2005,25536,20315,0,8,0,0,4248,0,0,0,0,0,0,1,0,0,0,0,964,0,0,0,0,0
SE,Sweden,country,Europe and Central Asia,60.128161,18.643501,YE,Yemen,country,Middle East and North Africa,15.552727,48.516388,5517.64292744005,2005,307,0,0,0,0,0,0,0,0,0,0,0,0,0,0,0,0,0,307,0,0,0,0,0
CH,Switzerland,country,Europe and Central Asia,46.818188,8.227512,YE,Yemen,country,Middle East and North Africa,15.552727,48.516388,5087.51158473012,2005,101,0,0,8,0,0,0,0,0,0,0,0,4,89,0,0,0,0,0,0,0,0,0,0
SY,Syrian Arab Rep.,country,Middle East and North Africa,34.802075,38.996815,YE,Yemen,country,Middle East and North Africa,15.552727,48.516388,2344.48521241392,2005,2203,445,21,651,103,30,0,26,238,0,313,0,29,24,229,3,11,0,91,0,0,0,0,0
TJ,Tajikistan,country,Europe and Central Asia,38.861034,71.276093,YE,Yemen,country,Middle East and North Africa,15.552727,48.516388,3415.93376054447,2005,18,0,0,18,0,0,0,0,0,0,0,0,0,0,0,0,0,0,0,0,0,0,0,0
TH,Thailand,country,East Asia and Pacific,15.870032,100.992541,YE,Yemen,country,Middle East and North Africa,15.552727,48.516388,5607.85442943642,2005,40344,27161,0,250,46,0,0,373,7835,0,101,464,6,88,25,3995,0,0,0,0,0,0,0,0
TN,Tunisia,country,Middle East and North Africa,33.886917,9.537499,YE,Yemen,country,Middle East and North Africa,15.552727,48.516388,4401.40252468683,2005,249,2,0,0,0,0,0,0,0,0,0,0,0,217,30,0,0,0,0,0,0,0,0,0
TR,Turkey,country,Europe and Central Asia,38.963745,35.243322,YE,Yemen,country,Middle East and North Africa,15.552727,48.516388,2910.64500427987,2005,37023,31378,0,217,862,0,32,303,125,0,45,0,1158,1946,827,130,23,0,0,0,0,0,0,0
UA,Ukraine,country,Europe and Central Asia,48.379433,31.16558,YE,Yemen,country,Middle East and North Africa,15.552727,48.516388,3983.77852686248,2005,22,22,0,0,0,0,0,0,0,0,0,0,0,0,0,0,0,0,0,0,0,0,0,0
AE,United Arab Emirates,country,Middle East and North Africa,23.424076,53.847818,YE,Yemen,country,Middle East and North Africa,15.552727,48.516388,1039.28505072365,2005,323735,153224,90,105114,967,216,233,3562,14150,0,1614,25421,1734,7131,5457,1314,44,746,2762,0,0,0,0,0
GB,United Kingdom,country,Europe and Central Asia,55.378051,-3.435973,YE,Yemen,country,Middle East and North Africa,15.552727,48.516388,6243.14697759231,2005,25509,445,0,14605,3168,0,545,0,378,0,0,0,44,5341,298,0,0,0,685,0,0,0,0,0
TZ,Tanzania,country,Sub-Saharan Africa,-6.369028,34.888822,YE,Yemen,country,Middle East and North Africa,15.552727,48.516388,2865.85589430864,2005,20,0,0,0,0,0,0,0,20,0,0,0,0,0,0,0,0,0,0,0,0,0,0,0
US,USA,country,North America,37.09024,-95.712891,YE,Yemen,country,Middle East and North Africa,15.552727,48.516388,13080.5256939974,2005,403358,385403,0,121,2005,0,399,43,465,5,0,1,1,2253,2500,0,0,13,10149,0,0,0,0,0
UY,Uruguay,country,Latin America and the Caribbean,-32.522779,-55.765835,YE,Yemen,country,Middle East and North Africa,15.552727,48.516388,12262.3064289231,2005,5600,5600,0,0,0,0,0,0,0,0,0,0,0,0,0,0,0,0,0,0,0,0,0,0
VN,Vietnam,country,East Asia and Pacific,14.058324,108.277199,YE,Yemen,country,Middle East and North Africa,15.552727,48.516388,6412.43502746854,2005,8061,7585,0,39,0,0,0,0,0,0,427,0,10,0,0,0,0,0,0,0,0,0,0,0
ZW,Zimbabwe,country,Sub-Saharan Africa,-19.015438,29.154857,YE,Yemen,country,Middle East and North Africa,15.552727,48.516388,4393.94472945579,2005,146,5,0,0,0,0,0,0,0,0,0,0,0,120,0,0,0,0,21,0,0,0,0,0
AG,Antigua & Barbuda,country,Latin America and the Caribbean,17.060816,-61.796428,YE,Yemen,country,Middle East and North Africa,15.552727,48.516388,11571.5156758407,2006,32,15,0,17,0,0,0,0,0,0,0,0,0,0,0,0,0,0,0,0,0,0,0,0
AR,Argentina,country,Latin America and the Caribbean,-38.416097,-63.616672,YE,Yemen,country,Middle East and North Africa,15.552727,48.516388,13002.9419003749,2006,320456,271077,0,54,0,0,10919,0,263,0,0,37333,32,0,26,0,0,677,75,0,0,0,0,0
AW,Aruba,country,Latin America and the Caribbean,12.52111,-69.968338,YE,Yemen,country,Middle East and North Africa,15.552727,48.516388,12576.838672499,2006,2201,9,0,2087,0,0,0,0,0,0,10,0,13,20,0,0,0,0,62,0,0,0,0,0
AU,Australia,country,East Asia and Pacific,-25.274398,133.775136,YE,Yemen,country,Middle East and North Africa,15.552727,48.516388,10289.7161571676,2006,597675,581713,0,22,7215,0,43,242,80,0,151,0,0,17,295,0,0,258,7639,0,0,0,0,0
AT,Austria,country,Europe and Central Asia,47.516231,14.550072,YE,Yemen,country,Middle East and North Africa,15.552727,48.516388,4730.27624417639,2006,29566,26638,0,0,0,0,0,17,705,0,0,0,0,0,0,1666,0,0,540,0,0,0,0,0
BH,Bahrain,country,Middle East and North Africa,25.930414,50.637772,YE,Yemen,country,Middle East and North Africa,15.552727,48.516388,1176.077370226,2006,0,0,0,0,0,0,0,0,0,0,0,0,0,0,0,0,0,0,0,0,0,0,0,0
BD,Bangladesh,country,South Asia,23.684994,90.356331,YE,Yemen,country,Middle East and North Africa,15.552727,48.516388,4463.29402953326,2006,373,0,0,0,0,0,0,0,0,0,0,0,0,373,0,0,0,0,0,0,0,0,0,0
BE,Belgium,country,Europe and Central Asia,50.503887,4.469936,YE,Yemen,country,Middle East and North Africa,15.552727,48.516388,5528.10560101808,2006,22702,2,0,16325,0,0,0,0,0,0,0,5876,4,70,83,0,0,0,342,0,0,0,0,0
BM,Bermuda,country,North America,32.321384,-64.75737,YE,Yemen,country,Middle East and North Africa,15.552727,48.516388,11162.2257665623,2006,94,0,0,0,0,0,0,0,94,0,0,0,0,0,0,0,0,0,0,0,0,0,0,0
BR,Brazil,country,Latin America and the Caribbean,-14.235004,-51.92528,YE,Yemen,country,Middle East and North Africa,15.552727,48.516388,11532.8769459926,2006,341276,8149,0,279070,0,0,20,0,0,0,0,0,211,452,0,0,0,51069,2305,0,0,0,0,0
BG,Bulgaria,country,Europe and Central Asia,42.733883,25.48583,YE,Yemen,country,Middle East and North Africa,15.552727,48.516388,3737.50300236752,2006,1044,6,0,1038,0,0,0,0,0,0,0,0,0,0,0,0,0,0,0,0,0,0,0,0
CA,Canada,country,North America,56.130366,-106.346771,YE,Yemen,country,Middle East and North Africa,15.552727,48.516388,11718.9867643119,2006,2944,0,0,0,2918,0,0,0,0,0,0,0,26,0,0,0,0,0,0,0,0,0,0,0
HK,Hong Kong,country,East Asia and Pacific,22.396428,114.109497,YE,Yemen,country,Middle East and North Africa,15.552727,48.516388,6896.43484921883,2006,476,0,0,476,0,0,0,0,0,0,0,0,0,0,0,0,0,0,0,0,0,0,0,0
CN,China,country,East Asia and Pacific,35.86166,104.195397,YE,Yemen,country,Middle East and North Africa,15.552727,48.516388,5935.9937643865,2006,77048,891,4,4223,14772,308,1041,40755,9203,20,2017,43,282,2472,821,50,0,59,87,0,0,0,0,0
TW,Taiwan,country,East Asia and Pacific,23.69781,120.960515,YE,Yemen,country,Middle East and North Africa,15.552727,48.516388,7574.92442326994,2006,19,0,0,0,0,0,0,0,0,0,0,19,0,0,0,0,0,0,0,0,0,0,0,0
CO,Colombia,country,Latin America and the Caribbean,4.570868,-74.297333,YE,Yemen,country,Middle East and North Africa,15.552727,48.516388,13351.2644822331,2006,2566,0,0,2566,0,0,0,0,0,0,0,0,0,0,0,0,0,0,0,0,0,0,0,0
CU,Cuba,country,Latin America and the Caribbean,21.521757,-77.781167,YE,Yemen,country,Middle East and North Africa,15.552727,48.516388,12869.1827632822,2006,0,0,0,0,0,0,0,0,0,0,0,0,0,0,0,0,0,0,0,0,0,0,0,0
CY,Cyprus,country,Europe and Central Asia,35.126413,33.429859,YE,Yemen,country,Middle East and North Africa,15.552727,48.516388,2647.90839573188,2006,116,16,0,0,0,0,0,0,0,0,0,0,0,2,0,0,0,0,98,0,0,0,0,0
CZ,Czech Republic,country,Europe and Central Asia,49.817492,15.472962,YE,Yemen,country,Middle East and North Africa,15.552727,48.516388,4837.47240324221,2006,25,0,0,0,0,0,0,0,0,0,0,0,0,0,0,0,0,0,25,0,0,0,0,0
KP,"Korea, Dem. Rep.",country,East Asia and Pacific,40.339852,127.510093,YE,Yemen,country,Middle East and North Africa,15.552727,48.516388,7983.20472702344,2006,8,1,0,5,0,0,0,2,0,0,0,0,0,0,0,0,0,0,0,0,0,0,0,0
DK,Denmark,country,Europe and Central Asia,56.26392,9.501785,YE,Yemen,country,Middle East and North Africa,15.552727,48.516388,5600.04151300287,2006,7715,0,0,0,0,0,0,0,225,0,0,0,0,301,0,827,0,147,6215,0,0,0,0,0
DJ,Djibouti,country,Middle East and North Africa,11.825138,42.590275,YE,Yemen,country,Middle East and North Africa,15.552727,48.516388,763.423877104999,2006,4519,0,0,100,1645,0,2043,0,0,0,700,0,0,31,0,0,0,0,0,0,0,0,0,0
EG,Egypt,country,Middle East and North Africa,26.820553,30.802498,YE,Yemen,country,Middle East and North Africa,15.552727,48.516388,2221.36109191692,2006,35792,6358,63,9941,7,0,50,774,6903,0,230,0,3174,1945,143,54,0,111,6039,0,0,0,0,0
ER,Eritrea,country,Sub-Saharan Africa,15.179384,39.782334,YE,Yemen,country,Middle East and North Africa,15.552727,48.516388,938.369162068095,2006,810,502,0,0,0,0,308,0,0,0,0,0,0,0,0,0,0,0,0,0,0,0,0,0
ET,Ethiopia,country,Sub-Saharan Africa,9.145,40.489673,YE,Yemen,country,Middle East and North Africa,15.552727,48.516388,1126.81707470139,2006,12669,1,0,28,5605,0,5464,25,4,0,1110,0,222,115,0,0,0,95,0,0,0,0,0,0
FI,Finland,country,Europe and Central Asia,61.92411,25.748151,YE,Yemen,country,Middle East and North Africa,15.552727,48.516388,5466.54784977188,2006,161,0,0,0,96,0,0,0,0,0,0,0,40,0,0,18,0,7,0,0,0,0,0,0
FR,France,country,Europe and Central Asia,46.227638,2.213749,YE,Yemen,country,Middle East and North Africa,15.552727,48.516388,5471.71743772721,2006,31059,27,0,7460,0,0,0,6,23,0,0,21,1,168,190,48,333,21751,1364,0,0,0,0,0
DE,Germany,country,Europe and Central Asia,51.165691,10.451526,YE,Yemen,country,Middle East and North Africa,15.552727,48.516388,5210.31362677837,2006,51544,44459,0,4865,0,0,0,0,144,0,0,18,0,740,155,1035,7,50,78,0,0,0,0,0
GR,Greece,country,Europe and Central Asia,39.074208,21.824312,YE,Yemen,country,Middle East and North Africa,15.552727,48.516388,3690.62413538929,2006,2219,1530,0,110,0,0,0,0,399,0,0,0,110,70,0,0,0,0,0,0,0,0,0,0
GT,Guatemala,country,Latin America and the Caribbean,15.783471,-90.230759,YE,Yemen,country,Middle East and North Africa,15.552727,48.516388,14316.9983631908,2006,33,0,0,0,0,0,0,0,0,0,33,0,0,0,0,0,0,0,0,0,0,0,0,0
HU,Hungary,country,Europe and Central Asia,47.162494,19.503304,YE,Yemen,country,Middle East and North Africa,15.552727,48.516388,4419.00216056352,2006,373,0,0,0,0,0,0,0,0,0,0,0,0,0,0,0,0,0,373,0,0,0,0,0
IN,India,country,South Asia,20.593684,78.96288,YE,Yemen,country,Middle East and North Africa,15.552727,48.516388,3265.51574962719,2006,125454,51537,0,26634,623,315,400,497,22069,0,3131,253,656,11176,818,69,0,3792,3484,0,0,0,0,0
ID,Indonesia,country,East Asia and Pacific,-0.789275,113.921327,YE,Yemen,country,Middle East and North Africa,15.552727,48.516388,7413.29823183377,2006,33972,129,0,203,0,4,0,0,321,0,59,0,87,28,33071,19,0,0,51,0,0,0,0,0
IR,Iran,country,Middle East and North Africa,32.427908,53.688046,YE,Yemen,country,Middle East and North Africa,15.552727,48.516388,1949.95293727742,2006,2156,705,0,815,0,0,0,0,1,0,111,332,27,0,114,0,0,0,51,0,0,0,0,0
IQ,Iraq,country,Middle East and North Africa,33.223191,43.679291,YE,Yemen,country,Middle East and North Africa,15.552727,48.516388,2026.5097854677,2006,1690,0,0,0,0,0,0,0,1458,0,232,0,0,0,0,0,0,0,0,0,0,0,0,0
IE,Ireland,country,Europe and Central Asia,53.41291,-8.24389,YE,Yemen,country,Middle East and North Africa,15.552727,48.516388,6455.57803653896,2006,337,0,0,0,0,0,0,0,0,0,0,0,0,144,0,0,0,0,193,0,0,0,0,0
IT,Italy,country,Europe and Central Asia,41.87194,12.56738,YE,Yemen,country,Middle East and North Africa,15.552727,48.516388,4515.3013915207,2006,10243,6022,0,68,0,0,19,292,75,0,27,0,233,3478,24,5,0,0,0,0,0,0,0,0
JP,Japan,country,East Asia and Pacific,36.204824,138.252924,YE,Yemen,country,Middle East and North Africa,15.552727,48.516388,8981.25225984533,2006,53,0,0,0,0,0,0,0,53,0,0,0,0,0,0,0,0,0,0,0,0,0,0,0
JO,Jordan,country,Middle East and North Africa,30.585164,36.238414,YE,Yemen,country,Middle East and North Africa,15.552727,48.516388,2089.62869111912,2006,6987,2034,0,429,0,0,0,170,41,0,11,0,2302,89,144,1597,72,73,97,0,0,0,0,0
KE,Kenya,country,Sub-Saharan Africa,-0.023559,37.906193,YE,Yemen,country,Middle East and North Africa,15.552727,48.516388,2089.77290770266,2006,12004,0,0,0,0,0,53,0,388,0,9,0,11503,0,51,0,0,0,0,0,0,0,0,0
KW,Kuwait,country,Middle East and North Africa,29.31166,47.481766,YE,Yemen,country,Middle East and North Africa,15.552727,48.516388,1535.30585440912,2006,422,54,0,194,0,0,0,0,112,0,0,0,0,62,0,0,0,0,0,0,0,0,0,0
LB,Lebanon,country,Middle East and North Africa,33.854721,35.862285,YE,Yemen,country,Middle East and North Africa,15.552727,48.516388,2400.94247300665,2006,528,15,19,4,0,0,0,0,305,0,0,0,19,147,0,18,0,0,1,0,0,0,0,0
MG,Madagascar,country,Sub-Saharan Africa,-18.766947,46.869107,YE,Yemen,country,Middle East and North Africa,15.552727,48.516388,3824.71102029919,2006,21,0,0,0,0,0,0,0,0,0,21,0,0,0,0,0,0,0,0,0,0,0,0,0
MY,Malaysia,country,East Asia and Pacific,4.210484,101.975766,YE,Yemen,country,Middle East and North Africa,15.552727,48.516388,5980.10083643748,2006,131920,4028,0,346,3308,0,36,437,261,0,0,0,877,997,121356,21,0,0,253,0,0,0,0,0
ML,Mali,country,Sub-Saharan Africa,17.570692,-3.996166,YE,Yemen,country,Middle East and North Africa,15.552727,48.516388,5590.04600697157,2006,9,0,0,0,0,0,0,0,0,0,0,0,0,0,0,0,0,0,9,0,0,0,0,0
MT,Malta,country,Middle East and North Africa,35.937496,14.375416,YE,Yemen,country,Middle East and North Africa,15.552727,48.516388,4072.90928426755,2006,1617,22,0,0,0,0,0,0,0,0,0,0,0,1595,0,0,0,0,0,0,0,0,0,0
MA,Morocco,country,Middle East and North Africa,31.791702,-7.09262,YE,Yemen,country,Middle East and North Africa,15.552727,48.516388,5884.28837568472,2006,3400,0,0,21,0,0,0,0,0,0,0,0,0,0,0,0,33,0,3379,0,0,0,0,0
NL,Netherlands,country,Europe and Central Asia,52.132633,5.291266,YE,Yemen,country,Middle East and North Africa,15.552727,48.516388,5567.76949615627,2006,32875,583,45,1002,0,0,21,0,0,0,0,26650,0,936,153,42,269,18,3425,0,0,0,0,0
NZ,New Zealand,country,East Asia and Pacific,-40.900557,174.885971,YE,Yemen,country,Middle East and North Africa,15.552727,48.516388,14181.9250367704,2006,10309,0,0,0,0,0,0,0,0,0,0,0,0,0,0,0,0,471,9838,0,0,0,0,0
NG,Nigeria,country,Sub-Saharan Africa,9.081999,8.675277,YE,Yemen,country,Middle East and North Africa,15.552727,48.516388,4385.73212357103,2006,160,0,0,0,0,160,0,0,0,0,0,0,0,0,0,0,0,0,0,0,0,0,0,0
NO,Norway,country,Europe and Central Asia,60.472024,8.468946,YE,Yemen,country,Middle East and North Africa,15.552727,48.516388,5940.15611884409,2006,1,0,0,0,0,0,0,0,1,0,0,0,0,0,0,0,0,0,0,0,0,0,0,0
PS,Palestine,country,Middle East and North Africa,31.952162,35.233154,YE,Yemen,country,Middle East and North Africa,15.552727,48.516388,2267.8858739687,2006,13,0,0,2,0,0,0,0,0,0,0,0,0,9,1,0,0,0,1,0,0,0,0,0
OM,Oman,country,Middle East and North Africa,21.512583,55.923255,YE,Yemen,country,Middle East and North Africa,15.552727,48.516388,1024.94171136052,2006,25639,16366,5,0,88,0,0,3122,224,0,0,34,0,219,3232,5,0,254,2090,0,0,0,0,0
PK,Pakistan,country,South Asia,30.375321,69.345116,YE,Yemen,country,Middle East and North Africa,15.552727,48.516388,2689.4895735583,2006,3632,1000,0,582,108,0,925,0,163,12,308,0,89,442,3,0,0,0,0,0,0,0,0,0
PH,Philippines,country,East Asia and Pacific,12.879721,121.774017,YE,Yemen,country,Middle East and North Africa,15.552727,48.516388,7871.70348100984,2006,67,0,0,0,0,0,38,0,0,0,0,0,0,29,0,0,0,0,0,0,0,0,0,0
PL,Poland,country,Europe and Central Asia,51.919438,19.145136,YE,Yemen,country,Middle East and North Africa,15.552727,48.516388,4809.99666967664,2006,4198,126,0,3205,0,0,0,0,0,0,0,0,411,0,0,0,0,0,456,0,0,0,0,0
QA,Qatar,country,Middle East and North Africa,25.354826,51.183884,YE,Yemen,country,Middle East and North Africa,15.552727,48.516388,1125.95689628297,2006,39,0,0,0,0,0,0,39,0,0,0,0,0,0,0,0,0,0,0,0,0,0,0,0
KR,"Korea, Rep.",country,East Asia and Pacific,35.907757,127.766922,YE,Yemen,country,Middle East and North Africa,15.552727,48.516388,8056.72672002934,2006,41,0,0,20,0,0,0,0,0,0,0,0,0,3,18,0,0,0,0,0,0,0,0,0
RU,Russian Federation,country,Europe and Central Asia,61.52401,105.318756,YE,Yemen,country,Middle East and North Africa,15.552727,48.516388,6773.16011690724,2006,5259,5000,0,0,0,0,0,0,0,0,0,0,0,259,0,0,0,0,0,0,0,0,0,0
WS,Samoa,country,East Asia and Pacific,-13.759029,-172.104629,YE,Yemen,country,Middle East and North Africa,15.552727,48.516388,15664.53627242,2006,18,0,0,0,0,0,0,0,0,0,0,0,0,0,0,18,0,0,0,0,0,0,0,0
SA,Saudi Arabia,country,Middle East and North Africa,23.885942,45.079162,YE,Yemen,country,Middle East and North Africa,15.552727,48.516388,994.962087477527,2006,179406,17992,2529,12703,337,46,158,6136,49424,18,462,61,480,5484,2236,56423,788,1673,23244,0,0,0,0,0
SG,Singapore,country,East Asia and Pacific,1.352083,103.819836,YE,Yemen,country,Middle East and North Africa,15.552727,48.516388,6269.45837379242,2006,38183,10020,0,0,0,33,97,0,150,0,274,0,59,0,27448,0,0,0,102,0,0,0,0,0
SI,Slovenia,country,Europe and Central Asia,46.151241,14.995463,YE,Yemen,country,Middle East and North Africa,15.552727,48.516388,4612.03577249016,2006,15,0,0,0,0,0,0,0,0,0,0,0,0,0,15,0,0,0,0,0,0,0,0,0
SO,Somalia,country,Sub-Saharan Africa,5.152149,46.199616,YE,Yemen,country,Middle East and North Africa,15.552727,48.516388,1185.17569796322,2006,10089,0,0,9001,32,0,983,1,3,0,14,0,0,0,2,0,0,0,53,0,0,0,0,0
ZA,S. Africa,country,Sub-Saharan Africa,-30.559482,22.937506,YE,Yemen,country,Middle East and North Africa,15.552727,48.516388,5818.6526037916,2006,2498,0,0,0,0,0,17,0,102,0,0,0,0,2379,0,0,0,0,0,0,0,0,0,0
ES,Spain,country,Europe and Central Asia,40.463667,-3.74922,YE,Yemen,country,Middle East and North Africa,15.552727,48.516388,5732.4484973809,2006,931,49,0,0,0,0,466,3,0,0,0,0,4,339,56,0,0,0,14,0,0,0,0,0
LK,Sri Lanka,country,South Asia,7.873054,80.771797,YE,Yemen,country,Middle East and North Africa,15.552727,48.516388,3613.50426468729,2006,101,0,0,0,0,0,44,0,0,0,20,0,37,0,0,0,0,0,0,0,0,0,0,0
SD,Sudan,country,Sub-Saharan Africa,12.862807,30.217636,YE,Yemen,country,Middle East and North Africa,15.552727,48.516388,1996.55530210888,2006,6215,0,0,0,0,0,216,0,0,0,5,0,0,5994,0,0,0,0,0,0,0,0,0,0
SR,Suriname,country,Latin America and the Caribbean,3.919305,-56.027783,YE,Yemen,country,Middle East and North Africa,15.552727,48.516388,11453.3913306902,2006,19,19,0,0,0,0,0,0,0,0,0,0,0,0,0,0,0,0,0,0,0,0,0,0
SZ,Swaziland,country,Sub-Saharan Africa,-26.522503,31.465866,YE,Yemen,country,Middle East and North Africa,15.552727,48.516388,5033.94441238812,2006,16438,12180,0,0,0,0,4000,0,3,0,0,0,0,4,0,0,0,0,251,0,0,0,0,0
SE,Sweden,country,Europe and Central Asia,60.128161,18.643501,YE,Yemen,country,Middle East and North Africa,15.552727,48.516388,5517.64292744005,2006,311,0,0,0,0,0,0,0,0,0,0,0,0,0,0,0,0,131,180,0,0,0,0,0
CH,Switzerland,country,Europe and Central Asia,46.818188,8.227512,YE,Yemen,country,Middle East and North Africa,15.552727,48.516388,5087.51158473012,2006,22906,12168,0,0,0,0,0,0,0,0,0,0,5,9032,0,1701,0,0,0,0,0,0,0,0
SY,Syrian Arab Rep.,country,Middle East and North Africa,34.802075,38.996815,YE,Yemen,country,Middle East and North Africa,15.552727,48.516388,2344.48521241392,2006,4196,1298,7,1009,0,8,1,23,546,0,798,0,11,103,191,196,0,0,5,0,0,0,0,0
TH,Thailand,country,East Asia and Pacific,15.870032,100.992541,YE,Yemen,country,Middle East and North Africa,15.552727,48.516388,5607.85442943642,2006,19567,0,0,2007,118,109,0,709,10549,0,116,420,0,837,295,4407,0,0,0,0,0,0,0,0
TN,Tunisia,country,Middle East and North Africa,33.886917,9.537499,YE,Yemen,country,Middle East and North Africa,15.552727,48.516388,4401.40252468683,2006,585,174,0,0,0,0,0,396,0,0,0,0,0,0,15,0,0,0,0,0,0,0,0,0
TR,Turkey,country,Europe and Central Asia,38.963745,35.243322,YE,Yemen,country,Middle East and North Africa,15.552727,48.516388,2910.64500427987,2006,22474,12876,0,211,2165,0,0,0,214,0,99,0,854,2671,2987,78,0,0,319,0,0,0,0,0
UG,Uganda,country,Sub-Saharan Africa,1.373333,32.290275,YE,Yemen,country,Middle East and North Africa,15.552727,48.516388,2380.24894397306,2006,0,0,0,0,0,0,0,0,0,0,0,0,0,0,0,0,0,0,0,0,0,0,0,0
UA,Ukraine,country,Europe and Central Asia,48.379433,31.16558,YE,Yemen,country,Middle East and North Africa,15.552727,48.516388,3983.77852686248,2006,97154,96239,0,0,0,0,0,0,0,0,0,0,0,0,0,0,0,0,915,0,0,0,0,0
AE,United Arab Emirates,country,Middle East and North Africa,23.424076,53.847818,YE,Yemen,country,Middle East and North Africa,15.552727,48.516388,1039.28505072365,2006,228364,20482,59,139161,307,98,167,2722,20307,1,934,20428,1172,3095,9778,804,33,1359,7490,0,0,0,0,0
GB,United Kingdom,country,Europe and Central Asia,55.378051,-3.435973,YE,Yemen,country,Middle East and North Africa,15.552727,48.516388,6243.14697759231,2006,15326,464,0,2416,3491,0,418,1,24,0,0,0,161,6363,0,35,0,0,1953,0,0,0,0,0
TZ,Tanzania,country,Sub-Saharan Africa,-6.369028,34.888822,YE,Yemen,country,Middle East and North Africa,15.552727,48.516388,2865.85589430864,2006,0,0,0,0,0,0,0,0,0,0,0,0,0,0,0,0,0,0,0,0,0,0,0,0
US,USA,country,North America,37.09024,-95.712891,YE,Yemen,country,Middle East and North Africa,15.552727,48.516388,13080.5256939974,2006,187691,181117,8,307,49,19,74,35,280,0,0,0,0,1742,2,0,11,176,3882,0,0,0,0,0
UY,Uruguay,country,Latin America and the Caribbean,-32.522779,-55.765835,YE,Yemen,country,Middle East and North Africa,15.552727,48.516388,12262.3064289231,2006,188,0,0,0,0,0,0,163,0,0,0,0,0,0,0,0,0,0,25,0,0,0,0,0
VN,Vietnam,country,East Asia and Pacific,14.058324,108.277199,YE,Yemen,country,Middle East and North Africa,15.552727,48.516388,6412.43502746854,2006,867,14,0,68,0,0,72,0,0,0,713,0,0,0,0,0,0,0,0,0,0,0,0,0
ZW,Zimbabwe,country,Sub-Saharan Africa,-19.015438,29.154857,YE,Yemen,country,Middle East and North Africa,15.552727,48.516388,4393.94472945579,2006,213,0,0,0,0,0,0,0,0,0,0,0,0,213,0,0,0,0,0,0,0,0,0,0
AF,Afghanistan,country,South Asia,33.93911,67.709953,YE,Yemen,country,Middle East and North Africa,15.552727,48.516388,2809.80049300432,2007,77,0,0,0,0,0,0,0,0,0,77,0,0,0,0,0,0,0,0,0,0,0,0,0
